{"businesses": [{"id": "Ve9Tl-ru_6F3WVFG4zBV-A", "alias": "maurizio-trattoria-italiana-encinitas", "name": "Maurizio Trattoria Italiana", "image_url": "https://s3-media1.fl.yelpcdn.com/bphoto/EMVM_r8h-iqGwoBhg7MbPw/o.jpg", "is_closed": false, "url": "https://www.yelp.com/biz/maurizio-trattoria-italiana-encinitas?adjust_creative=oncXGL2aPIKrtJdnWeFSnA&utm_campaign=yelp_api_v3&utm_medium=api_v3_business_search&utm_source=oncXGL2aPIKrtJdnWeFSnA", "review_count": 370, "categories": [{"alias": "italian", "title": "Italian"}], "rating": 4.5, "coordinates": {"latitude": 33.0458881253134, "longitude": -117.293677765499}, "transactions": ["pickup", "restaurant_reservation"], "price": "$$", "location": {"address1": "505 S Coast Hwy 101", "address2": "", "address3": "", "city": "Encinitas", "zip_code": "92024", "country": "US", "state": "CA", "display_address": ["505 S Coast Hwy 101", "Encinitas, CA 92024"]}, "phone": "+17609427332", "display_phone": "(760) 942-7332", "distance": 3668.872272925819}, {"id": "TLF_euB5yoR93G_EG_7bFA", "alias": "alices-italian-gourmet-encinitas", "name": "Alice's Italian Gourmet", "image_url": "https://s3-media2.fl.yelpcdn.com/bphoto/wdWatEjuW_afoUsUS5MEhg/o.jpg", "is_closed": false, "url": "https://www.yelp.com/biz/alices-italian-gourmet-encinitas?adjust_creative=oncXGL2aPIKrtJdnWeFSnA&utm_campaign=yelp_api_v3&utm_medium=api_v3_business_search&utm_source=oncXGL2aPIKrtJdnWeFSnA", "review_count": 143, "categories": [{"alias": "italian", "title": "Italian"}], "rating": 4.5, "coordinates": {"latitude": 33.0515732, "longitude": -117.2610449}, "transactions": [], "price": "$$", "location": {"address1": "252 N  El Camino Real", "address2": "", "address3": null, "city": "Encinitas", "zip_code": "92024", "country": "US", "state": "CA", "display_address": ["252 N  El Camino Real", "Encinitas, CA 92024"]}, "phone": "+17606326933", "display_phone": "(760) 632-6933", "distance": 861.1916317943428}, {"id": "aRacnEURw6oTkrijdeUZXA", "alias": "buona-forchetta-encinitas", "name": "Buona Forchetta", "image_url": "https://s3-media3.fl.yelpcdn.com/bphoto/WXve-tSW9FcOXICtSENE9g/o.jpg", "is_closed": false, "url": "https://www.yelp.com/biz/buona-forchetta-encinitas?adjust_creative=oncXGL2aPIKrtJdnWeFSnA&utm_campaign=yelp_api_v3&utm_medium=api_v3_business_search&utm_source=oncXGL2aPIKrtJdnWeFSnA", "review_count": 25, "categories": [{"alias": "pizza", "title": "Pizza"}, {"alias": "italian", "title": "Italian"}, {"alias": "wine_bars", "title": "Wine Bars"}], "rating": 5.0, "coordinates": {"latitude": 33.05359, "longitude": -117.29659}, "transactions": [], "location": {"address1": "250 N Coast Hwy 101", "address2": "", "address3": null, "city": "Encinitas", "zip_code": "92024", "country": "US", "state": "CA", "display_address": ["250 N Coast Hwy 101", "Encinitas, CA 92024"]}, "phone": "+17607048070", "display_phone": "(760) 704-8070", "distance": 4058.020215047268}, {"id": "Qlue-v1qqcBwqFWi6qq3CQ", "alias": "rosatis-encinitas-encinitas", "name": "Rosati's Encinitas", "image_url": "https://s3-media1.fl.yelpcdn.com/bphoto/Fbi8TsDEkwRyCcrcmeLdRQ/o.jpg", "is_closed": false, "url": "https://www.yelp.com/biz/rosatis-encinitas-encinitas?adjust_creative=oncXGL2aPIKrtJdnWeFSnA&utm_campaign=yelp_api_v3&utm_medium=api_v3_business_search&utm_source=oncXGL2aPIKrtJdnWeFSnA", "review_count": 255, "categories": [{"alias": "pizza", "title": "Pizza"}, {"alias": "italian", "title": "Italian"}, {"alias": "sportsbars", "title": "Sports Bars"}], "rating": 4.0, "coordinates": {"latitude": 33.0557654984971, "longitude": -117.261638827622}, "transactions": [], "price": "$$", "location": {"address1": "337 N El Camino Real", "address2": "", "address3": "", "city": "Encinitas", "zip_code": "92024", "country": "US", "state": "CA", "display_address": ["337 N El Camino Real", "Encinitas, CA 92024"]}, "phone": "+17604522007", "display_phone": "(760) 452-2007", "distance": 1387.8096546160048}, {"id": "UpKJcVLkukHRx3CoOyli2A", "alias": "trattoria-i-trulli-encinitas", "name": "Trattoria I Trulli", "image_url": "https://s3-media2.fl.yelpcdn.com/bphoto/DpQhStljt3-fWLptx3oqaw/o.jpg", "is_closed": false, "url": "https://www.yelp.com/biz/trattoria-i-trulli-encinitas?adjust_creative=oncXGL2aPIKrtJdnWeFSnA&utm_campaign=yelp_api_v3&utm_medium=api_v3_business_search&utm_source=oncXGL2aPIKrtJdnWeFSnA", "review_count": 513, "categories": [{"alias": "italian", "title": "Italian"}], "rating": 4.0, "coordinates": {"latitude": 33.0412937178634, "longitude": -117.293395252634}, "transactions": [], "price": "$$", "location": {"address1": "830 S Coast Hwy 101", "address2": "", "address3": "", "city": "Encinitas", "zip_code": "92024", "country": "US", "state": "CA", "display_address": ["830 S Coast Hwy 101", "Encinitas, CA 92024"]}, "phone": "+17609436800", "display_phone": "(760) 943-6800", "distance": 3662.8486872922044}, {"id": "Wy6PtgzAfiPAl91AlMqm4g", "alias": "cicciottis-trattoria-italiana-cardiff-by-the-sea", "name": "Cicciotti's Trattoria Italiana", "image_url": "https://s3-media3.fl.yelpcdn.com/bphoto/L3RvLcTeSoCDBwobgcrgCg/o.jpg", "is_closed": false, "url": "https://www.yelp.com/biz/cicciottis-trattoria-italiana-cardiff-by-the-sea?adjust_creative=oncXGL2aPIKrtJdnWeFSnA&utm_campaign=yelp_api_v3&utm_medium=api_v3_business_search&utm_source=oncXGL2aPIKrtJdnWeFSnA", "review_count": 701, "categories": [{"alias": "italian", "title": "Italian"}, {"alias": "seafood", "title": "Seafood"}], "rating": 4.0, "coordinates": {"latitude": 33.02348, "longitude": -117.283503}, "transactions": ["delivery", "pickup"], "price": "$$", "location": {"address1": "1933 San Elijo Ave", "address2": null, "address3": "", "city": "Cardiff By The Sea", "zip_code": "92007", "country": "US", "state": "CA", "display_address": ["1933 San Elijo Ave", "Cardiff By The Sea, CA 92007"]}, "phone": "+17606342335", "display_phone": "(760) 634-2335", "distance": 3632.853587405939}, {"id": "hETuEEWgfk1OSJ5K31OFmg", "alias": "rosannas-pasta-shop-encinitas", "name": "Rosanna's Pasta Shop", "image_url": "https://s3-media3.fl.yelpcdn.com/bphoto/l6reGKs0wtLGaFKvFZqmbw/o.jpg", "is_closed": false, "url": "https://www.yelp.com/biz/rosannas-pasta-shop-encinitas?adjust_creative=oncXGL2aPIKrtJdnWeFSnA&utm_campaign=yelp_api_v3&utm_medium=api_v3_business_search&utm_source=oncXGL2aPIKrtJdnWeFSnA", "review_count": 406, "categories": [{"alias": "italian", "title": "Italian"}, {"alias": "pastashops", "title": "Pasta Shops"}, {"alias": "sandwiches", "title": "Sandwiches"}], "rating": 4.0, "coordinates": {"latitude": 33.0525554, "longitude": -117.2613819}, "transactions": [], "price": "$$", "location": {"address1": "270 N El Camino Real", "address2": "Ste I", "address3": "", "city": "Encinitas", "zip_code": "92024", "country": "US", "state": "CA", "display_address": ["270 N El Camino Real", "Ste I", "Encinitas, CA 92024"]}, "phone": "+17607536867", "display_phone": "(760) 753-6867", "distance": 1148.9595556078482}, {"id": "MAN8n9Jw9DhKqnPSt-Y64w", "alias": "leucadia-pizzeria-and-italian-restaurant-encinitas-6", "name": "Leucadia Pizzeria & Italian Restaurant", "image_url": "https://s3-media1.fl.yelpcdn.com/bphoto/lyf5qMjDTg-dRUWYNAW-1w/o.jpg", "is_closed": false, "url": "https://www.yelp.com/biz/leucadia-pizzeria-and-italian-restaurant-encinitas-6?adjust_creative=oncXGL2aPIKrtJdnWeFSnA&utm_campaign=yelp_api_v3&utm_medium=api_v3_business_search&utm_source=oncXGL2aPIKrtJdnWeFSnA", "review_count": 457, "categories": [{"alias": "italian", "title": "Italian"}, {"alias": "pizza", "title": "Pizza"}, {"alias": "cocktailbars", "title": "Cocktail Bars"}], "rating": 3.5, "coordinates": {"latitude": 33.04835, "longitude": -117.29369}, "transactions": ["delivery"], "price": "$$", "location": {"address1": "315 S Coast Hwy 101", "address2": "", "address3": "", "city": "Encinitas", "zip_code": "92024", "country": "US", "state": "CA", "display_address": ["315 S Coast Hwy 101", "Encinitas, CA 92024"]}, "phone": "+17609422222", "display_phone": "(760) 942-2222", "distance": 3706.5623217698426}, {"id": "oGqdGBCABJzVS2BrBHKzyQ", "alias": "best-pizza-and-brew-cardiff", "name": "Best Pizza & Brew", "image_url": "https://s3-media3.fl.yelpcdn.com/bphoto/1QzaSg950ujmYa9vzU8Tjw/o.jpg", "is_closed": false, "url": "https://www.yelp.com/biz/best-pizza-and-brew-cardiff?adjust_creative=oncXGL2aPIKrtJdnWeFSnA&utm_campaign=yelp_api_v3&utm_medium=api_v3_business_search&utm_source=oncXGL2aPIKrtJdnWeFSnA", "review_count": 162, "categories": [{"alias": "pizza", "title": "Pizza"}, {"alias": "italian", "title": "Italian"}, {"alias": "beerbar", "title": "Beer Bar"}], "rating": 4.0, "coordinates": {"latitude": 33.02063, "longitude": -117.2819}, "transactions": [], "price": "$$", "location": {"address1": "102 Aberdeen Dr", "address2": "", "address3": "", "city": "Cardiff", "zip_code": "92007", "country": "US", "state": "CA", "display_address": ["102 Aberdeen Dr", "Cardiff, CA 92007"]}, "phone": "+17604367000", "display_phone": "(760) 436-7000", "distance": 3735.1662935527233}, {"id": "cj0-W-t1oIOrV1cQ4Y3CZw", "alias": "napizza-encinitas", "name": "Napizza", "image_url": "https://s3-media1.fl.yelpcdn.com/bphoto/EtstORP3JTH707ybTudtIg/o.jpg", "is_closed": false, "url": "https://www.yelp.com/biz/napizza-encinitas?adjust_creative=oncXGL2aPIKrtJdnWeFSnA&utm_campaign=yelp_api_v3&utm_medium=api_v3_business_search&utm_source=oncXGL2aPIKrtJdnWeFSnA", "review_count": 143, "categories": [{"alias": "pizza", "title": "Pizza"}, {"alias": "italian", "title": "Italian"}], "rating": 4.0, "coordinates": {"latitude": 33.04432, "longitude": -117.29332}, "transactions": ["delivery", "pickup"], "price": "$$", "location": {"address1": "615 S Coast Hwy 101", "address2": null, "address3": "", "city": "Encinitas", "zip_code": "92024", "country": "US", "state": "CA", "display_address": ["615 S Coast Hwy 101", "Encinitas, CA 92024"]}, "phone": "+17604522340", "display_phone": "(760) 452-2340", "distance": 3644.236770139288}, {"id": "O_2Gx9n5zp7hBrqmROjLew", "alias": "pizzaiolo-encinitas", "name": "Pizzaiolo", "image_url": "https://s3-media3.fl.yelpcdn.com/bphoto/z5im45PoO6-64sXjILS24A/o.jpg", "is_closed": false, "url": "https://www.yelp.com/biz/pizzaiolo-encinitas?adjust_creative=oncXGL2aPIKrtJdnWeFSnA&utm_campaign=yelp_api_v3&utm_medium=api_v3_business_search&utm_source=oncXGL2aPIKrtJdnWeFSnA", "review_count": 92, "categories": [{"alias": "pizza", "title": "Pizza"}, {"alias": "italian", "title": "Italian"}], "rating": 4.0, "coordinates": {"latitude": 33.0370615, "longitude": -117.280196}, "transactions": ["delivery", "pickup"], "price": "$", "location": {"address1": "554 Santa Fe Dr", "address2": "", "address3": "", "city": "Encinitas", "zip_code": "92024", "country": "US", "state": "CA", "display_address": ["554 Santa Fe Dr", "Encinitas, CA 92024"]}, "phone": "+17607532885", "display_phone": "(760) 753-2885", "distance": 2563.054573006113}, {"id": "zUvpU9O2jkL5ETMBxMeiIg", "alias": "pie-craft-encinitas-2", "name": "Pie Craft", "image_url": "https://s3-media1.fl.yelpcdn.com/bphoto/6J_BxnSU7VznbJG-XHr6NQ/o.jpg", "is_closed": false, "url": "https://www.yelp.com/biz/pie-craft-encinitas-2?adjust_creative=oncXGL2aPIKrtJdnWeFSnA&utm_campaign=yelp_api_v3&utm_medium=api_v3_business_search&utm_source=oncXGL2aPIKrtJdnWeFSnA", "review_count": 190, "categories": [{"alias": "pizza", "title": "Pizza"}, {"alias": "italian", "title": "Italian"}], "rating": 4.0, "coordinates": {"latitude": 33.0515732, "longitude": -117.2610449}, "transactions": ["delivery", "pickup"], "price": "$$", "location": {"address1": "252 N El Camino Real", "address2": "Suite 5", "address3": "", "city": "Encinitas", "zip_code": "92024", "country": "US", "state": "CA", "display_address": ["252 N El Camino Real", "Suite 5", "Encinitas, CA 92024"]}, "phone": "+17606352800", "display_phone": "(760) 635-2800", "distance": 861.1916317943428}, {"id": "JJ3JVMuyS2bpsQUoE5kAhA", "alias": "firenze-trattoria-encinitas", "name": "Firenze Trattoria", "image_url": "https://s3-media1.fl.yelpcdn.com/bphoto/eIOmLKh6W2sYlvuSeQW6mg/o.jpg", "is_closed": false, "url": "https://www.yelp.com/biz/firenze-trattoria-encinitas?adjust_creative=oncXGL2aPIKrtJdnWeFSnA&utm_campaign=yelp_api_v3&utm_medium=api_v3_business_search&utm_source=oncXGL2aPIKrtJdnWeFSnA", "review_count": 169, "categories": [{"alias": "italian", "title": "Italian"}], "rating": 3.5, "coordinates": {"latitude": 33.0359535217285, "longitude": -117.238479614258}, "transactions": [], "price": "$$$", "location": {"address1": "162 S Rancho Santa Fe Rd", "address2": "", "address3": "", "city": "Encinitas", "zip_code": "92024", "country": "US", "state": "CA", "display_address": ["162 S Rancho Santa Fe Rd", "Encinitas, CA 92024"]}, "phone": "+17609449000", "display_phone": "(760) 944-9000", "distance": 1823.9316493031092}, {"id": "uVveZbYVUsoTkLIz085CpQ", "alias": "trattoria-positano-cardiff", "name": "Trattoria Positano", "image_url": "https://s3-media2.fl.yelpcdn.com/bphoto/x0B7TkCQBf9iFYl_Y6Ay8A/o.jpg", "is_closed": false, "url": "https://www.yelp.com/biz/trattoria-positano-cardiff?adjust_creative=oncXGL2aPIKrtJdnWeFSnA&utm_campaign=yelp_api_v3&utm_medium=api_v3_business_search&utm_source=oncXGL2aPIKrtJdnWeFSnA", "review_count": 146, "categories": [{"alias": "italian", "title": "Italian"}], "rating": 4.0, "coordinates": {"latitude": 33.01995, "longitude": -117.281585}, "transactions": [], "price": "$$", "location": {"address1": "2171 San Elijo Ave", "address2": "", "address3": "", "city": "Cardiff", "zip_code": "92007", "country": "US", "state": "CA", "display_address": ["2171 San Elijo Ave", "Cardiff, CA 92007"]}, "phone": "+17606320111", "display_phone": "(760) 632-0111", "distance": 3769.1223644522856}, {"id": "GqsoLyxkqh_ZJ7AbSY7cdg", "alias": "borrellis-pizza-and-italian-restaurant-encinitas", "name": "Borrelli's Pizza & Italian Restaurant", "image_url": "https://s3-media4.fl.yelpcdn.com/bphoto/kW1j_sjvgjoFxam_NMjzxg/o.jpg", "is_closed": false, "url": "https://www.yelp.com/biz/borrellis-pizza-and-italian-restaurant-encinitas?adjust_creative=oncXGL2aPIKrtJdnWeFSnA&utm_campaign=yelp_api_v3&utm_medium=api_v3_business_search&utm_source=oncXGL2aPIKrtJdnWeFSnA", "review_count": 195, "categories": [{"alias": "pizza", "title": "Pizza"}, {"alias": "italian", "title": "Italian"}], "rating": 3.0, "coordinates": {"latitude": 33.053208, "longitude": -117.261107}, "transactions": ["delivery", "pickup"], "price": "$$", "location": {"address1": "285 N El Camino Real", "address2": "Ste 106", "address3": "", "city": "Encinitas", "zip_code": "92024", "country": "US", "state": "CA", "display_address": ["285 N El Camino Real", "Ste 106", "Encinitas, CA 92024"]}, "phone": "+17604361501", "display_phone": "(760) 436-1501", "distance": 1119.8440512627014}, {"id": "l34qfz5oRfpLVuEcvBp4Pw", "alias": "buca-di-beppo-italian-restaurant-carlsbad-3", "name": "Buca di Beppo Italian Restaurant", "image_url": "https://s3-media2.fl.yelpcdn.com/bphoto/HjX10vYwJxrqs55wBLNWpQ/o.jpg", "is_closed": false, "url": "https://www.yelp.com/biz/buca-di-beppo-italian-restaurant-carlsbad-3?adjust_creative=oncXGL2aPIKrtJdnWeFSnA&utm_campaign=yelp_api_v3&utm_medium=api_v3_business_search&utm_source=oncXGL2aPIKrtJdnWeFSnA", "review_count": 391, "categories": [{"alias": "italian", "title": "Italian"}], "rating": 3.0, "coordinates": {"latitude": 33.0722341387192, "longitude": -117.267009615898}, "transactions": ["delivery", "pickup"], "price": "$$", "location": {"address1": "1921 Calle Barcelona", "address2": "", "address3": "", "city": "Carlsbad", "zip_code": "92009", "country": "US", "state": "CA", "display_address": ["1921 Calle Barcelona", "Carlsbad, CA 92009"]}, "phone": "+17604792533", "display_phone": "(760) 479-2533", "distance": 3261.963431598995}, {"id": "cVVxcRO-m-ObsuYD3thxLQ", "alias": "crust-pizzeria-carlsbad", "name": "Crust Pizzeria", "image_url": "https://s3-media3.fl.yelpcdn.com/bphoto/CVNKSesTTLGh52dCBMR7iQ/o.jpg", "is_closed": false, "url": "https://www.yelp.com/biz/crust-pizzeria-carlsbad?adjust_creative=oncXGL2aPIKrtJdnWeFSnA&utm_campaign=yelp_api_v3&utm_medium=api_v3_business_search&utm_source=oncXGL2aPIKrtJdnWeFSnA", "review_count": 355, "categories": [{"alias": "pizza", "title": "Pizza"}, {"alias": "wine_bars", "title": "Wine Bars"}, {"alias": "italian", "title": "Italian"}], "rating": 4.0, "coordinates": {"latitude": 33.0757914, "longitude": -117.2378596}, "transactions": ["delivery"], "price": "$$", "location": {"address1": "3263 Camino De Los Coches", "address2": "Ste 105", "address3": "", "city": "Carlsbad", "zip_code": "92009", "country": "US", "state": "CA", "display_address": ["3263 Camino De Los Coches", "Ste 105", "Carlsbad, CA 92009"]}, "phone": "+17609441111", "display_phone": "(760) 944-1111", "distance": 3748.844315815337}, {"id": "iDqjGpLfBOUNBD0bZUPHTA", "alias": "pizza-hut-carlsbad-4", "name": "Pizza Hut", "image_url": "https://s3-media2.fl.yelpcdn.com/bphoto/rMVZqWULh1ri3noZ5FjIAw/o.jpg", "is_closed": false, "url": "https://www.yelp.com/biz/pizza-hut-carlsbad-4?adjust_creative=oncXGL2aPIKrtJdnWeFSnA&utm_campaign=yelp_api_v3&utm_medium=api_v3_business_search&utm_source=oncXGL2aPIKrtJdnWeFSnA", "review_count": 34, "categories": [{"alias": "pizza", "title": "Pizza"}, {"alias": "italian", "title": "Italian"}, {"alias": "chicken_wings", "title": "Chicken Wings"}], "rating": 4.0, "coordinates": {"latitude": 33.0825253, "longitude": -117.266711}, "transactions": [], "price": "$", "location": {"address1": "7750 El Camino Real", "address2": "Ste E", "address3": "", "city": "Carlsbad", "zip_code": "92009", "country": "US", "state": "CA", "display_address": ["7750 El Camino Real", "Ste E", "Carlsbad, CA 92009"]}, "phone": "+17609444222", "display_phone": "(760) 944-4222", "distance": 4340.905500914886}, {"id": "uBX1D3n92z-eKYAZwAXuFg", "alias": "pasta-bravo-encinitas", "name": "Pasta Bravo", "image_url": "", "is_closed": false, "url": "https://www.yelp.com/biz/pasta-bravo-encinitas?adjust_creative=oncXGL2aPIKrtJdnWeFSnA&utm_campaign=yelp_api_v3&utm_medium=api_v3_business_search&utm_source=oncXGL2aPIKrtJdnWeFSnA", "review_count": 2, "categories": [{"alias": "italian", "title": "Italian"}], "rating": 2.5, "coordinates": {"latitude": 33.0585327148438, "longitude": -117.255516052246}, "transactions": [], "price": "$", "location": {"address1": "30465 Avenida Delas", "address2": "Fl ores", "address3": "", "city": "Encinitas", "zip_code": "92024", "country": "US", "state": "CA", "display_address": ["30465 Avenida Delas", "Fl ores", "Encinitas, CA 92024"]}, "phone": "+17607537434", "display_phone": "(760) 753-7434", "distance": 146.34734300446186}], "total": 19, "region": {"center": {"longitude": -117.25433349609375, "latitude": 33.04488992556048}}}