{"businesses": [{"id": "ZLcfZOUonKJN5G5fH7k1RA", "alias": "the-taco-stand-encinitas", "name": "The Taco Stand", "image_url": "https://s3-media4.fl.yelpcdn.com/bphoto/cgzu7PmXDxqCdMolyQ7gqA/o.jpg", "is_closed": false, "url": "https://www.yelp.com/biz/the-taco-stand-encinitas?adjust_creative=oncXGL2aPIKrtJdnWeFSnA&utm_campaign=yelp_api_v3&utm_medium=api_v3_business_search&utm_source=oncXGL2aPIKrtJdnWeFSnA", "review_count": 936, "categories": [{"alias": "tacos", "title": "Tacos"}], "rating": 4.0, "coordinates": {"latitude": 33.04407, "longitude": -117.29388}, "transactions": ["delivery", "pickup"], "price": "$", "location": {"address1": "642 S Coast Hwy 101", "address2": "", "address3": null, "city": "Encinitas", "zip_code": "92024", "country": "US", "state": "CA", "display_address": ["642 S Coast Hwy 101", "Encinitas, CA 92024"]}, "phone": "+17602302061", "display_phone": "(760) 230-2061", "distance": 3688.4604760714997}, {"id": "APOCBfHgMglE92IMOMR25Q", "alias": "lourdes-encinitas-2", "name": "Lourdes", "image_url": "https://s3-media4.fl.yelpcdn.com/bphoto/LfluaVf9xd8nxNa6t2IFpA/o.jpg", "is_closed": false, "url": "https://www.yelp.com/biz/lourdes-encinitas-2?adjust_creative=oncXGL2aPIKrtJdnWeFSnA&utm_campaign=yelp_api_v3&utm_medium=api_v3_business_search&utm_source=oncXGL2aPIKrtJdnWeFSnA", "review_count": 220, "categories": [{"alias": "mexican", "title": "Mexican"}], "rating": 4.0, "coordinates": {"latitude": 33.020943, "longitude": -117.282154}, "transactions": [], "price": "$", "location": {"address1": "2113 San Elijo Ave", "address2": "", "address3": "", "city": "Encinitas", "zip_code": "92007", "country": "US", "state": "CA", "display_address": ["2113 San Elijo Ave", "Encinitas, CA 92007"]}, "phone": "+17602302610", "display_phone": "(760) 230-2610", "distance": 3717.0382571084237}, {"id": "WbBb90IKaMjClcdUN9jeSw", "alias": "juanitas-taco-shop-encinitas", "name": "Juanitas Taco Shop", "image_url": "https://s3-media4.fl.yelpcdn.com/bphoto/L_CRXPlsniwLWruKYWa5lw/o.jpg", "is_closed": false, "url": "https://www.yelp.com/biz/juanitas-taco-shop-encinitas?adjust_creative=oncXGL2aPIKrtJdnWeFSnA&utm_campaign=yelp_api_v3&utm_medium=api_v3_business_search&utm_source=oncXGL2aPIKrtJdnWeFSnA", "review_count": 629, "categories": [{"alias": "mexican", "title": "Mexican"}], "rating": 4.0, "coordinates": {"latitude": 33.0542148243286, "longitude": -117.296938029407}, "transactions": [], "price": "$", "location": {"address1": "290 N Coast Hwy 101", "address2": "", "address3": "", "city": "Encinitas", "zip_code": "92024", "country": "US", "state": "CA", "display_address": ["290 N Coast Hwy 101", "Encinitas, CA 92024"]}, "phone": "+17609439612", "display_phone": "(760) 943-9612", "distance": 4104.0304653879975}, {"id": "_CALpa7IughJF00lwIzqIA", "alias": "el-pueblo-authentic-mexican-food-cardiff-by-the-sea", "name": "El Pueblo Authentic Mexican Food", "image_url": "https://s3-media4.fl.yelpcdn.com/bphoto/nfnjElbPzXLRp7XVup_5eA/o.jpg", "is_closed": false, "url": "https://www.yelp.com/biz/el-pueblo-authentic-mexican-food-cardiff-by-the-sea?adjust_creative=oncXGL2aPIKrtJdnWeFSnA&utm_campaign=yelp_api_v3&utm_medium=api_v3_business_search&utm_source=oncXGL2aPIKrtJdnWeFSnA", "review_count": 385, "categories": [{"alias": "mexican", "title": "Mexican"}], "rating": 4.0, "coordinates": {"latitude": 33.0267, "longitude": -117.27321}, "transactions": [], "price": "$", "location": {"address1": "820 Birmingham Dr", "address2": "", "address3": "", "city": "Cardiff-by-the-Sea", "zip_code": "92007", "country": "US", "state": "CA", "display_address": ["820 Birmingham Dr", "Cardiff-by-the-Sea, CA 92007"]}, "phone": "+17602301771", "display_phone": "(760) 230-1771", "distance": 2661.2585064428085}, {"id": "2P1a4MWhcFfER_IoX28lgQ", "alias": "casa-de-bandini-carlsbad", "name": "Casa de Bandini", "image_url": "https://s3-media3.fl.yelpcdn.com/bphoto/PI3ciHhBNkQNqC5p8egSxQ/o.jpg", "is_closed": false, "url": "https://www.yelp.com/biz/casa-de-bandini-carlsbad?adjust_creative=oncXGL2aPIKrtJdnWeFSnA&utm_campaign=yelp_api_v3&utm_medium=api_v3_business_search&utm_source=oncXGL2aPIKrtJdnWeFSnA", "review_count": 1203, "categories": [{"alias": "mexican", "title": "Mexican"}, {"alias": "bars", "title": "Bars"}], "rating": 4.0, "coordinates": {"latitude": 33.071562089619, "longitude": -117.26717118703}, "transactions": ["pickup"], "price": "$$", "location": {"address1": "1901 Calle Barcelona", "address2": "", "address3": "", "city": "Carlsbad", "zip_code": "92009", "country": "US", "state": "CA", "display_address": ["1901 Calle Barcelona", "Carlsbad, CA 92009"]}, "phone": "+17606343443", "display_phone": "(760) 634-3443", "distance": 3198.026715153155}, {"id": "rqyHvjt_EBJdFkjobVFnzQ", "alias": "el-nopalito-encinitas", "name": "El Nopalito", "image_url": "https://s3-media3.fl.yelpcdn.com/bphoto/I_whlVOHVo8ij2lQ8WwPMQ/o.jpg", "is_closed": false, "url": "https://www.yelp.com/biz/el-nopalito-encinitas?adjust_creative=oncXGL2aPIKrtJdnWeFSnA&utm_campaign=yelp_api_v3&utm_medium=api_v3_business_search&utm_source=oncXGL2aPIKrtJdnWeFSnA", "review_count": 237, "categories": [{"alias": "mexican", "title": "Mexican"}, {"alias": "grocery", "title": "Grocery"}, {"alias": "butcher", "title": "Butcher"}], "rating": 4.0, "coordinates": {"latitude": 33.0363709, "longitude": -117.2798319}, "transactions": [], "price": "$", "location": {"address1": "560 Santa Fe Dr", "address2": null, "address3": "", "city": "Encinitas", "zip_code": "92024", "country": "US", "state": "CA", "display_address": ["560 Santa Fe Dr", "Encinitas, CA 92024"]}, "phone": "+17604365775", "display_phone": "(760) 436-5775", "distance": 2561.6712113975977}, {"id": "AyhX5xuo6fqwL-uWMqLvEw", "alias": "jorges-mexicatessen-encinitas-2", "name": "Jorge's Mexicatessen", "image_url": "https://s3-media2.fl.yelpcdn.com/bphoto/GTn_Prsu25GWd4NhBKiB_w/o.jpg", "is_closed": false, "url": "https://www.yelp.com/biz/jorges-mexicatessen-encinitas-2?adjust_creative=oncXGL2aPIKrtJdnWeFSnA&utm_campaign=yelp_api_v3&utm_medium=api_v3_business_search&utm_source=oncXGL2aPIKrtJdnWeFSnA", "review_count": 207, "categories": [{"alias": "mexican", "title": "Mexican"}], "rating": 4.0, "coordinates": {"latitude": 33.0361182935692, "longitude": -117.283408641815}, "transactions": [], "price": "$", "location": {"address1": "417 Santa Fe Dr", "address2": "Ste B", "address3": "", "city": "Encinitas", "zip_code": "92024", "country": "US", "state": "CA", "display_address": ["417 Santa Fe Dr", "Ste B", "Encinitas, CA 92024"]}, "phone": "", "display_phone": "", "distance": 2880.3483623060565}, {"id": "W2faQfnZ5bJBsChMvFbMOw", "alias": "jorges-mexicatessen-encinitas", "name": "Jorge's Mexicatessen", "image_url": "https://s3-media4.fl.yelpcdn.com/bphoto/xSftnqCSghmm7n-g4DsNPQ/o.jpg", "is_closed": false, "url": "https://www.yelp.com/biz/jorges-mexicatessen-encinitas?adjust_creative=oncXGL2aPIKrtJdnWeFSnA&utm_campaign=yelp_api_v3&utm_medium=api_v3_business_search&utm_source=oncXGL2aPIKrtJdnWeFSnA", "review_count": 346, "categories": [{"alias": "delis", "title": "Delis"}, {"alias": "mexican", "title": "Mexican"}], "rating": 4.0, "coordinates": {"latitude": 33.05312, "longitude": -117.260166}, "transactions": [], "price": "$", "location": {"address1": "267 N El Camino Real", "address2": "Ste E", "address3": "", "city": "Encinitas", "zip_code": "92024", "country": "US", "state": "CA", "display_address": ["267 N El Camino Real", "Ste E", "Encinitas, CA 92024"]}, "phone": "+17609426809", "display_phone": "(760) 942-6809", "distance": 1064.4240672709752}, {"id": "XlDunwj53mS-KsD8m0r6kw", "alias": "las-olas-mexican-restaurant-cardiff-by-the-sea-3", "name": "Las Olas Mexican Restaurant", "image_url": "https://s3-media1.fl.yelpcdn.com/bphoto/0IWoC47Z3VMPcasxOclFiQ/o.jpg", "is_closed": false, "url": "https://www.yelp.com/biz/las-olas-mexican-restaurant-cardiff-by-the-sea-3?adjust_creative=oncXGL2aPIKrtJdnWeFSnA&utm_campaign=yelp_api_v3&utm_medium=api_v3_business_search&utm_source=oncXGL2aPIKrtJdnWeFSnA", "review_count": 644, "categories": [{"alias": "mexican", "title": "Mexican"}], "rating": 3.5, "coordinates": {"latitude": 33.0111985453815, "longitude": -117.278914525577}, "transactions": [], "price": "$$", "location": {"address1": "2655 S Coast Hwy 101", "address2": null, "address3": "", "city": "Cardiff by the Sea", "zip_code": "92007", "country": "US", "state": "CA", "display_address": ["2655 S Coast Hwy 101", "Cardiff by the Sea, CA 92007"]}, "phone": "+17609421860", "display_phone": "(760) 942-1860", "distance": 4391.607708846784}, {"id": "7I7UsXW13ezDf55zg00RLQ", "alias": "hacienda-de-vega-encinitas", "name": "Hacienda de Vega", "image_url": "https://s3-media2.fl.yelpcdn.com/bphoto/FcZDAumVLzJ3Gs-D_58rxA/o.jpg", "is_closed": false, "url": "https://www.yelp.com/biz/hacienda-de-vega-encinitas?adjust_creative=oncXGL2aPIKrtJdnWeFSnA&utm_campaign=yelp_api_v3&utm_medium=api_v3_business_search&utm_source=oncXGL2aPIKrtJdnWeFSnA", "review_count": 75, "categories": [{"alias": "mexican", "title": "Mexican"}], "rating": 3.0, "coordinates": {"latitude": 33.0354266644617, "longitude": -117.238577669478}, "transactions": [], "location": {"address1": "162 S Rancho Santa Fe Rd", "address2": "", "address3": null, "city": "Encinitas", "zip_code": "92024", "country": "US", "state": "CA", "display_address": ["162 S Rancho Santa Fe Rd", "Encinitas, CA 92024"]}, "phone": "+17607389804", "display_phone": "(760) 738-9804", "distance": 1806.7110512692936}, {"id": "DZO_aJ_ACOjuQOOMIfpxcw", "alias": "ricos-taco-shop-encinitas", "name": "Rico's Taco Shop", "image_url": "https://s3-media1.fl.yelpcdn.com/bphoto/QXHEs2QDwCoPhK9zK4f5mw/o.jpg", "is_closed": false, "url": "https://www.yelp.com/biz/ricos-taco-shop-encinitas?adjust_creative=oncXGL2aPIKrtJdnWeFSnA&utm_campaign=yelp_api_v3&utm_medium=api_v3_business_search&utm_source=oncXGL2aPIKrtJdnWeFSnA", "review_count": 350, "categories": [{"alias": "mexican", "title": "Mexican"}], "rating": 4.0, "coordinates": {"latitude": 33.0435614, "longitude": -117.2593351}, "transactions": [], "price": "$", "location": {"address1": "165 S El Camino Real", "address2": "", "address3": "", "city": "Encinitas", "zip_code": "92024", "country": "US", "state": "CA", "display_address": ["165 S El Camino Real", "Encinitas, CA 92024"]}, "phone": "+17609447689", "display_phone": "(760) 944-7689", "distance": 440.54824373020136}, {"id": "IiqvG_uGyXUwN2B4jQqPYQ", "alias": "cotixan-mexican-and-seafood-encinitas", "name": "Cotixan Mexican & Seafood", "image_url": "https://s3-media2.fl.yelpcdn.com/bphoto/DhTQorN8hIHYzg3tRAPUmw/o.jpg", "is_closed": false, "url": "https://www.yelp.com/biz/cotixan-mexican-and-seafood-encinitas?adjust_creative=oncXGL2aPIKrtJdnWeFSnA&utm_campaign=yelp_api_v3&utm_medium=api_v3_business_search&utm_source=oncXGL2aPIKrtJdnWeFSnA", "review_count": 265, "categories": [{"alias": "mexican", "title": "Mexican"}], "rating": 3.5, "coordinates": {"latitude": 33.05065, "longitude": -117.25994}, "transactions": [], "price": "$", "location": {"address1": "219 N El Camino Real", "address2": "", "address3": "", "city": "Encinitas", "zip_code": "92024", "country": "US", "state": "CA", "display_address": ["219 N El Camino Real", "Encinitas, CA 92024"]}, "phone": "+17604792567", "display_phone": "(760) 479-2567", "distance": 835.4743725866264}, {"id": "SjCIJF3gFxYzdjgx6GDQlg", "alias": "wahoos-fish-tacos-encinitas", "name": "Wahoo's Fish Tacos", "image_url": "https://s3-media3.fl.yelpcdn.com/bphoto/vtvrEdRgnjCWOIDSyCnjkw/o.jpg", "is_closed": false, "url": "https://www.yelp.com/biz/wahoos-fish-tacos-encinitas?adjust_creative=oncXGL2aPIKrtJdnWeFSnA&utm_campaign=yelp_api_v3&utm_medium=api_v3_business_search&utm_source=oncXGL2aPIKrtJdnWeFSnA", "review_count": 163, "categories": [{"alias": "mexican", "title": "Mexican"}, {"alias": "seafood", "title": "Seafood"}], "rating": 3.5, "coordinates": {"latitude": 33.0644, "longitude": -117.26417}, "transactions": ["delivery"], "price": "$", "location": {"address1": "1006 N El Camino Real", "address2": "Ste C", "address3": "", "city": "Encinitas", "zip_code": "92024", "country": "US", "state": "CA", "display_address": ["1006 N El Camino Real", "Ste C", "Encinitas, CA 92024"]}, "phone": "+17607535060", "display_phone": "(760) 753-5060", "distance": 2346.5083643510434}, {"id": "1bmpgZJcs3--ofLFHa7AUA", "alias": "rauls-shack-encinitas", "name": "Raul's Shack", "image_url": "https://s3-media3.fl.yelpcdn.com/bphoto/7dhIxS31104DTt3QGYIWeQ/o.jpg", "is_closed": false, "url": "https://www.yelp.com/biz/rauls-shack-encinitas?adjust_creative=oncXGL2aPIKrtJdnWeFSnA&utm_campaign=yelp_api_v3&utm_medium=api_v3_business_search&utm_source=oncXGL2aPIKrtJdnWeFSnA", "review_count": 171, "categories": [{"alias": "hotdogs", "title": "Fast Food"}, {"alias": "mexican", "title": "Mexican"}], "rating": 4.0, "coordinates": {"latitude": 33.04619, "longitude": -117.294039}, "transactions": [], "price": "$", "location": {"address1": "490 S Coast Hwy 101", "address2": "", "address3": "", "city": "Encinitas", "zip_code": "92024", "country": "US", "state": "CA", "display_address": ["490 S Coast Hwy 101", "Encinitas, CA 92024"]}, "phone": "+17604368589", "display_phone": "(760) 436-8589", "distance": 3716.591051400175}, {"id": "hU3fuUNW_aqOOjG-xHXX9g", "alias": "chipotle-mexican-grill-encinitas", "name": "Chipotle Mexican Grill", "image_url": "https://s3-media1.fl.yelpcdn.com/bphoto/HcTyKCBUKZuW1MuQxOzIog/o.jpg", "is_closed": false, "url": "https://www.yelp.com/biz/chipotle-mexican-grill-encinitas?adjust_creative=oncXGL2aPIKrtJdnWeFSnA&utm_campaign=yelp_api_v3&utm_medium=api_v3_business_search&utm_source=oncXGL2aPIKrtJdnWeFSnA", "review_count": 124, "categories": [{"alias": "mexican", "title": "Mexican"}, {"alias": "hotdogs", "title": "Fast Food"}], "rating": 3.5, "coordinates": {"latitude": 33.052259407957, "longitude": -117.261572691785}, "transactions": [], "price": "$", "location": {"address1": "268 N El Camino Real", "address2": "", "address3": "", "city": "Encinitas", "zip_code": "92024", "country": "US", "state": "CA", "display_address": ["268 N El Camino Real", "Encinitas, CA 92024"]}, "phone": "+17606353863", "display_phone": "(760) 635-3863", "distance": 1061.4844591626256}, {"id": "HaN7pYLmrlTsYoeoMfVQrg", "alias": "el-nopalito-restaurant-encinitas-3", "name": "El Nopalito Restaurant", "image_url": "https://s3-media2.fl.yelpcdn.com/bphoto/REEP95iw0CLn8KaFAtEcug/o.jpg", "is_closed": false, "url": "https://www.yelp.com/biz/el-nopalito-restaurant-encinitas-3?adjust_creative=oncXGL2aPIKrtJdnWeFSnA&utm_campaign=yelp_api_v3&utm_medium=api_v3_business_search&utm_source=oncXGL2aPIKrtJdnWeFSnA", "review_count": 37, "categories": [{"alias": "mexican", "title": "Mexican"}], "rating": 4.0, "coordinates": {"latitude": 33.0367149, "longitude": -117.2798219}, "transactions": [], "price": "$", "location": {"address1": "582 Santa Fe Dr", "address2": "", "address3": "", "city": "Encinitas", "zip_code": "92024", "country": "US", "state": "CA", "display_address": ["582 Santa Fe Dr", "Encinitas, CA 92024"]}, "phone": "+17604369206", "display_phone": "(760) 436-9206", "distance": 2543.804733805782}, {"id": "SbnFep7WVPSDeC-1sZEdZA", "alias": "filibertos-mexican-food-encinitas-6", "name": "Filiberto's Mexican Food", "image_url": "https://s3-media2.fl.yelpcdn.com/bphoto/p08twi7HUkg8XhbyPUYzZw/o.jpg", "is_closed": false, "url": "https://www.yelp.com/biz/filibertos-mexican-food-encinitas-6?adjust_creative=oncXGL2aPIKrtJdnWeFSnA&utm_campaign=yelp_api_v3&utm_medium=api_v3_business_search&utm_source=oncXGL2aPIKrtJdnWeFSnA", "review_count": 162, "categories": [{"alias": "mexican", "title": "Mexican"}], "rating": 3.0, "coordinates": {"latitude": 33.04622, "longitude": -117.29417}, "transactions": [], "price": "$", "location": {"address1": "476 S. Coast Hwy. 101", "address2": "", "address3": "", "city": "Encinitas", "zip_code": "92024", "country": "US", "state": "CA", "display_address": ["476 S. Coast Hwy. 101", "Encinitas, CA 92024"]}, "phone": "+17607539515", "display_phone": "(760) 753-9515", "distance": 3712.909209778601}, {"id": "PwjsXljywhaNEr-lpD3KMQ", "alias": "rubios-coastal-grill-encinitas", "name": "Rubio's Coastal Grill", "image_url": "https://s3-media1.fl.yelpcdn.com/bphoto/2O_MUpsornVjhj5Dw0-ABw/o.jpg", "is_closed": false, "url": "https://www.yelp.com/biz/rubios-coastal-grill-encinitas?adjust_creative=oncXGL2aPIKrtJdnWeFSnA&utm_campaign=yelp_api_v3&utm_medium=api_v3_business_search&utm_source=oncXGL2aPIKrtJdnWeFSnA", "review_count": 113, "categories": [{"alias": "mexican", "title": "Mexican"}, {"alias": "seafood", "title": "Seafood"}, {"alias": "salad", "title": "Salad"}], "rating": 3.0, "coordinates": {"latitude": 33.050325585603, "longitude": -117.260774048706}, "transactions": ["delivery"], "price": "$", "location": {"address1": "252 N El Camino Real", "address2": "", "address3": "", "city": "Encinitas", "zip_code": "92024", "country": "US", "state": "CA", "display_address": ["252 N El Camino Real", "Encinitas, CA 92024"]}, "phone": "+17606327395", "display_phone": "(760) 632-7395", "distance": 851.8648639757433}, {"id": "ctojIMhafieoAbBhdxjrQQ", "alias": "mexico-viejo-restaurant-encinitas", "name": "Mexico Viejo Restaurant", "image_url": "https://s3-media1.fl.yelpcdn.com/bphoto/GD2IUdpmgSzOE0MUVfWzNg/o.jpg", "is_closed": false, "url": "https://www.yelp.com/biz/mexico-viejo-restaurant-encinitas?adjust_creative=oncXGL2aPIKrtJdnWeFSnA&utm_campaign=yelp_api_v3&utm_medium=api_v3_business_search&utm_source=oncXGL2aPIKrtJdnWeFSnA", "review_count": 35, "categories": [{"alias": "mexican", "title": "Mexican"}], "rating": 3.5, "coordinates": {"latitude": 33.0452041625977, "longitude": -117.25715637207}, "transactions": [], "price": "$", "location": {"address1": "1465 Encinitas Blvd", "address2": "", "address3": "", "city": "Encinitas", "zip_code": "92024", "country": "US", "state": "CA", "display_address": ["1465 Encinitas Blvd", "Encinitas, CA 92024"]}, "phone": "+17609449556", "display_phone": "(760) 944-9556", "distance": 276.71851595703606}, {"id": "W_OWgB0oi8tAbQZGfRvRwA", "alias": "robertos-taco-shop-encinitas", "name": "Roberto's Taco Shop", "image_url": "https://s3-media3.fl.yelpcdn.com/bphoto/0ht4XDOiF4aRdg8V09tKVw/o.jpg", "is_closed": false, "url": "https://www.yelp.com/biz/robertos-taco-shop-encinitas?adjust_creative=oncXGL2aPIKrtJdnWeFSnA&utm_campaign=yelp_api_v3&utm_medium=api_v3_business_search&utm_source=oncXGL2aPIKrtJdnWeFSnA", "review_count": 58, "categories": [{"alias": "mexican", "title": "Mexican"}], "rating": 3.0, "coordinates": {"latitude": 33.046178, "longitude": -117.282368}, "transactions": [], "price": "$", "location": {"address1": "471 Encinitas Blvd", "address2": null, "address3": "", "city": "Encinitas", "zip_code": "92024", "country": "US", "state": "CA", "display_address": ["471 Encinitas Blvd", "Encinitas, CA 92024"]}, "phone": "+17604875688", "display_phone": "(760) 487-5688", "distance": 2616.952622756219}, {"id": "QPUrjq9j2aYSQGNibhghkg", "alias": "el-pueblo-authentic-mexican-food-carlsbad", "name": "El Pueblo Authentic Mexican Food", "image_url": "https://s3-media2.fl.yelpcdn.com/bphoto/RRcwIaON-SjpfBg6IjAtNg/o.jpg", "is_closed": false, "url": "https://www.yelp.com/biz/el-pueblo-authentic-mexican-food-carlsbad?adjust_creative=oncXGL2aPIKrtJdnWeFSnA&utm_campaign=yelp_api_v3&utm_medium=api_v3_business_search&utm_source=oncXGL2aPIKrtJdnWeFSnA", "review_count": 136, "categories": [{"alias": "mexican", "title": "Mexican"}], "rating": 4.0, "coordinates": {"latitude": 33.0808713411585, "longitude": -117.236894314219}, "transactions": [], "price": "$", "location": {"address1": "7720 Rancho Santa Fe Rd", "address2": "Ste 125", "address3": null, "city": "Carlsbad", "zip_code": "92009", "country": "US", "state": "CA", "display_address": ["7720 Rancho Santa Fe Rd", "Ste 125", "Carlsbad, CA 92009"]}, "phone": "+17604875810", "display_phone": "(760) 487-5810", "distance": 4318.410384703177}, {"id": "g2ctkORtZyFVAtUL2nYhRg", "alias": "phatties-escondido-2", "name": "Phatties", "image_url": "https://s3-media1.fl.yelpcdn.com/bphoto/Pl1xAjUU_xmoaqOXv55sPw/o.jpg", "is_closed": false, "url": "https://www.yelp.com/biz/phatties-escondido-2?adjust_creative=oncXGL2aPIKrtJdnWeFSnA&utm_campaign=yelp_api_v3&utm_medium=api_v3_business_search&utm_source=oncXGL2aPIKrtJdnWeFSnA", "review_count": 57, "categories": [{"alias": "foodtrucks", "title": "Food Trucks"}, {"alias": "mexican", "title": "Mexican"}], "rating": 4.5, "coordinates": {"latitude": 33.130036, "longitude": -117.089063}, "transactions": [], "price": "$", "location": {"address1": "242 W Mission Ave", "address2": "Ste D", "address3": "", "city": "Escondido", "zip_code": "92025", "country": "US", "state": "CA", "display_address": ["242 W Mission Ave", "Ste D", "Escondido, CA 92025"]}, "phone": "+18587171637", "display_phone": "(858) 717-1637", "distance": 18075.14690648227}, {"id": "KP9G_h3AzV9E2wHOpMQ9lw", "alias": "mariscos-german-encinitas", "name": "Mariscos German", "image_url": "https://s3-media3.fl.yelpcdn.com/bphoto/jMga9MERt1sWQWc_ghnb1A/o.jpg", "is_closed": false, "url": "https://www.yelp.com/biz/mariscos-german-encinitas?adjust_creative=oncXGL2aPIKrtJdnWeFSnA&utm_campaign=yelp_api_v3&utm_medium=api_v3_business_search&utm_source=oncXGL2aPIKrtJdnWeFSnA", "review_count": 6, "categories": [{"alias": "foodtrucks", "title": "Food Trucks"}, {"alias": "seafood", "title": "Seafood"}, {"alias": "mexican", "title": "Mexican"}], "rating": 4.0, "coordinates": {"latitude": 33.04653, "longitude": -117.28963}, "transactions": [], "location": {"address1": "", "address2": "", "address3": null, "city": "Encinitas", "zip_code": "92024", "country": "US", "state": "CA", "display_address": ["Encinitas, CA 92024"]}, "phone": "", "display_phone": "", "distance": 2466.652384616346}, {"id": "Uz99f636lm-2J_CZ87XiFA", "alias": "el-pollo-loco-encinitas-2", "name": "El Pollo Loco", "image_url": "https://s3-media4.fl.yelpcdn.com/bphoto/XPzEZNYtTnyXNxR1gry-zQ/o.jpg", "is_closed": false, "url": "https://www.yelp.com/biz/el-pollo-loco-encinitas-2?adjust_creative=oncXGL2aPIKrtJdnWeFSnA&utm_campaign=yelp_api_v3&utm_medium=api_v3_business_search&utm_source=oncXGL2aPIKrtJdnWeFSnA", "review_count": 72, "categories": [{"alias": "mexican", "title": "Mexican"}, {"alias": "hotdogs", "title": "Fast Food"}], "rating": 3.0, "coordinates": {"latitude": 33.064582824707, "longitude": -117.263412475586}, "transactions": ["delivery", "pickup"], "price": "$", "location": {"address1": "1002 N El Camino Real", "address2": "", "address3": "", "city": "Encinitas", "zip_code": "92024", "country": "US", "state": "CA", "display_address": ["1002 N El Camino Real", "Encinitas, CA 92024"]}, "phone": "+17609431253", "display_phone": "(760) 943-1253", "distance": 2367.713172916769}, {"id": "T2QDQbxAdjMpoo0Krka8wA", "alias": "angelos-burgers-encinitas-2", "name": "Angelo's Burgers", "image_url": "https://s3-media3.fl.yelpcdn.com/bphoto/v5Cmqk87IIvDcYZzTtKPeA/o.jpg", "is_closed": false, "url": "https://www.yelp.com/biz/angelos-burgers-encinitas-2?adjust_creative=oncXGL2aPIKrtJdnWeFSnA&utm_campaign=yelp_api_v3&utm_medium=api_v3_business_search&utm_source=oncXGL2aPIKrtJdnWeFSnA", "review_count": 154, "categories": [{"alias": "burgers", "title": "Burgers"}, {"alias": "breakfast_brunch", "title": "Breakfast & Brunch"}, {"alias": "mexican", "title": "Mexican"}], "rating": 4.0, "coordinates": {"latitude": 33.04442, "longitude": -117.29393}, "transactions": [], "price": "$", "location": {"address1": "608 S Coast Highway 101", "address2": null, "address3": "", "city": "Encinitas", "zip_code": "92024", "country": "US", "state": "CA", "display_address": ["608 S Coast Highway 101", "Encinitas, CA 92024"]}, "phone": "+17609439115", "display_phone": "(760) 943-9115", "distance": 3690.6579179682058}, {"id": "cAzSUuyk4O9cWTQREzhwDw", "alias": "robertos-mexican-food-encinitas-2", "name": "Robertos Mexican Food", "image_url": "https://s3-media1.fl.yelpcdn.com/bphoto/gjZqwfveP6qLH1_tJgwlvw/o.jpg", "is_closed": false, "url": "https://www.yelp.com/biz/robertos-mexican-food-encinitas-2?adjust_creative=oncXGL2aPIKrtJdnWeFSnA&utm_campaign=yelp_api_v3&utm_medium=api_v3_business_search&utm_source=oncXGL2aPIKrtJdnWeFSnA", "review_count": 80, "categories": [{"alias": "mexican", "title": "Mexican"}], "rating": 3.5, "coordinates": {"latitude": 33.0524035813037, "longitude": -117.262289524061}, "transactions": [], "price": "$", "location": {"address1": "274 N El Camino Real", "address2": "Ste B", "address3": "", "city": "Encinitas", "zip_code": "92024", "country": "US", "state": "CA", "display_address": ["274 N El Camino Real", "Ste B", "Encinitas, CA 92024"]}, "phone": "+17602306488", "display_phone": "(760) 230-6488", "distance": 1117.0954635509265}, {"id": "kOaqHg3egQ_N6JhmdrngpA", "alias": "rimels-zenbu-cardiff-by-the-sea", "name": "Rimel's Zenbu", "image_url": "https://s3-media3.fl.yelpcdn.com/bphoto/sVqxmrC61_r5F2SH3s-XYw/o.jpg", "is_closed": false, "url": "https://www.yelp.com/biz/rimels-zenbu-cardiff-by-the-sea?adjust_creative=oncXGL2aPIKrtJdnWeFSnA&utm_campaign=yelp_api_v3&utm_medium=api_v3_business_search&utm_source=oncXGL2aPIKrtJdnWeFSnA", "review_count": 8, "categories": [{"alias": "mexican", "title": "Mexican"}], "rating": 3.5, "coordinates": {"latitude": 33.02203, "longitude": -117.2824}, "transactions": [], "price": "$$$", "location": {"address1": "2011 San Elijo Ave", "address2": null, "address3": null, "city": "Cardiff By the Sea", "zip_code": "92007", "country": "US", "state": "CA", "display_address": ["2011 San Elijo Ave", "Cardiff By the Sea, CA 92007"]}, "phone": "+17606331310", "display_phone": "(760) 633-1310", "distance": 3660.6832013400767}, {"id": "Dv9aFbavvTXseYuXs2hOFQ", "alias": "taco-bell-encinitas", "name": "Taco Bell", "image_url": "https://s3-media4.fl.yelpcdn.com/bphoto/DpdSav2t5lE2qMlxe8Tt3A/o.jpg", "is_closed": false, "url": "https://www.yelp.com/biz/taco-bell-encinitas?adjust_creative=oncXGL2aPIKrtJdnWeFSnA&utm_campaign=yelp_api_v3&utm_medium=api_v3_business_search&utm_source=oncXGL2aPIKrtJdnWeFSnA", "review_count": 51, "categories": [{"alias": "hotdogs", "title": "Fast Food"}, {"alias": "mexican", "title": "Mexican"}, {"alias": "tex-mex", "title": "Tex-Mex"}], "rating": 2.0, "coordinates": {"latitude": 33.046120044418, "longitude": -117.25648519217}, "transactions": ["delivery"], "price": "$", "location": {"address1": "1502 Encinitas Blvd", "address2": "", "address3": "", "city": "Encinitas", "zip_code": "92024", "country": "US", "state": "CA", "display_address": ["1502 Encinitas Blvd", "Encinitas, CA 92024"]}, "phone": "+17604368033", "display_phone": "(760) 436-8033", "distance": 242.75850008861119}, {"id": "caquwLQ2wuApa618uL3YQg", "alias": "cotijas-taco-shop-carlsbad-4", "name": "Cotijas Taco Shop", "image_url": "https://s3-media4.fl.yelpcdn.com/bphoto/EfZiMB7WObqMtNBbuo2ztA/o.jpg", "is_closed": false, "url": "https://www.yelp.com/biz/cotijas-taco-shop-carlsbad-4?adjust_creative=oncXGL2aPIKrtJdnWeFSnA&utm_campaign=yelp_api_v3&utm_medium=api_v3_business_search&utm_source=oncXGL2aPIKrtJdnWeFSnA", "review_count": 12, "categories": [{"alias": "mexican", "title": "Mexican"}], "rating": 4.0, "coordinates": {"latitude": 33.07517, "longitude": -117.23842}, "transactions": [], "location": {"address1": "3235 Camino De Los Coches", "address2": "Ste 100", "address3": null, "city": "Carlsbad", "zip_code": "92009", "country": "US", "state": "CA", "display_address": ["3235 Camino De Los Coches", "Ste 100", "Carlsbad, CA 92009"]}, "phone": "+17604526110", "display_phone": "(760) 452-6110", "distance": 3701.939662366722}, {"id": "qoBZe8WWxopUogmsRy6RXw", "alias": "rudys-taco-shop-la-costa", "name": "Rudy's Taco Shop", "image_url": "https://s3-media4.fl.yelpcdn.com/bphoto/E4xUi9b2wVl_FWgBrrOf-Q/o.jpg", "is_closed": false, "url": "https://www.yelp.com/biz/rudys-taco-shop-la-costa?adjust_creative=oncXGL2aPIKrtJdnWeFSnA&utm_campaign=yelp_api_v3&utm_medium=api_v3_business_search&utm_source=oncXGL2aPIKrtJdnWeFSnA", "review_count": 310, "categories": [{"alias": "mexican", "title": "Mexican"}], "rating": 3.5, "coordinates": {"latitude": 33.0859952141872, "longitude": -117.266599434918}, "transactions": [], "price": "$", "location": {"address1": "7662 N El Camino Real", "address2": "Ste 102", "address3": "", "city": "La Costa", "zip_code": "92009", "country": "US", "state": "CA", "display_address": ["7662 N El Camino Real", "Ste 102", "La Costa, CA 92009"]}, "phone": "+17609448226", "display_phone": "(760) 944-8226", "distance": 4711.4482464409075}, {"id": "za8QZyF8x5ixuJOoOB_qXw", "alias": "chipotle-mexican-grill-carlsbad-2", "name": "Chipotle Mexican Grill", "image_url": "https://s3-media3.fl.yelpcdn.com/bphoto/_5bo-pfcs_WLwR7-m11P-g/o.jpg", "is_closed": false, "url": "https://www.yelp.com/biz/chipotle-mexican-grill-carlsbad-2?adjust_creative=oncXGL2aPIKrtJdnWeFSnA&utm_campaign=yelp_api_v3&utm_medium=api_v3_business_search&utm_source=oncXGL2aPIKrtJdnWeFSnA", "review_count": 57, "categories": [{"alias": "mexican", "title": "Mexican"}, {"alias": "hotdogs", "title": "Fast Food"}], "rating": 3.0, "coordinates": {"latitude": 33.082, "longitude": -117.23582}, "transactions": [], "price": "$", "location": {"address1": "3416 Via Mercato", "address2": "", "address3": "", "city": "Carlsbad", "zip_code": "92009", "country": "US", "state": "CA", "display_address": ["3416 Via Mercato", "Carlsbad, CA 92009"]}, "phone": "+17604000056", "display_phone": "(760) 400-0056", "distance": 4448.521598612083}, {"id": "0nXHSn4VwyAiRIgG0tdGQg", "alias": "salt-and-lime-san-diego", "name": "Salt and Lime", "image_url": "https://s3-media2.fl.yelpcdn.com/bphoto/uRAJWrKdya1kgxMmiEEofQ/o.jpg", "is_closed": false, "url": "https://www.yelp.com/biz/salt-and-lime-san-diego?adjust_creative=oncXGL2aPIKrtJdnWeFSnA&utm_campaign=yelp_api_v3&utm_medium=api_v3_business_search&utm_source=oncXGL2aPIKrtJdnWeFSnA", "review_count": 102, "categories": [{"alias": "mexican", "title": "Mexican"}, {"alias": "foodtrucks", "title": "Food Trucks"}], "rating": 4.0, "coordinates": {"latitude": 32.7176361083984, "longitude": -117.162132263184}, "transactions": [], "price": "$$", "location": {"address1": "", "address2": null, "address3": "", "city": "San Diego", "zip_code": "92101", "country": "US", "state": "CA", "display_address": ["San Diego, CA 92101"]}, "phone": "+16503531670", "display_phone": "(650) 353-1670", "distance": 36328.4508662886}, {"id": "YkxLpFjxrS4q2wc274mlFQ", "alias": "epic-eatz-carlsbad-3", "name": "Epic Eatz", "image_url": "https://s3-media2.fl.yelpcdn.com/bphoto/Hoj_uM9UuOfhNwLXbslxlg/o.jpg", "is_closed": false, "url": "https://www.yelp.com/biz/epic-eatz-carlsbad-3?adjust_creative=oncXGL2aPIKrtJdnWeFSnA&utm_campaign=yelp_api_v3&utm_medium=api_v3_business_search&utm_source=oncXGL2aPIKrtJdnWeFSnA", "review_count": 95, "categories": [{"alias": "foodtrucks", "title": "Food Trucks"}, {"alias": "mexican", "title": "Mexican"}], "rating": 3.5, "coordinates": {"latitude": 33.148057, "longitude": -117.305483}, "transactions": [], "price": "$", "location": {"address1": null, "address2": "", "address3": "", "city": "Carlsbad", "zip_code": "92008", "country": "US", "state": "CA", "display_address": ["Carlsbad, CA 92008"]}, "phone": "+19518400163", "display_phone": "(951) 840-0163", "distance": 12358.145974214505}, {"id": "Le9DX_q_s8GYVkNQCTp-HA", "alias": "tacoman-national-city", "name": "TacoMan", "image_url": "https://s3-media4.fl.yelpcdn.com/bphoto/LLcgbYfoAbOPNn92sZbb0A/o.jpg", "is_closed": false, "url": "https://www.yelp.com/biz/tacoman-national-city?adjust_creative=oncXGL2aPIKrtJdnWeFSnA&utm_campaign=yelp_api_v3&utm_medium=api_v3_business_search&utm_source=oncXGL2aPIKrtJdnWeFSnA", "review_count": 80, "categories": [{"alias": "foodtrucks", "title": "Food Trucks"}, {"alias": "mexican", "title": "Mexican"}], "rating": 4.0, "coordinates": {"latitude": 32.66145, "longitude": -117.09244}, "transactions": ["delivery", "pickup"], "price": "$", "location": {"address1": "2708 Highland Ave", "address2": null, "address3": "", "city": "National City", "zip_code": "91950", "country": "US", "state": "CA", "display_address": ["2708 Highland Ave", "National City, CA 91950"]}, "phone": "+16195868848", "display_phone": "(619) 586-8848", "distance": 45239.38513882575}, {"id": "qk_bOClZYT8GLDVfCYr3GA", "alias": "famoso-catering-san-diego", "name": "Famoso Catering", "image_url": "https://s3-media3.fl.yelpcdn.com/bphoto/CcQw_wuN5rAuMa7uWzZxsA/o.jpg", "is_closed": false, "url": "https://www.yelp.com/biz/famoso-catering-san-diego?adjust_creative=oncXGL2aPIKrtJdnWeFSnA&utm_campaign=yelp_api_v3&utm_medium=api_v3_business_search&utm_source=oncXGL2aPIKrtJdnWeFSnA", "review_count": 30, "categories": [{"alias": "catering", "title": "Caterers"}, {"alias": "mexican", "title": "Mexican"}, {"alias": "foodtrucks", "title": "Food Trucks"}], "rating": 4.0, "coordinates": {"latitude": 32.71653, "longitude": -117.15714}, "transactions": [], "price": "$", "location": {"address1": "815 C St", "address2": null, "address3": "", "city": "San Diego", "zip_code": "92101", "country": "US", "state": "CA", "display_address": ["815 C St", "San Diego, CA 92101"]}, "phone": "+16198004144", "display_phone": "(619) 800-4144", "distance": 37611.9650598197}, {"id": "ecBLJ7orYR7Q_vAPzxmGiw", "alias": "joni-sandez-y-su-grupo-norte\u00f1o-san-bernardino-2", "name": "Joni Sandez y Su Grupo Norte\u00f1o", "image_url": "https://s3-media1.fl.yelpcdn.com/bphoto/5PZP3b2aE_Tg6s1_n3wfCw/o.jpg", "is_closed": false, "url": "https://www.yelp.com/biz/joni-sandez-y-su-grupo-norte%C3%B1o-san-bernardino-2?adjust_creative=oncXGL2aPIKrtJdnWeFSnA&utm_campaign=yelp_api_v3&utm_medium=api_v3_business_search&utm_source=oncXGL2aPIKrtJdnWeFSnA", "review_count": 3, "categories": [{"alias": "musicians", "title": "Musicians"}, {"alias": "musicproduction", "title": "Music Production Services"}, {"alias": "mexican", "title": "Mexican"}], "rating": 5.0, "coordinates": {"latitude": 34.1215408, "longitude": -117.2571859}, "transactions": [], "location": {"address1": "25082 Base Line St", "address2": null, "address3": "", "city": "San Bernardino", "zip_code": "92410", "country": "US", "state": "CA", "display_address": ["25082 Base Line St", "San Bernardino, CA 92410"]}, "phone": "+17606605250", "display_phone": "(760) 660-5250", "distance": 119718.27379936614}], "total": 36, "region": {"center": {"longitude": -117.25433349609375, "latitude": 33.04488992556048}}}