{"businesses": [{"id": "aRacnEURw6oTkrijdeUZXA", "alias": "buona-forchetta-encinitas", "name": "Buona Forchetta", "image_url": "https://s3-media3.fl.yelpcdn.com/bphoto/WXve-tSW9FcOXICtSENE9g/o.jpg", "is_closed": false, "url": "https://www.yelp.com/biz/buona-forchetta-encinitas?adjust_creative=oncXGL2aPIKrtJdnWeFSnA&utm_campaign=yelp_api_v3&utm_medium=api_v3_business_search&utm_source=oncXGL2aPIKrtJdnWeFSnA", "review_count": 25, "categories": [{"alias": "pizza", "title": "Pizza"}, {"alias": "italian", "title": "Italian"}, {"alias": "wine_bars", "title": "Wine Bars"}], "rating": 5.0, "coordinates": {"latitude": 33.05359, "longitude": -117.29659}, "transactions": [], "location": {"address1": "250 N Coast Hwy 101", "address2": "", "address3": null, "city": "Encinitas", "zip_code": "92024", "country": "US", "state": "CA", "display_address": ["250 N Coast Hwy 101", "Encinitas, CA 92024"]}, "phone": "+17607048070", "display_phone": "(760) 704-8070", "distance": 4058.020215047268}, {"id": "nqv_l0D5AsFoL2NHwwMLcg", "alias": "blue-ribbon-artisan-pizzeria-encinitas-2", "name": "Blue Ribbon Artisan Pizzeria", "image_url": "https://s3-media3.fl.yelpcdn.com/bphoto/VYFxOirhj1BV1hBCq4rRQA/o.jpg", "is_closed": false, "url": "https://www.yelp.com/biz/blue-ribbon-artisan-pizzeria-encinitas-2?adjust_creative=oncXGL2aPIKrtJdnWeFSnA&utm_campaign=yelp_api_v3&utm_medium=api_v3_business_search&utm_source=oncXGL2aPIKrtJdnWeFSnA", "review_count": 734, "categories": [{"alias": "pizza", "title": "Pizza"}, {"alias": "salad", "title": "Salad"}, {"alias": "soup", "title": "Soup"}], "rating": 4.0, "coordinates": {"latitude": 33.0421671982666, "longitude": -117.289921863477}, "transactions": ["restaurant_reservation"], "price": "$$", "location": {"address1": "897 S Coast Hwy 101", "address2": "Ste F102", "address3": "", "city": "Encinitas", "zip_code": "92024", "country": "US", "state": "CA", "display_address": ["897 S Coast Hwy 101", "Ste F102", "Encinitas, CA 92024"]}, "phone": "+17606347671", "display_phone": "(760) 634-7671", "distance": 3330.9708216301356}, {"id": "ZOaV2dsPKgfa1spWEXl4FA", "alias": "duffs-at-the-beach-encinitas-2", "name": "Duffs At the Beach", "image_url": "https://s3-media3.fl.yelpcdn.com/bphoto/cF7nt9RfAGywqNHVRy9N7g/o.jpg", "is_closed": false, "url": "https://www.yelp.com/biz/duffs-at-the-beach-encinitas-2?adjust_creative=oncXGL2aPIKrtJdnWeFSnA&utm_campaign=yelp_api_v3&utm_medium=api_v3_business_search&utm_source=oncXGL2aPIKrtJdnWeFSnA", "review_count": 120, "categories": [{"alias": "pizza", "title": "Pizza"}, {"alias": "scottish", "title": "Scottish"}, {"alias": "beerbar", "title": "Beer Bar"}], "rating": 4.5, "coordinates": {"latitude": 33.0497874, "longitude": -117.2945725}, "transactions": ["pickup", "delivery"], "price": "$$", "location": {"address1": "90 N Coast Hwy 101", "address2": "Ste 208", "address3": null, "city": "Encinitas", "zip_code": "92024", "country": "US", "state": "CA", "display_address": ["90 N Coast Hwy 101", "Ste 208", "Encinitas, CA 92024"]}, "phone": "+17604875922", "display_phone": "(760) 487-5922", "distance": 3789.8359828566145}, {"id": "Qlue-v1qqcBwqFWi6qq3CQ", "alias": "rosatis-encinitas-encinitas", "name": "Rosati's Encinitas", "image_url": "https://s3-media1.fl.yelpcdn.com/bphoto/Fbi8TsDEkwRyCcrcmeLdRQ/o.jpg", "is_closed": false, "url": "https://www.yelp.com/biz/rosatis-encinitas-encinitas?adjust_creative=oncXGL2aPIKrtJdnWeFSnA&utm_campaign=yelp_api_v3&utm_medium=api_v3_business_search&utm_source=oncXGL2aPIKrtJdnWeFSnA", "review_count": 255, "categories": [{"alias": "pizza", "title": "Pizza"}, {"alias": "italian", "title": "Italian"}, {"alias": "sportsbars", "title": "Sports Bars"}], "rating": 4.0, "coordinates": {"latitude": 33.0557654984971, "longitude": -117.261638827622}, "transactions": [], "price": "$$", "location": {"address1": "337 N El Camino Real", "address2": "", "address3": "", "city": "Encinitas", "zip_code": "92024", "country": "US", "state": "CA", "display_address": ["337 N El Camino Real", "Encinitas, CA 92024"]}, "phone": "+17604522007", "display_phone": "(760) 452-2007", "distance": 1387.8096546160048}, {"id": "KtynJLrjOM1aPWjc0Gy4Qg", "alias": "hammers-ny-pizza-encinitas", "name": "Hammer's NY Pizza", "image_url": "https://s3-media2.fl.yelpcdn.com/bphoto/J9-tW19u2xD8hVvrjxm4Ig/o.jpg", "is_closed": false, "url": "https://www.yelp.com/biz/hammers-ny-pizza-encinitas?adjust_creative=oncXGL2aPIKrtJdnWeFSnA&utm_campaign=yelp_api_v3&utm_medium=api_v3_business_search&utm_source=oncXGL2aPIKrtJdnWeFSnA", "review_count": 181, "categories": [{"alias": "pizza", "title": "Pizza"}], "rating": 4.5, "coordinates": {"latitude": 33.04989, "longitude": -117.25968}, "transactions": [], "price": "$", "location": {"address1": "199 N El Camino Real", "address2": "Ste F", "address3": "", "city": "Encinitas", "zip_code": "92024", "country": "US", "state": "CA", "display_address": ["199 N El Camino Real", "Ste F", "Encinitas, CA 92024"]}, "phone": "+17604875429", "display_phone": "(760) 487-5429", "distance": 754.0257785385495}, {"id": "w-nAhi3UkLc86Ot9CHPWDQ", "alias": "urbn-encinitas-encinitas", "name": "URBN Encinitas", "image_url": "https://s3-media3.fl.yelpcdn.com/bphoto/gmT8tBqChT4lsxVQTRRCeA/o.jpg", "is_closed": false, "url": "https://www.yelp.com/biz/urbn-encinitas-encinitas?adjust_creative=oncXGL2aPIKrtJdnWeFSnA&utm_campaign=yelp_api_v3&utm_medium=api_v3_business_search&utm_source=oncXGL2aPIKrtJdnWeFSnA", "review_count": 205, "categories": [{"alias": "pizza", "title": "Pizza"}, {"alias": "salad", "title": "Salad"}], "rating": 4.0, "coordinates": {"latitude": 33.0424805, "longitude": -117.2935333}, "transactions": ["delivery", "pickup"], "price": "$$", "location": {"address1": "764 S Coast Hwy 101", "address2": "", "address3": "", "city": "Encinitas", "zip_code": "92024", "country": "US", "state": "CA", "display_address": ["764 S Coast Hwy 101", "Encinitas, CA 92024"]}, "phone": "+17609438620", "display_phone": "(760) 943-8620", "distance": 3672.7311600170533}, {"id": "MAN8n9Jw9DhKqnPSt-Y64w", "alias": "leucadia-pizzeria-and-italian-restaurant-encinitas-6", "name": "Leucadia Pizzeria & Italian Restaurant", "image_url": "https://s3-media1.fl.yelpcdn.com/bphoto/lyf5qMjDTg-dRUWYNAW-1w/o.jpg", "is_closed": false, "url": "https://www.yelp.com/biz/leucadia-pizzeria-and-italian-restaurant-encinitas-6?adjust_creative=oncXGL2aPIKrtJdnWeFSnA&utm_campaign=yelp_api_v3&utm_medium=api_v3_business_search&utm_source=oncXGL2aPIKrtJdnWeFSnA", "review_count": 457, "categories": [{"alias": "italian", "title": "Italian"}, {"alias": "pizza", "title": "Pizza"}, {"alias": "cocktailbars", "title": "Cocktail Bars"}], "rating": 3.5, "coordinates": {"latitude": 33.04835, "longitude": -117.29369}, "transactions": ["delivery"], "price": "$$", "location": {"address1": "315 S Coast Hwy 101", "address2": "", "address3": "", "city": "Encinitas", "zip_code": "92024", "country": "US", "state": "CA", "display_address": ["315 S Coast Hwy 101", "Encinitas, CA 92024"]}, "phone": "+17609422222", "display_phone": "(760) 942-2222", "distance": 3706.5623217698426}, {"id": "oGqdGBCABJzVS2BrBHKzyQ", "alias": "best-pizza-and-brew-cardiff", "name": "Best Pizza & Brew", "image_url": "https://s3-media3.fl.yelpcdn.com/bphoto/1QzaSg950ujmYa9vzU8Tjw/o.jpg", "is_closed": false, "url": "https://www.yelp.com/biz/best-pizza-and-brew-cardiff?adjust_creative=oncXGL2aPIKrtJdnWeFSnA&utm_campaign=yelp_api_v3&utm_medium=api_v3_business_search&utm_source=oncXGL2aPIKrtJdnWeFSnA", "review_count": 162, "categories": [{"alias": "pizza", "title": "Pizza"}, {"alias": "italian", "title": "Italian"}, {"alias": "beerbar", "title": "Beer Bar"}], "rating": 4.0, "coordinates": {"latitude": 33.02063, "longitude": -117.2819}, "transactions": [], "price": "$$", "location": {"address1": "102 Aberdeen Dr", "address2": "", "address3": "", "city": "Cardiff", "zip_code": "92007", "country": "US", "state": "CA", "display_address": ["102 Aberdeen Dr", "Cardiff, CA 92007"]}, "phone": "+17604367000", "display_phone": "(760) 436-7000", "distance": 3735.1662935527233}, {"id": "cj0-W-t1oIOrV1cQ4Y3CZw", "alias": "napizza-encinitas", "name": "Napizza", "image_url": "https://s3-media1.fl.yelpcdn.com/bphoto/EtstORP3JTH707ybTudtIg/o.jpg", "is_closed": false, "url": "https://www.yelp.com/biz/napizza-encinitas?adjust_creative=oncXGL2aPIKrtJdnWeFSnA&utm_campaign=yelp_api_v3&utm_medium=api_v3_business_search&utm_source=oncXGL2aPIKrtJdnWeFSnA", "review_count": 143, "categories": [{"alias": "pizza", "title": "Pizza"}, {"alias": "italian", "title": "Italian"}], "rating": 4.0, "coordinates": {"latitude": 33.04432, "longitude": -117.29332}, "transactions": ["delivery", "pickup"], "price": "$$", "location": {"address1": "615 S Coast Hwy 101", "address2": null, "address3": "", "city": "Encinitas", "zip_code": "92024", "country": "US", "state": "CA", "display_address": ["615 S Coast Hwy 101", "Encinitas, CA 92024"]}, "phone": "+17604522340", "display_phone": "(760) 452-2340", "distance": 3644.236770139288}, {"id": "O_2Gx9n5zp7hBrqmROjLew", "alias": "pizzaiolo-encinitas", "name": "Pizzaiolo", "image_url": "https://s3-media3.fl.yelpcdn.com/bphoto/z5im45PoO6-64sXjILS24A/o.jpg", "is_closed": false, "url": "https://www.yelp.com/biz/pizzaiolo-encinitas?adjust_creative=oncXGL2aPIKrtJdnWeFSnA&utm_campaign=yelp_api_v3&utm_medium=api_v3_business_search&utm_source=oncXGL2aPIKrtJdnWeFSnA", "review_count": 92, "categories": [{"alias": "pizza", "title": "Pizza"}, {"alias": "italian", "title": "Italian"}], "rating": 4.0, "coordinates": {"latitude": 33.0370615, "longitude": -117.280196}, "transactions": ["delivery", "pickup"], "price": "$", "location": {"address1": "554 Santa Fe Dr", "address2": "", "address3": "", "city": "Encinitas", "zip_code": "92024", "country": "US", "state": "CA", "display_address": ["554 Santa Fe Dr", "Encinitas, CA 92024"]}, "phone": "+17607532885", "display_phone": "(760) 753-2885", "distance": 2563.054573006113}, {"id": "zUvpU9O2jkL5ETMBxMeiIg", "alias": "pie-craft-encinitas-2", "name": "Pie Craft", "image_url": "https://s3-media1.fl.yelpcdn.com/bphoto/6J_BxnSU7VznbJG-XHr6NQ/o.jpg", "is_closed": false, "url": "https://www.yelp.com/biz/pie-craft-encinitas-2?adjust_creative=oncXGL2aPIKrtJdnWeFSnA&utm_campaign=yelp_api_v3&utm_medium=api_v3_business_search&utm_source=oncXGL2aPIKrtJdnWeFSnA", "review_count": 190, "categories": [{"alias": "pizza", "title": "Pizza"}, {"alias": "italian", "title": "Italian"}], "rating": 4.0, "coordinates": {"latitude": 33.0515732, "longitude": -117.2610449}, "transactions": ["delivery", "pickup"], "price": "$$", "location": {"address1": "252 N El Camino Real", "address2": "Suite 5", "address3": "", "city": "Encinitas", "zip_code": "92024", "country": "US", "state": "CA", "display_address": ["252 N El Camino Real", "Suite 5", "Encinitas, CA 92024"]}, "phone": "+17606352800", "display_phone": "(760) 635-2800", "distance": 861.1916317943428}, {"id": "N00mMr9eRmxBJQqxdl2_SA", "alias": "blaze-fast-fired-pizza-encinitas-2", "name": "Blaze Fast-Fire'd Pizza", "image_url": "https://s3-media1.fl.yelpcdn.com/bphoto/A9Uy6N2lJXNTkME4paCE6g/o.jpg", "is_closed": false, "url": "https://www.yelp.com/biz/blaze-fast-fired-pizza-encinitas-2?adjust_creative=oncXGL2aPIKrtJdnWeFSnA&utm_campaign=yelp_api_v3&utm_medium=api_v3_business_search&utm_source=oncXGL2aPIKrtJdnWeFSnA", "review_count": 270, "categories": [{"alias": "pizza", "title": "Pizza"}, {"alias": "salad", "title": "Salad"}, {"alias": "hotdogs", "title": "Fast Food"}], "rating": 4.5, "coordinates": {"latitude": 33.0484911, "longitude": -117.259474}, "transactions": [], "price": "$", "location": {"address1": "127 North El Camino Real", "address2": "", "address3": "", "city": "Encinitas", "zip_code": "92024", "country": "US", "state": "CA", "display_address": ["127 North El Camino Real", "Encinitas, CA 92024"]}, "phone": "+17604528025", "display_phone": "(760) 452-8025", "distance": 478.66384743220135}, {"id": "7pLLJYvncPB6iAuUAudPHg", "alias": "schooner-station-pizzeria-and-sports-pub-encinitas-2", "name": "Schooner Station Pizzeria & Sports Pub", "image_url": "https://s3-media1.fl.yelpcdn.com/bphoto/_aRBlfH1nfhRpqm4t_U6Mg/o.jpg", "is_closed": false, "url": "https://www.yelp.com/biz/schooner-station-pizzeria-and-sports-pub-encinitas-2?adjust_creative=oncXGL2aPIKrtJdnWeFSnA&utm_campaign=yelp_api_v3&utm_medium=api_v3_business_search&utm_source=oncXGL2aPIKrtJdnWeFSnA", "review_count": 106, "categories": [{"alias": "sportsbars", "title": "Sports Bars"}, {"alias": "gluten_free", "title": "Gluten-Free"}, {"alias": "pizza", "title": "Pizza"}], "rating": 3.5, "coordinates": {"latitude": 33.0362206, "longitude": -117.2857666}, "transactions": ["pickup"], "price": "$$", "location": {"address1": "481 Sante Fe Dr", "address2": "", "address3": "", "city": "Encinitas", "zip_code": "92024", "country": "US", "state": "CA", "display_address": ["481 Sante Fe Dr", "Encinitas, CA 92024"]}, "phone": "+17607539700", "display_phone": "(760) 753-9700", "distance": 2811.6991450057244}, {"id": "do9Q-Voyj5wu1AxmR52WzA", "alias": "east-coast-pizza-cardiff", "name": "East Coast Pizza", "image_url": "https://s3-media3.fl.yelpcdn.com/bphoto/4jYdsKxFiecn6LIe7-ua4g/o.jpg", "is_closed": false, "url": "https://www.yelp.com/biz/east-coast-pizza-cardiff?adjust_creative=oncXGL2aPIKrtJdnWeFSnA&utm_campaign=yelp_api_v3&utm_medium=api_v3_business_search&utm_source=oncXGL2aPIKrtJdnWeFSnA", "review_count": 284, "categories": [{"alias": "pizza", "title": "Pizza"}], "rating": 4.5, "coordinates": {"latitude": 33.022447, "longitude": -117.2822619}, "transactions": [], "price": "$", "location": {"address1": "2015 San Elijo Ave", "address2": null, "address3": "", "city": "Cardiff", "zip_code": "92007", "country": "US", "state": "CA", "display_address": ["2015 San Elijo Ave", "Cardiff, CA 92007"]}, "phone": "+17609441599", "display_phone": "(760) 944-1599", "distance": 3606.3654026547433}, {"id": "0wYGE4bT5zLc8JgloNLmCg", "alias": "besta-wan-pizza-house-cardiff-by-the-sea", "name": "Besta-Wan Pizza House", "image_url": "https://s3-media2.fl.yelpcdn.com/bphoto/WCP9xICwzzkh6NuozZqeog/o.jpg", "is_closed": false, "url": "https://www.yelp.com/biz/besta-wan-pizza-house-cardiff-by-the-sea?adjust_creative=oncXGL2aPIKrtJdnWeFSnA&utm_campaign=yelp_api_v3&utm_medium=api_v3_business_search&utm_source=oncXGL2aPIKrtJdnWeFSnA", "review_count": 416, "categories": [{"alias": "newamerican", "title": "American (New)"}, {"alias": "pizza", "title": "Pizza"}], "rating": 4.0, "coordinates": {"latitude": 33.02091, "longitude": -117.28123}, "transactions": [], "price": "$$", "location": {"address1": "148 Aberdeen Dr", "address2": null, "address3": "", "city": "Cardiff By The Sea", "zip_code": "92007", "country": "US", "state": "CA", "display_address": ["148 Aberdeen Dr", "Cardiff By The Sea, CA 92007"]}, "phone": "+17607536707", "display_phone": "(760) 753-6707", "distance": 3662.7209737040916}, {"id": "z1ALpZAmW-32-9LaMyOL0g", "alias": "flippin-pizza-encinitas-2", "name": "Flippin' Pizza", "image_url": "https://s3-media2.fl.yelpcdn.com/bphoto/o_1LVZ_JPTFhQ2EoIZoQeg/o.jpg", "is_closed": false, "url": "https://www.yelp.com/biz/flippin-pizza-encinitas-2?adjust_creative=oncXGL2aPIKrtJdnWeFSnA&utm_campaign=yelp_api_v3&utm_medium=api_v3_business_search&utm_source=oncXGL2aPIKrtJdnWeFSnA", "review_count": 155, "categories": [{"alias": "pizza", "title": "Pizza"}], "rating": 4.0, "coordinates": {"latitude": 33.0421245, "longitude": -117.2594251}, "transactions": [], "price": "$", "location": {"address1": "215 S El Camino Real", "address2": "Ste H", "address3": "", "city": "Encinitas", "zip_code": "92024", "country": "US", "state": "CA", "display_address": ["215 S El Camino Real", "Ste H", "Encinitas, CA 92024"]}, "phone": "+17606321497", "display_phone": "(760) 632-1497", "distance": 466.8602855668299}, {"id": "GqsoLyxkqh_ZJ7AbSY7cdg", "alias": "borrellis-pizza-and-italian-restaurant-encinitas", "name": "Borrelli's Pizza & Italian Restaurant", "image_url": "https://s3-media4.fl.yelpcdn.com/bphoto/kW1j_sjvgjoFxam_NMjzxg/o.jpg", "is_closed": false, "url": "https://www.yelp.com/biz/borrellis-pizza-and-italian-restaurant-encinitas?adjust_creative=oncXGL2aPIKrtJdnWeFSnA&utm_campaign=yelp_api_v3&utm_medium=api_v3_business_search&utm_source=oncXGL2aPIKrtJdnWeFSnA", "review_count": 195, "categories": [{"alias": "pizza", "title": "Pizza"}, {"alias": "italian", "title": "Italian"}], "rating": 3.0, "coordinates": {"latitude": 33.053208, "longitude": -117.261107}, "transactions": ["delivery", "pickup"], "price": "$$", "location": {"address1": "285 N El Camino Real", "address2": "Ste 106", "address3": "", "city": "Encinitas", "zip_code": "92024", "country": "US", "state": "CA", "display_address": ["285 N El Camino Real", "Ste 106", "Encinitas, CA 92024"]}, "phone": "+17604361501", "display_phone": "(760) 436-1501", "distance": 1119.8440512627014}, {"id": "9Gwpo1tINvmEC71hZNEWMA", "alias": "oggis-sports-i-brewhouse-i-pizza-encinitas", "name": "Oggi's Sports I Brewhouse I Pizza", "image_url": "https://s3-media3.fl.yelpcdn.com/bphoto/cwxClRpV4A6T6-iPEB39rQ/o.jpg", "is_closed": false, "url": "https://www.yelp.com/biz/oggis-sports-i-brewhouse-i-pizza-encinitas?adjust_creative=oncXGL2aPIKrtJdnWeFSnA&utm_campaign=yelp_api_v3&utm_medium=api_v3_business_search&utm_source=oncXGL2aPIKrtJdnWeFSnA", "review_count": 228, "categories": [{"alias": "pizza", "title": "Pizza"}, {"alias": "breweries", "title": "Breweries"}, {"alias": "sportsbars", "title": "Sports Bars"}], "rating": 3.0, "coordinates": {"latitude": 33.0477981567383, "longitude": -117.285514831543}, "transactions": ["delivery", "pickup"], "price": "$$", "location": {"address1": "305 Encinitas Blvd", "address2": "", "address3": "", "city": "Encinitas", "zip_code": "92024", "country": "US", "state": "CA", "display_address": ["305 Encinitas Blvd", "Encinitas, CA 92024"]}, "phone": "+17609448170", "display_phone": "(760) 944-8170", "distance": 2921.2790785835896}, {"id": "cVVxcRO-m-ObsuYD3thxLQ", "alias": "crust-pizzeria-carlsbad", "name": "Crust Pizzeria", "image_url": "https://s3-media3.fl.yelpcdn.com/bphoto/CVNKSesTTLGh52dCBMR7iQ/o.jpg", "is_closed": false, "url": "https://www.yelp.com/biz/crust-pizzeria-carlsbad?adjust_creative=oncXGL2aPIKrtJdnWeFSnA&utm_campaign=yelp_api_v3&utm_medium=api_v3_business_search&utm_source=oncXGL2aPIKrtJdnWeFSnA", "review_count": 355, "categories": [{"alias": "pizza", "title": "Pizza"}, {"alias": "wine_bars", "title": "Wine Bars"}, {"alias": "italian", "title": "Italian"}], "rating": 4.0, "coordinates": {"latitude": 33.0757914, "longitude": -117.2378596}, "transactions": ["delivery"], "price": "$$", "location": {"address1": "3263 Camino De Los Coches", "address2": "Ste 105", "address3": "", "city": "Carlsbad", "zip_code": "92009", "country": "US", "state": "CA", "display_address": ["3263 Camino De Los Coches", "Ste 105", "Carlsbad, CA 92009"]}, "phone": "+17609441111", "display_phone": "(760) 944-1111", "distance": 3748.844315815337}, {"id": "oC6zWdHOnVe4tCRr2Uj01w", "alias": "round-table-pizza-encinitas", "name": "Round Table Pizza", "image_url": "https://s3-media1.fl.yelpcdn.com/bphoto/uBTHFlVDc2kNC0jNomxH9A/o.jpg", "is_closed": false, "url": "https://www.yelp.com/biz/round-table-pizza-encinitas?adjust_creative=oncXGL2aPIKrtJdnWeFSnA&utm_campaign=yelp_api_v3&utm_medium=api_v3_business_search&utm_source=oncXGL2aPIKrtJdnWeFSnA", "review_count": 67, "categories": [{"alias": "pizza", "title": "Pizza"}, {"alias": "buffets", "title": "Buffets"}], "rating": 3.0, "coordinates": {"latitude": 33.044713439575, "longitude": -117.26119945923}, "transactions": [], "price": "$$", "location": {"address1": "1321 Encinitas Blvd.", "address2": "", "address3": "", "city": "Encinitas", "zip_code": "92024", "country": "US", "state": "CA", "display_address": ["1321 Encinitas Blvd.", "Encinitas, CA 92024"]}, "phone": "+17607538303", "display_phone": "(760) 753-8303", "distance": 640.2664288391074}, {"id": "iDqjGpLfBOUNBD0bZUPHTA", "alias": "pizza-hut-carlsbad-4", "name": "Pizza Hut", "image_url": "https://s3-media2.fl.yelpcdn.com/bphoto/rMVZqWULh1ri3noZ5FjIAw/o.jpg", "is_closed": false, "url": "https://www.yelp.com/biz/pizza-hut-carlsbad-4?adjust_creative=oncXGL2aPIKrtJdnWeFSnA&utm_campaign=yelp_api_v3&utm_medium=api_v3_business_search&utm_source=oncXGL2aPIKrtJdnWeFSnA", "review_count": 34, "categories": [{"alias": "pizza", "title": "Pizza"}, {"alias": "italian", "title": "Italian"}, {"alias": "chicken_wings", "title": "Chicken Wings"}], "rating": 4.0, "coordinates": {"latitude": 33.0825253, "longitude": -117.266711}, "transactions": [], "price": "$", "location": {"address1": "7750 El Camino Real", "address2": "Ste E", "address3": "", "city": "Carlsbad", "zip_code": "92009", "country": "US", "state": "CA", "display_address": ["7750 El Camino Real", "Ste E", "Carlsbad, CA 92009"]}, "phone": "+17609444222", "display_phone": "(760) 944-4222", "distance": 4340.905500914886}, {"id": "FRQ6rb-uvF5CGO_KhNXt0A", "alias": "flippin-pizza-la-costa", "name": "Flippin' Pizza", "image_url": "https://s3-media2.fl.yelpcdn.com/bphoto/4l7W4UG2XcxuxhA8WUy1DQ/o.jpg", "is_closed": false, "url": "https://www.yelp.com/biz/flippin-pizza-la-costa?adjust_creative=oncXGL2aPIKrtJdnWeFSnA&utm_campaign=yelp_api_v3&utm_medium=api_v3_business_search&utm_source=oncXGL2aPIKrtJdnWeFSnA", "review_count": 179, "categories": [{"alias": "pizza", "title": "Pizza"}], "rating": 3.5, "coordinates": {"latitude": 33.0858811396586, "longitude": -117.266553096787}, "transactions": ["delivery"], "price": "$", "location": {"address1": "7662 El Camino Real", "address2": "", "address3": "", "city": "La Costa", "zip_code": "92009", "country": "US", "state": "CA", "display_address": ["7662 El Camino Real", "La Costa, CA 92009"]}, "phone": "+17604367499", "display_phone": "(760) 436-7499", "distance": 4698.0954189203485}, {"id": "1xY_03DCBffzrC4VPZgpJg", "alias": "little-caesars-pizza-encinitas", "name": "Little Caesars Pizza", "image_url": "https://s3-media4.fl.yelpcdn.com/bphoto/3KhkQ1XldXBIMOFkMNmfDA/o.jpg", "is_closed": false, "url": "https://www.yelp.com/biz/little-caesars-pizza-encinitas?adjust_creative=oncXGL2aPIKrtJdnWeFSnA&utm_campaign=yelp_api_v3&utm_medium=api_v3_business_search&utm_source=oncXGL2aPIKrtJdnWeFSnA", "review_count": 26, "categories": [{"alias": "pizza", "title": "Pizza"}], "rating": 2.5, "coordinates": {"latitude": 33.0488764, "longitude": -117.2902509}, "transactions": [], "price": "$", "location": {"address1": "118 Encinitas Blvd", "address2": "", "address3": "", "city": "Encinitas", "zip_code": "92024", "country": "US", "state": "CA", "display_address": ["118 Encinitas Blvd", "Encinitas, CA 92024"]}, "phone": "+17606420492", "display_phone": "(760) 642-0492", "distance": 3363.1576192696107}, {"id": "U1KaiIvLA188kAOlmVKF8w", "alias": "dominos-pizza-encinitas-2", "name": "Domino's Pizza", "image_url": "https://s3-media1.fl.yelpcdn.com/bphoto/xpzcJAfkk0nhJ8REadgdGg/o.jpg", "is_closed": false, "url": "https://www.yelp.com/biz/dominos-pizza-encinitas-2?adjust_creative=oncXGL2aPIKrtJdnWeFSnA&utm_campaign=yelp_api_v3&utm_medium=api_v3_business_search&utm_source=oncXGL2aPIKrtJdnWeFSnA", "review_count": 33, "categories": [{"alias": "pizza", "title": "Pizza"}, {"alias": "sandwiches", "title": "Sandwiches"}], "rating": 2.5, "coordinates": {"latitude": 33.0355086483459, "longitude": -117.283805273473}, "transactions": [], "price": "$", "location": {"address1": "415 Santa Fe Dr", "address2": "Ste 102", "address3": "", "city": "Encinitas", "zip_code": "92024", "country": "US", "state": "CA", "display_address": ["415 Santa Fe Dr", "Ste 102", "Encinitas, CA 92024"]}, "phone": "+17607531855", "display_phone": "(760) 753-1855", "distance": 2938.546685708825}, {"id": "IWKsOD-3taJbpfIejtHCXA", "alias": "dominos-pizza-carlsbad-6", "name": "Domino's Pizza", "image_url": "https://s3-media4.fl.yelpcdn.com/bphoto/2q84yFt0U6gNp_YWgJcbUg/o.jpg", "is_closed": false, "url": "https://www.yelp.com/biz/dominos-pizza-carlsbad-6?adjust_creative=oncXGL2aPIKrtJdnWeFSnA&utm_campaign=yelp_api_v3&utm_medium=api_v3_business_search&utm_source=oncXGL2aPIKrtJdnWeFSnA", "review_count": 25, "categories": [{"alias": "chicken_wings", "title": "Chicken Wings"}, {"alias": "pizza", "title": "Pizza"}, {"alias": "sandwiches", "title": "Sandwiches"}], "rating": 3.0, "coordinates": {"latitude": 33.0816831, "longitude": -117.2321656}, "transactions": [], "price": "$", "location": {"address1": "3451 Via Montebello", "address2": "Ste 186", "address3": "", "city": "Carlsbad", "zip_code": "92009", "country": "US", "state": "CA", "display_address": ["3451 Via Montebello", "Ste 186", "Carlsbad, CA 92009"]}, "phone": "+17607040050", "display_phone": "(760) 704-0050", "distance": 4703.900879965469}, {"id": "3zILh_a08s309S-1WoBT2A", "alias": "mio-amore-pizzeria-encinitas", "name": "Mio Amore Pizzeria", "image_url": "", "is_closed": false, "url": "https://www.yelp.com/biz/mio-amore-pizzeria-encinitas?adjust_creative=oncXGL2aPIKrtJdnWeFSnA&utm_campaign=yelp_api_v3&utm_medium=api_v3_business_search&utm_source=oncXGL2aPIKrtJdnWeFSnA", "review_count": 3, "categories": [{"alias": "pizza", "title": "Pizza"}], "rating": 2.5, "coordinates": {"latitude": 33.046629, "longitude": -117.257422}, "transactions": [], "location": {"address1": "1458 Encinitas Blvd", "address2": null, "address3": "", "city": "Encinitas", "zip_code": "92024", "country": "US", "state": "CA", "display_address": ["1458 Encinitas Blvd", "Encinitas, CA 92024"]}, "phone": "+17607536321", "display_phone": "(760) 753-6321", "distance": 346.79138955331234}], "total": 26, "region": {"center": {"longitude": -117.25433349609375, "latitude": 33.04488992556048}}}