{"businesses": [{"id": "AHYdtDWNM84OmJ5wItPLIQ", "alias": "sushi-lounge-encinitas-encinitas", "name": "Sushi Lounge Encinitas", "image_url": "https://s3-media4.fl.yelpcdn.com/bphoto/d5V1T0PTjAvimpXUsWVwtQ/o.jpg", "is_closed": false, "url": "https://www.yelp.com/biz/sushi-lounge-encinitas-encinitas?adjust_creative=oncXGL2aPIKrtJdnWeFSnA&utm_campaign=yelp_api_v3&utm_medium=api_v3_business_search&utm_source=oncXGL2aPIKrtJdnWeFSnA", "review_count": 642, "categories": [{"alias": "sushi", "title": "Sushi Bars"}], "rating": 4.0, "coordinates": {"latitude": 33.0357129, "longitude": -117.2832199}, "transactions": ["pickup", "delivery"], "price": "$$", "location": {"address1": "461 Santa Fe Dr", "address2": "", "address3": "", "city": "Encinitas", "zip_code": "92024", "country": "US", "state": "CA", "display_address": ["461 Santa Fe Dr", "Encinitas, CA 92024"]}, "phone": "+17606332299", "display_phone": "(760) 633-2299", "distance": 2879.4711352805452}, {"id": "d0uC582uvl_vMD6amLwPjw", "alias": "kaito-sushi-encinitas", "name": "Kaito Sushi", "image_url": "https://s3-media2.fl.yelpcdn.com/bphoto/TgyvMUlO7D4FHsf7WYzi0w/o.jpg", "is_closed": false, "url": "https://www.yelp.com/biz/kaito-sushi-encinitas?adjust_creative=oncXGL2aPIKrtJdnWeFSnA&utm_campaign=yelp_api_v3&utm_medium=api_v3_business_search&utm_source=oncXGL2aPIKrtJdnWeFSnA", "review_count": 491, "categories": [{"alias": "japanese", "title": "Japanese"}, {"alias": "sushi", "title": "Sushi Bars"}], "rating": 4.5, "coordinates": {"latitude": 33.0472144282918, "longitude": -117.25975364457}, "transactions": [], "price": "$$$", "location": {"address1": "130-A N El Camino Real", "address2": "", "address3": "", "city": "Encinitas", "zip_code": "92024", "country": "US", "state": "CA", "display_address": ["130-A N El Camino Real", "Encinitas, CA 92024"]}, "phone": "+17606342746", "display_phone": "(760) 634-2746", "distance": 628.3806794572073}, {"id": "_n8HJHY2tmqu_e7PJB5eVQ", "alias": "hoshi-japanese-steakhouse-and-sushi-encinitas-3", "name": "Hoshi Japanese Steakhouse & Sushi", "image_url": "https://s3-media2.fl.yelpcdn.com/bphoto/qGBChnPMjl3fpk6kD-jQXQ/o.jpg", "is_closed": false, "url": "https://www.yelp.com/biz/hoshi-japanese-steakhouse-and-sushi-encinitas-3?adjust_creative=oncXGL2aPIKrtJdnWeFSnA&utm_campaign=yelp_api_v3&utm_medium=api_v3_business_search&utm_source=oncXGL2aPIKrtJdnWeFSnA", "review_count": 22, "categories": [{"alias": "sushi", "title": "Sushi Bars"}, {"alias": "steak", "title": "Steakhouses"}, {"alias": "teppanyaki", "title": "Teppanyaki"}], "rating": 4.0, "coordinates": {"latitude": 33.0424258, "longitude": -117.2594351}, "transactions": ["pickup", "delivery"], "location": {"address1": "211 S El Camino Real", "address2": "Ste C", "address3": null, "city": "Encinitas", "zip_code": "92024", "country": "US", "state": "CA", "display_address": ["211 S El Camino Real", "Ste C", "Encinitas, CA 92024"]}, "phone": "+17606320888", "display_phone": "(760) 632-0888", "distance": 414.0217236357006}, {"id": "M4vCrliyV7_5a1oU_k9rpA", "alias": "hooked-on-sushi-encinitas-2", "name": "Hooked On Sushi", "image_url": "https://s3-media4.fl.yelpcdn.com/bphoto/-EVUhiTw4x6PrTa-2mNbPQ/o.jpg", "is_closed": false, "url": "https://www.yelp.com/biz/hooked-on-sushi-encinitas-2?adjust_creative=oncXGL2aPIKrtJdnWeFSnA&utm_campaign=yelp_api_v3&utm_medium=api_v3_business_search&utm_source=oncXGL2aPIKrtJdnWeFSnA", "review_count": 299, "categories": [{"alias": "japanese", "title": "Japanese"}, {"alias": "sushi", "title": "Sushi Bars"}, {"alias": "asianfusion", "title": "Asian Fusion"}], "rating": 4.5, "coordinates": {"latitude": 33.0526328, "longitude": -117.261493}, "transactions": ["pickup"], "price": "$$", "location": {"address1": "272 N El Camino Real", "address2": "Ste D", "address3": "", "city": "Encinitas", "zip_code": "92024", "country": "US", "state": "CA", "display_address": ["272 N El Camino Real", "Ste D", "Encinitas, CA 92024"]}, "phone": "+17604875410", "display_phone": "(760) 487-5410", "distance": 1089.2882657277223}, {"id": "WqAdRkBQMLp0xXZud5-jCw", "alias": "hapifish-encinitas", "name": "HapiFish", "image_url": "https://s3-media4.fl.yelpcdn.com/bphoto/QVu2rgWenrqjibyKZz3Ofg/o.jpg", "is_closed": false, "url": "https://www.yelp.com/biz/hapifish-encinitas?adjust_creative=oncXGL2aPIKrtJdnWeFSnA&utm_campaign=yelp_api_v3&utm_medium=api_v3_business_search&utm_source=oncXGL2aPIKrtJdnWeFSnA", "review_count": 431, "categories": [{"alias": "sushi", "title": "Sushi Bars"}], "rating": 3.5, "coordinates": {"latitude": 33.05237, "longitude": -117.29614}, "transactions": [], "price": "$$", "location": {"address1": "190 N Coast Hwy 101", "address2": null, "address3": "", "city": "Encinitas", "zip_code": "92024", "country": "US", "state": "CA", "display_address": ["190 N Coast Hwy 101", "Encinitas, CA 92024"]}, "phone": "+17604527245", "display_phone": "(760) 452-7245", "distance": 3968.3991985460266}, {"id": "UFI72-ClYhkriejJxoarDA", "alias": "sushi-brothers-encinitas", "name": "Sushi Brothers", "image_url": "https://s3-media3.fl.yelpcdn.com/bphoto/XUhxNMnh-Eyy6V1bEDAWFg/o.jpg", "is_closed": false, "url": "https://www.yelp.com/biz/sushi-brothers-encinitas?adjust_creative=oncXGL2aPIKrtJdnWeFSnA&utm_campaign=yelp_api_v3&utm_medium=api_v3_business_search&utm_source=oncXGL2aPIKrtJdnWeFSnA", "review_count": 259, "categories": [{"alias": "sushi", "title": "Sushi Bars"}, {"alias": "poke", "title": "Poke"}], "rating": 4.0, "coordinates": {"latitude": 33.0471695, "longitude": -117.2840536}, "transactions": [], "price": "$$", "location": {"address1": "429 Encinitas Blvd", "address2": "", "address3": "", "city": "Encinitas", "zip_code": "92024", "country": "US", "state": "CA", "display_address": ["429 Encinitas Blvd", "Encinitas, CA 92024"]}, "phone": "+17609446789", "display_phone": "(760) 944-6789", "distance": 2781.6983197424875}, {"id": "wmYqjGK8X7Qh8YZIDBfJkg", "alias": "sushi-bar-blue-fin-encinitas-2", "name": "Sushi Bar Blue Fin", "image_url": "https://s3-media3.fl.yelpcdn.com/bphoto/dyPqJsGknTn3DVU8dyugKQ/o.jpg", "is_closed": false, "url": "https://www.yelp.com/biz/sushi-bar-blue-fin-encinitas-2?adjust_creative=oncXGL2aPIKrtJdnWeFSnA&utm_campaign=yelp_api_v3&utm_medium=api_v3_business_search&utm_source=oncXGL2aPIKrtJdnWeFSnA", "review_count": 289, "categories": [{"alias": "sushi", "title": "Sushi Bars"}, {"alias": "japanese", "title": "Japanese"}, {"alias": "seafood", "title": "Seafood"}], "rating": 3.5, "coordinates": {"latitude": 33.0521409, "longitude": -117.2606864}, "transactions": [], "price": "$$", "location": {"address1": "257 N El Camino Real", "address2": "", "address3": "", "city": "Encinitas", "zip_code": "92024", "country": "US", "state": "CA", "display_address": ["257 N El Camino Real", "Encinitas, CA 92024"]}, "phone": "+17604791555", "display_phone": "(760) 479-1555", "distance": 989.5428811604093}, {"id": "XdH2dcLoeXSF6W8QvnebkA", "alias": "sushi-house-encinitas", "name": "Sushi House", "image_url": "https://s3-media3.fl.yelpcdn.com/bphoto/nuNri9rznapzKNJ5-Iv_-Q/o.jpg", "is_closed": false, "url": "https://www.yelp.com/biz/sushi-house-encinitas?adjust_creative=oncXGL2aPIKrtJdnWeFSnA&utm_campaign=yelp_api_v3&utm_medium=api_v3_business_search&utm_source=oncXGL2aPIKrtJdnWeFSnA", "review_count": 218, "categories": [{"alias": "sushi", "title": "Sushi Bars"}, {"alias": "japanese", "title": "Japanese"}, {"alias": "poke", "title": "Poke"}], "rating": 3.5, "coordinates": {"latitude": 33.049252677154, "longitude": -117.26179165619}, "transactions": ["pickup"], "price": "$$", "location": {"address1": "214 N El Camino Real", "address2": "Ste A", "address3": "", "city": "Encinitas", "zip_code": "92024", "country": "US", "state": "CA", "display_address": ["214 N El Camino Real", "Ste A", "Encinitas, CA 92024"]}, "phone": "+17602746902", "display_phone": "(760) 274-6902", "distance": 847.6815728555196}, {"id": "oC_mLtSwoE5r_YsyV6m8YA", "alias": "yamariki-sushi-carlsbad", "name": "Yamariki Sushi", "image_url": "https://s3-media3.fl.yelpcdn.com/bphoto/eEzP2YLmER5IzVWDk18KYQ/o.jpg", "is_closed": false, "url": "https://www.yelp.com/biz/yamariki-sushi-carlsbad?adjust_creative=oncXGL2aPIKrtJdnWeFSnA&utm_campaign=yelp_api_v3&utm_medium=api_v3_business_search&utm_source=oncXGL2aPIKrtJdnWeFSnA", "review_count": 223, "categories": [{"alias": "sushi", "title": "Sushi Bars"}], "rating": 3.5, "coordinates": {"latitude": 33.0822825337306, "longitude": -117.23301694841}, "transactions": [], "price": "$$", "location": {"address1": "7610 Via Campanile", "address2": "Ste 148", "address3": "", "city": "Carlsbad", "zip_code": "92009", "country": "US", "state": "CA", "display_address": ["7610 Via Campanile", "Ste 148", "Carlsbad, CA 92009"]}, "phone": "+17604526020", "display_phone": "(760) 452-6020", "distance": 4608.019709704339}], "total": 9, "region": {"center": {"longitude": -117.25433349609375, "latitude": 33.04488992556048}}}