{"businesses": [{"id": "YldZra2KWQQKd2tzoD4CVg", "alias": "epic-wings-n-things-oceanside", "name": "Epic Wings N Things", "image_url": "https://s3-media3.fl.yelpcdn.com/bphoto/u0WtQ-S5V0zzM0Tdo2Tcqg/o.jpg", "is_closed": false, "url": "https://www.yelp.com/biz/epic-wings-n-things-oceanside?adjust_creative=oncXGL2aPIKrtJdnWeFSnA&utm_campaign=yelp_api_v3&utm_medium=api_v3_business_search&utm_source=oncXGL2aPIKrtJdnWeFSnA", "review_count": 203, "categories": [{"alias": "chicken_wings", "title": "Chicken Wings"}], "rating": 3.0, "coordinates": {"latitude": 33.18257985505, "longitude": -117.33203803187}, "transactions": [], "price": "$", "location": {"address1": "2525 Vista Way", "address2": "Ste A", "address3": "", "city": "Oceanside", "zip_code": "92054", "country": "US", "state": "CA", "display_address": ["2525 Vista Way", "Ste A", "Oceanside, CA 92054"]}, "phone": "+17607228895", "display_phone": "(760) 722-8895", "distance": 3140.7156285058854}, {"id": "WgUPFeYI9-7bsXDrmqSD7A", "alias": "buffalo-wild-wings-oceanside", "name": "Buffalo Wild Wings", "image_url": "https://s3-media4.fl.yelpcdn.com/bphoto/5yNQI-ndBhTNO6vkcnuERA/o.jpg", "is_closed": false, "url": "https://www.yelp.com/biz/buffalo-wild-wings-oceanside?adjust_creative=oncXGL2aPIKrtJdnWeFSnA&utm_campaign=yelp_api_v3&utm_medium=api_v3_business_search&utm_source=oncXGL2aPIKrtJdnWeFSnA", "review_count": 415, "categories": [{"alias": "tradamerican", "title": "American (Traditional)"}, {"alias": "chicken_wings", "title": "Chicken Wings"}, {"alias": "sportsbars", "title": "Sports Bars"}], "rating": 2.5, "coordinates": {"latitude": 33.1818873475662, "longitude": -117.329193949699}, "transactions": ["delivery"], "price": "$$", "location": {"address1": "2685 Vista Way", "address2": "", "address3": "", "city": "Oceanside", "zip_code": "92054", "country": "US", "state": "CA", "display_address": ["2685 Vista Way", "Oceanside, CA 92054"]}, "phone": "+17609662605", "display_phone": "(760) 966-2605", "distance": 3413.9097776464387}, {"id": "se6I82hboPmzAK-xY3QNcA", "alias": "wingstop-oceanside-2", "name": "Wingstop", "image_url": "https://s3-media4.fl.yelpcdn.com/bphoto/2Uf_WGtoWD3jyhJEptvQbg/o.jpg", "is_closed": false, "url": "https://www.yelp.com/biz/wingstop-oceanside-2?adjust_creative=oncXGL2aPIKrtJdnWeFSnA&utm_campaign=yelp_api_v3&utm_medium=api_v3_business_search&utm_source=oncXGL2aPIKrtJdnWeFSnA", "review_count": 54, "categories": [{"alias": "chicken_wings", "title": "Chicken Wings"}], "rating": 2.5, "coordinates": {"latitude": 33.226643, "longitude": -117.326399}, "transactions": [], "location": {"address1": "35 Douglas Dr, Ste 100", "address2": null, "address3": null, "city": "Oceanside", "zip_code": "92058", "country": "US", "state": "CA", "display_address": ["35 Douglas Dr, Ste 100", "Oceanside, CA 92058"]}, "phone": "+17605635500", "display_phone": "(760) 563-5500", "distance": 5093.162221250065}, {"id": "ssz7s1CpGeXprObDTKn2qQ", "alias": "pizza-hut-oceanside-2", "name": "Pizza Hut", "image_url": "https://s3-media1.fl.yelpcdn.com/bphoto/lF-3NPtlV2mHcTQyPMr2GQ/o.jpg", "is_closed": false, "url": "https://www.yelp.com/biz/pizza-hut-oceanside-2?adjust_creative=oncXGL2aPIKrtJdnWeFSnA&utm_campaign=yelp_api_v3&utm_medium=api_v3_business_search&utm_source=oncXGL2aPIKrtJdnWeFSnA", "review_count": 43, "categories": [{"alias": "pizza", "title": "Pizza"}, {"alias": "italian", "title": "Italian"}, {"alias": "chicken_wings", "title": "Chicken Wings"}], "rating": 2.5, "coordinates": {"latitude": 33.1926885992289, "longitude": -117.358136996627}, "transactions": [], "price": "$", "location": {"address1": "1836 Oceanside Blvd", "address2": "Ste B", "address3": "", "city": "Oceanside", "zip_code": "92054", "country": "US", "state": "CA", "display_address": ["1836 Oceanside Blvd", "Ste B", "Oceanside, CA 92054"]}, "phone": "+17607213900", "display_phone": "(760) 721-3900", "distance": 494.5440604284}, {"id": "BEifR3zRVbpFh62zq3QFJA", "alias": "kfc-oceanside-7", "name": "KFC", "image_url": "https://s3-media3.fl.yelpcdn.com/bphoto/xd-GUKBybn8ebnZnFfvzwA/o.jpg", "is_closed": false, "url": "https://www.yelp.com/biz/kfc-oceanside-7?adjust_creative=oncXGL2aPIKrtJdnWeFSnA&utm_campaign=yelp_api_v3&utm_medium=api_v3_business_search&utm_source=oncXGL2aPIKrtJdnWeFSnA", "review_count": 17, "categories": [{"alias": "hotdogs", "title": "Fast Food"}, {"alias": "chicken_wings", "title": "Chicken Wings"}, {"alias": "chickenshop", "title": "Chicken Shop"}], "rating": 2.5, "coordinates": {"latitude": 33.2042, "longitude": -117.364}, "transactions": [], "price": "$", "location": {"address1": "2007 Mission Ave", "address2": null, "address3": null, "city": "Oceanside", "zip_code": "92054", "country": "US", "state": "CA", "display_address": ["2007 Mission Ave", "Oceanside, CA 92054"]}, "phone": "+17607577514", "display_phone": "(760) 757-7514", "distance": 1122.0988382216735}, {"id": "QW3CunRu2rNB9l7X847lEA", "alias": "churchs-chicken-oceanside", "name": "Church's Chicken", "image_url": "https://s3-media2.fl.yelpcdn.com/bphoto/hprFKZRodbXroVGCROK-4Q/o.jpg", "is_closed": false, "url": "https://www.yelp.com/biz/churchs-chicken-oceanside?adjust_creative=oncXGL2aPIKrtJdnWeFSnA&utm_campaign=yelp_api_v3&utm_medium=api_v3_business_search&utm_source=oncXGL2aPIKrtJdnWeFSnA", "review_count": 68, "categories": [{"alias": "hotdogs", "title": "Fast Food"}, {"alias": "chicken_wings", "title": "Chicken Wings"}], "rating": 2.0, "coordinates": {"latitude": 33.1838864, "longitude": -117.3690057}, "transactions": [], "price": "$", "location": {"address1": "510 Oceanside Blvd", "address2": "", "address3": "", "city": "Oceanside", "zip_code": "92054", "country": "US", "state": "CA", "display_address": ["510 Oceanside Blvd", "Oceanside, CA 92054"]}, "phone": "+17604395636", "display_phone": "(760) 439-5636", "distance": 1279.8110411092312}, {"id": "MM6uxCzBjCTwKzfFYbagrw", "alias": "the-draft-restaurant-and-sports-bar-oceanside", "name": "The Draft Restaurant & Sports Bar", "image_url": "https://s3-media3.fl.yelpcdn.com/bphoto/d4FSDA0x6Ah5EnlC0T7iQA/o.jpg", "is_closed": false, "url": "https://www.yelp.com/biz/the-draft-restaurant-and-sports-bar-oceanside?adjust_creative=oncXGL2aPIKrtJdnWeFSnA&utm_campaign=yelp_api_v3&utm_medium=api_v3_business_search&utm_source=oncXGL2aPIKrtJdnWeFSnA", "review_count": 356, "categories": [{"alias": "chicken_wings", "title": "Chicken Wings"}, {"alias": "pizza", "title": "Pizza"}, {"alias": "sportsbars", "title": "Sports Bars"}], "rating": 3.5, "coordinates": {"latitude": 33.2070946797679, "longitude": -117.283067769815}, "transactions": ["pickup"], "price": "$$", "location": {"address1": "4225 Oceanside Blvd", "address2": "", "address3": "", "city": "Oceanside", "zip_code": "92056", "country": "US", "state": "CA", "display_address": ["4225 Oceanside Blvd", "Oceanside, CA 92056"]}, "phone": "+17606314700", "display_phone": "(760) 631-4700", "distance": 7558.888029344325}, {"id": "Jp467vA2j5p5DhGs36sZ2A", "alias": "popeyes-louisiana-kitchen-oceanside", "name": "Popeyes Louisiana Kitchen", "image_url": "https://s3-media3.fl.yelpcdn.com/bphoto/tLclRZf7U_cJPOqP7FHpEQ/o.jpg", "is_closed": false, "url": "https://www.yelp.com/biz/popeyes-louisiana-kitchen-oceanside?adjust_creative=oncXGL2aPIKrtJdnWeFSnA&utm_campaign=yelp_api_v3&utm_medium=api_v3_business_search&utm_source=oncXGL2aPIKrtJdnWeFSnA", "review_count": 76, "categories": [{"alias": "hotdogs", "title": "Fast Food"}, {"alias": "chicken_wings", "title": "Chicken Wings"}], "rating": 2.0, "coordinates": {"latitude": 33.2567978528058, "longitude": -117.29944245121}, "transactions": [], "price": "$", "location": {"address1": "511 Vandegrift Blvd", "address2": "", "address3": "", "city": "Oceanside", "zip_code": "92057", "country": "US", "state": "CA", "display_address": ["511 Vandegrift Blvd", "Oceanside, CA 92057"]}, "phone": "+17607579150", "display_phone": "(760) 757-9150", "distance": 9125.407076369926}, {"id": "QcEz_y6D62GpRXxwsD5NAw", "alias": "dominos-pizza-camp-pendleton-3", "name": "Domino's Pizza", "image_url": "https://s3-media3.fl.yelpcdn.com/bphoto/LyeAzBjXWdzKHzMOqFuWBQ/o.jpg", "is_closed": false, "url": "https://www.yelp.com/biz/dominos-pizza-camp-pendleton-3?adjust_creative=oncXGL2aPIKrtJdnWeFSnA&utm_campaign=yelp_api_v3&utm_medium=api_v3_business_search&utm_source=oncXGL2aPIKrtJdnWeFSnA", "review_count": 12, "categories": [{"alias": "pizza", "title": "Pizza"}, {"alias": "chicken_wings", "title": "Chicken Wings"}, {"alias": "sandwiches", "title": "Sandwiches"}], "rating": 2.5, "coordinates": {"latitude": 33.2200113622166, "longitude": -117.39096898122}, "transactions": [], "location": {"address1": "20845 Vandergrift Dr", "address2": "Spc 107", "address3": "", "city": "Camp Pendleton", "zip_code": "92055", "country": "US", "state": "CA", "display_address": ["20845 Vandergrift Dr", "Spc 107", "Camp Pendleton, CA 92055"]}, "phone": "+17604307180", "display_phone": "(760) 430-7180", "distance": 3888.6757833735455}, {"id": "kNNt-y6MUZY5HVQ1AFXoBQ", "alias": "kfc-oceanside", "name": "KFC", "image_url": "https://s3-media3.fl.yelpcdn.com/bphoto/ky7vtpPJo9PAer-kkv5rRA/o.jpg", "is_closed": false, "url": "https://www.yelp.com/biz/kfc-oceanside?adjust_creative=oncXGL2aPIKrtJdnWeFSnA&utm_campaign=yelp_api_v3&utm_medium=api_v3_business_search&utm_source=oncXGL2aPIKrtJdnWeFSnA", "review_count": 52, "categories": [{"alias": "hotdogs", "title": "Fast Food"}, {"alias": "chicken_wings", "title": "Chicken Wings"}, {"alias": "chickenshop", "title": "Chicken Shop"}], "rating": 1.5, "coordinates": {"latitude": 33.2238824094632, "longitude": -117.332548979286}, "transactions": ["delivery"], "price": "$$", "location": {"address1": "3747 Mission Ave", "address2": "", "address3": "", "city": "Oceanside", "zip_code": "92058", "country": "US", "state": "CA", "display_address": ["3747 Mission Ave", "Oceanside, CA 92058"]}, "phone": "+17607224196", "display_phone": "(760) 722-4196", "distance": 4342.607339727543}, {"id": "ptaF8CBiNWMyd9TurD3RbQ", "alias": "kfc-oceanside-2", "name": "KFC", "image_url": "https://s3-media1.fl.yelpcdn.com/bphoto/9T5sq2nNJArl3Giu23EBIQ/o.jpg", "is_closed": false, "url": "https://www.yelp.com/biz/kfc-oceanside-2?adjust_creative=oncXGL2aPIKrtJdnWeFSnA&utm_campaign=yelp_api_v3&utm_medium=api_v3_business_search&utm_source=oncXGL2aPIKrtJdnWeFSnA", "review_count": 34, "categories": [{"alias": "hotdogs", "title": "Fast Food"}, {"alias": "chicken_wings", "title": "Chicken Wings"}, {"alias": "chickenshop", "title": "Chicken Shop"}], "rating": 2.5, "coordinates": {"latitude": 33.2063, "longitude": -117.289}, "transactions": ["delivery"], "price": "$", "location": {"address1": "4100 Oceanside Blvd", "address2": "", "address3": "", "city": "Oceanside", "zip_code": "92056", "country": "US", "state": "CA", "display_address": ["4100 Oceanside Blvd", "Oceanside, CA 92056"]}, "phone": "+17606309600", "display_phone": "(760) 630-9600", "distance": 7000.2601178831}, {"id": "bVYYT_Lltr4DzUEArmwvhQ", "alias": "pizza-hut-oceanside-5", "name": "Pizza Hut", "image_url": "https://s3-media3.fl.yelpcdn.com/bphoto/I7OiBIb04Vkf-cGHHZhCiQ/o.jpg", "is_closed": false, "url": "https://www.yelp.com/biz/pizza-hut-oceanside-5?adjust_creative=oncXGL2aPIKrtJdnWeFSnA&utm_campaign=yelp_api_v3&utm_medium=api_v3_business_search&utm_source=oncXGL2aPIKrtJdnWeFSnA", "review_count": 27, "categories": [{"alias": "pizza", "title": "Pizza"}, {"alias": "italian", "title": "Italian"}, {"alias": "chicken_wings", "title": "Chicken Wings"}], "rating": 2.0, "coordinates": {"latitude": 33.2081985, "longitude": -117.2858429}, "transactions": [], "price": "$", "location": {"address1": "4170 Oceanside Blvd", "address2": "Ste 191", "address3": "", "city": "Oceanside", "zip_code": "92056", "country": "US", "state": "CA", "display_address": ["4170 Oceanside Blvd", "Ste 191", "Oceanside, CA 92056"]}, "phone": "+17606310078", "display_phone": "(760) 631-0078", "distance": 7295.650107210906}, {"id": "phEUoIcACT5PWHDbL27t2w", "alias": "pizza-hut-oceanside-3", "name": "Pizza Hut", "image_url": "https://s3-media1.fl.yelpcdn.com/bphoto/GSktTdUfxFjlU6_GPrcYsw/o.jpg", "is_closed": false, "url": "https://www.yelp.com/biz/pizza-hut-oceanside-3?adjust_creative=oncXGL2aPIKrtJdnWeFSnA&utm_campaign=yelp_api_v3&utm_medium=api_v3_business_search&utm_source=oncXGL2aPIKrtJdnWeFSnA", "review_count": 35, "categories": [{"alias": "pizza", "title": "Pizza"}, {"alias": "italian", "title": "Italian"}, {"alias": "chicken_wings", "title": "Chicken Wings"}], "rating": 2.5, "coordinates": {"latitude": 33.2555999755859, "longitude": -117.300163269043}, "transactions": [], "price": "$", "location": {"address1": "610 North Redondo Dr", "address2": "", "address3": "", "city": "Oceanside", "zip_code": "92057", "country": "US", "state": "CA", "display_address": ["610 North Redondo Dr", "Oceanside, CA 92057"]}, "phone": "+17604334433", "display_phone": "(760) 433-4433", "distance": 8956.948902532406}], "total": 13}