{"businesses": [{"id": "okZZffUQuh0JK6mhJkIGyA", "alias": "in-n-out-burger-oceanside-2", "name": "In-N-Out Burger", "image_url": "https://s3-media1.fl.yelpcdn.com/bphoto/_qkxgqBAaCVnel-XMQikbA/o.jpg", "is_closed": false, "url": "https://www.yelp.com/biz/in-n-out-burger-oceanside-2?adjust_creative=oncXGL2aPIKrtJdnWeFSnA&utm_campaign=yelp_api_v3&utm_medium=api_v3_business_search&utm_source=oncXGL2aPIKrtJdnWeFSnA", "review_count": 110, "categories": [{"alias": "burgers", "title": "Burgers"}, {"alias": "hotdogs", "title": "Fast Food"}], "rating": 4.5, "coordinates": {"latitude": 33.2029384011908, "longitude": -117.384183262118}, "transactions": [], "price": "$", "location": {"address1": "936 N Coast Hwy", "address2": "", "address3": "", "city": "Oceanside", "zip_code": "92054", "country": "US", "state": "CA", "display_address": ["936 N Coast Hwy", "Oceanside, CA 92054"]}, "phone": "+18007861000", "display_phone": "(800) 786-1000", "distance": 2249.8680103995607}, {"id": "WpK9ORuaHcJ4PN8_EbOFJg", "alias": "robertos-tacos-shop-13-oceanside", "name": "Roberto's Tacos Shop 13", "image_url": "https://s3-media3.fl.yelpcdn.com/bphoto/lw4Nb-pmlhPwIHRW3QNrPg/o.jpg", "is_closed": false, "url": "https://www.yelp.com/biz/robertos-tacos-shop-13-oceanside?adjust_creative=oncXGL2aPIKrtJdnWeFSnA&utm_campaign=yelp_api_v3&utm_medium=api_v3_business_search&utm_source=oncXGL2aPIKrtJdnWeFSnA", "review_count": 143, "categories": [{"alias": "hotdogs", "title": "Fast Food"}, {"alias": "mexican", "title": "Mexican"}], "rating": 4.0, "coordinates": {"latitude": 33.1838646, "longitude": -117.3690414}, "transactions": [], "price": "$", "location": {"address1": "518 Oceanside Blvd", "address2": "Ste 111", "address3": "", "city": "Oceanside", "zip_code": "92054", "country": "US", "state": "CA", "display_address": ["518 Oceanside Blvd", "Ste 111", "Oceanside, CA 92054"]}, "phone": "+17607572377", "display_phone": "(760) 757-2377", "distance": 1227.6549442285977}, {"id": "tV3qKeb5CZs610fvtANwHA", "alias": "mcdonalds-oceanside-5", "name": "McDonald's", "image_url": "https://s3-media1.fl.yelpcdn.com/bphoto/9tuz1qQ8UUpV9K33R_bu2g/o.jpg", "is_closed": false, "url": "https://www.yelp.com/biz/mcdonalds-oceanside-5?adjust_creative=oncXGL2aPIKrtJdnWeFSnA&utm_campaign=yelp_api_v3&utm_medium=api_v3_business_search&utm_source=oncXGL2aPIKrtJdnWeFSnA", "review_count": 31, "categories": [{"alias": "burgers", "title": "Burgers"}, {"alias": "hotdogs", "title": "Fast Food"}, {"alias": "coffee", "title": "Coffee & Tea"}], "rating": 2.0, "coordinates": {"latitude": 33.20358, "longitude": -117.36402}, "transactions": [], "price": "$", "location": {"address1": "137 Canyon Dr", "address2": "", "address3": "", "city": "Oceanside", "zip_code": "92054", "country": "US", "state": "CA", "display_address": ["137 Canyon Dr", "Oceanside, CA 92054"]}, "phone": "+17604333669", "display_phone": "(760) 433-3669", "distance": 1050.712041686543}, {"id": "rESWrhmoCdXFiK_KJr9PAg", "alias": "taco-bell-oceanside", "name": "Taco Bell", "image_url": "https://s3-media3.fl.yelpcdn.com/bphoto/9r9L2dYPygqXvjMLw8kReQ/o.jpg", "is_closed": false, "url": "https://www.yelp.com/biz/taco-bell-oceanside?adjust_creative=oncXGL2aPIKrtJdnWeFSnA&utm_campaign=yelp_api_v3&utm_medium=api_v3_business_search&utm_source=oncXGL2aPIKrtJdnWeFSnA", "review_count": 34, "categories": [{"alias": "mexican", "title": "Mexican"}, {"alias": "tex-mex", "title": "Tex-Mex"}, {"alias": "hotdogs", "title": "Fast Food"}], "rating": 2.5, "coordinates": {"latitude": 33.193705, "longitude": -117.356233}, "transactions": ["delivery"], "price": "$", "location": {"address1": "1940 Oceanside Blvd", "address2": "", "address3": "", "city": "Oceanside", "zip_code": "92054", "country": "US", "state": "CA", "display_address": ["1940 Oceanside Blvd", "Oceanside, CA 92054"]}, "phone": "+17607220925", "display_phone": "(760) 722-0925", "distance": 615.3014344849823}, {"id": "s5bqF0qMLCrqQmOOkrNopg", "alias": "mcdonalds-oceanside-9", "name": "McDonald's", "image_url": "https://s3-media2.fl.yelpcdn.com/bphoto/dbFxdKC5tWNbaiOgVkMADw/o.jpg", "is_closed": false, "url": "https://www.yelp.com/biz/mcdonalds-oceanside-9?adjust_creative=oncXGL2aPIKrtJdnWeFSnA&utm_campaign=yelp_api_v3&utm_medium=api_v3_business_search&utm_source=oncXGL2aPIKrtJdnWeFSnA", "review_count": 66, "categories": [{"alias": "hotdogs", "title": "Fast Food"}, {"alias": "burgers", "title": "Burgers"}, {"alias": "coffee", "title": "Coffee & Tea"}], "rating": 1.5, "coordinates": {"latitude": 33.190409, "longitude": -117.361148}, "transactions": [], "price": "$", "location": {"address1": "1701 Oceanside Blvd", "address2": "", "address3": "", "city": "Oceanside", "zip_code": "92054", "country": "US", "state": "CA", "display_address": ["1701 Oceanside Blvd", "Oceanside, CA 92054"]}, "phone": "+17607578821", "display_phone": "(760) 757-8821", "distance": 444.94978818439597}, {"id": "IoRpFKnJsuUrengoF_dgrA", "alias": "chick-fil-a-oceanside", "name": "Chick-fil-A", "image_url": "https://s3-media4.fl.yelpcdn.com/bphoto/qT6GVkHvWC9GdkzjjLTh4A/o.jpg", "is_closed": false, "url": "https://www.yelp.com/biz/chick-fil-a-oceanside?adjust_creative=oncXGL2aPIKrtJdnWeFSnA&utm_campaign=yelp_api_v3&utm_medium=api_v3_business_search&utm_source=oncXGL2aPIKrtJdnWeFSnA", "review_count": 234, "categories": [{"alias": "hotdogs", "title": "Fast Food"}], "rating": 4.0, "coordinates": {"latitude": 33.1779819396667, "longitude": -117.29483058614}, "transactions": ["delivery", "pickup"], "price": "$", "location": {"address1": "3475 Marron Rd", "address2": null, "address3": "", "city": "Oceanside", "zip_code": "92056", "country": "US", "state": "CA", "display_address": ["3475 Marron Rd", "Oceanside, CA 92056"]}, "phone": "+17605763128", "display_phone": "(760) 576-3128", "distance": 6577.986371350483}, {"id": "q2xn0Bg3tIXKeFU9Z-prQw", "alias": "chipotle-mexican-grill-oceanside-2", "name": "Chipotle Mexican Grill", "image_url": "https://s3-media2.fl.yelpcdn.com/bphoto/-0G9rzLc7hLLhDeHnvAu1g/o.jpg", "is_closed": false, "url": "https://www.yelp.com/biz/chipotle-mexican-grill-oceanside-2?adjust_creative=oncXGL2aPIKrtJdnWeFSnA&utm_campaign=yelp_api_v3&utm_medium=api_v3_business_search&utm_source=oncXGL2aPIKrtJdnWeFSnA", "review_count": 148, "categories": [{"alias": "mexican", "title": "Mexican"}, {"alias": "hotdogs", "title": "Fast Food"}], "rating": 3.5, "coordinates": {"latitude": 33.181867, "longitude": -117.331756}, "transactions": [], "price": "$", "location": {"address1": "2611 Vista Way", "address2": "", "address3": "", "city": "Oceanside", "zip_code": "92054", "country": "US", "state": "CA", "display_address": ["2611 Vista Way", "Oceanside, CA 92054"]}, "phone": "+17607216904", "display_phone": "(760) 721-6904", "distance": 3197.7466308154358}, {"id": "BEifR3zRVbpFh62zq3QFJA", "alias": "kfc-oceanside-7", "name": "KFC", "image_url": "https://s3-media3.fl.yelpcdn.com/bphoto/xd-GUKBybn8ebnZnFfvzwA/o.jpg", "is_closed": false, "url": "https://www.yelp.com/biz/kfc-oceanside-7?adjust_creative=oncXGL2aPIKrtJdnWeFSnA&utm_campaign=yelp_api_v3&utm_medium=api_v3_business_search&utm_source=oncXGL2aPIKrtJdnWeFSnA", "review_count": 17, "categories": [{"alias": "hotdogs", "title": "Fast Food"}, {"alias": "chicken_wings", "title": "Chicken Wings"}, {"alias": "chickenshop", "title": "Chicken Shop"}], "rating": 2.5, "coordinates": {"latitude": 33.2042, "longitude": -117.364}, "transactions": [], "price": "$", "location": {"address1": "2007 Mission Ave", "address2": null, "address3": null, "city": "Oceanside", "zip_code": "92054", "country": "US", "state": "CA", "display_address": ["2007 Mission Ave", "Oceanside, CA 92054"]}, "phone": "+17607577514", "display_phone": "(760) 757-7514", "distance": 1122.0988382216735}, {"id": "SxHNYnio1-VwM4oObjejxA", "alias": "jersey-mikes-subs-oceanside-5", "name": "Jersey Mike's Subs", "image_url": "https://s3-media3.fl.yelpcdn.com/bphoto/iEqNEZVis17SAe-b-vPz8g/o.jpg", "is_closed": false, "url": "https://www.yelp.com/biz/jersey-mikes-subs-oceanside-5?adjust_creative=oncXGL2aPIKrtJdnWeFSnA&utm_campaign=yelp_api_v3&utm_medium=api_v3_business_search&utm_source=oncXGL2aPIKrtJdnWeFSnA", "review_count": 32, "categories": [{"alias": "sandwiches", "title": "Sandwiches"}, {"alias": "hotdogs", "title": "Fast Food"}, {"alias": "delis", "title": "Delis"}], "rating": 4.5, "coordinates": {"latitude": 33.1952972412109, "longitude": -117.381057739258}, "transactions": [], "price": "$", "location": {"address1": "302 Mission Ave", "address2": "", "address3": "", "city": "Oceanside", "zip_code": "92054", "country": "US", "state": "CA", "display_address": ["302 Mission Ave", "Oceanside, CA 92054"]}, "phone": "+17604350783", "display_phone": "(760) 435-0783", "distance": 1703.5985928030307}, {"id": "OKBQuo7uN_sGKst59K6L-A", "alias": "waba-grill-oceanside", "name": "WaBa Grill", "image_url": "https://s3-media1.fl.yelpcdn.com/bphoto/ju_y8ZRv93FPXkautFKQJQ/o.jpg", "is_closed": false, "url": "https://www.yelp.com/biz/waba-grill-oceanside?adjust_creative=oncXGL2aPIKrtJdnWeFSnA&utm_campaign=yelp_api_v3&utm_medium=api_v3_business_search&utm_source=oncXGL2aPIKrtJdnWeFSnA", "review_count": 201, "categories": [{"alias": "hotdogs", "title": "Fast Food"}, {"alias": "asianfusion", "title": "Asian Fusion"}], "rating": 3.5, "coordinates": {"latitude": 33.2273492907876, "longitude": -117.331380054845}, "transactions": [], "price": "$", "location": {"address1": "3780 Mission Ave", "address2": "Ste 2", "address3": "", "city": "Oceanside", "zip_code": "92058", "country": "US", "state": "CA", "display_address": ["3780 Mission Ave", "Ste 2", "Oceanside, CA 92058"]}, "phone": "+17607212702", "display_phone": "(760) 721-2702", "distance": 4709.494812073656}, {"id": "r9Pr9KrZcbUR6ntYvXWzag", "alias": "panda-express-oceanside-2", "name": "Panda Express", "image_url": "https://s3-media1.fl.yelpcdn.com/bphoto/a99TEnWPrnKJP-q7W2PHbw/o.jpg", "is_closed": false, "url": "https://www.yelp.com/biz/panda-express-oceanside-2?adjust_creative=oncXGL2aPIKrtJdnWeFSnA&utm_campaign=yelp_api_v3&utm_medium=api_v3_business_search&utm_source=oncXGL2aPIKrtJdnWeFSnA", "review_count": 39, "categories": [{"alias": "chinese", "title": "Chinese"}, {"alias": "hotdogs", "title": "Fast Food"}], "rating": 3.0, "coordinates": {"latitude": 33.1991604, "longitude": -117.3743856}, "transactions": [], "price": "$", "location": {"address1": "1068 Mission Ave", "address2": "", "address3": "", "city": "Oceanside", "zip_code": "92054", "country": "US", "state": "CA", "display_address": ["1068 Mission Ave", "Oceanside, CA 92054"]}, "phone": "+17607219866", "display_phone": "(760) 721-9866", "distance": 1206.1704231848576}, {"id": "Q22nhcm4jqnIl7gqHF21Ag", "alias": "del-taco-oceanside", "name": "Del Taco", "image_url": "https://s3-media3.fl.yelpcdn.com/bphoto/LOGImStUBpRGOnqczZ-ucw/o.jpg", "is_closed": false, "url": "https://www.yelp.com/biz/del-taco-oceanside?adjust_creative=oncXGL2aPIKrtJdnWeFSnA&utm_campaign=yelp_api_v3&utm_medium=api_v3_business_search&utm_source=oncXGL2aPIKrtJdnWeFSnA", "review_count": 61, "categories": [{"alias": "hotdogs", "title": "Fast Food"}], "rating": 2.5, "coordinates": {"latitude": 33.2082138061523, "longitude": -117.388488769531}, "transactions": [], "price": "$", "location": {"address1": "1601 Carmelo Dr", "address2": "", "address3": "", "city": "Oceanside", "zip_code": "92054", "country": "US", "state": "CA", "display_address": ["1601 Carmelo Dr", "Oceanside, CA 92054"]}, "phone": "+17607219003", "display_phone": "(760) 721-9003", "distance": 2865.662854881748}, {"id": "dT6LHYyYFEb5_tVNrE7Aaw", "alias": "el-pollo-loco-oceanside-4", "name": "El Pollo Loco", "image_url": "https://s3-media2.fl.yelpcdn.com/bphoto/Ncs3PkM4EnLSUmudE6b_kg/o.jpg", "is_closed": false, "url": "https://www.yelp.com/biz/el-pollo-loco-oceanside-4?adjust_creative=oncXGL2aPIKrtJdnWeFSnA&utm_campaign=yelp_api_v3&utm_medium=api_v3_business_search&utm_source=oncXGL2aPIKrtJdnWeFSnA", "review_count": 45, "categories": [{"alias": "mexican", "title": "Mexican"}, {"alias": "hotdogs", "title": "Fast Food"}], "rating": 3.0, "coordinates": {"latitude": 33.1987953186035, "longitude": -117.37532043457}, "transactions": [], "price": "$", "location": {"address1": "1004 Mission Ave", "address2": "", "address3": "", "city": "Oceanside", "zip_code": "92054", "country": "US", "state": "CA", "display_address": ["1004 Mission Ave", "Oceanside, CA 92054"]}, "phone": "+17607541468", "display_phone": "(760) 754-1468", "distance": 1275.0846882251649}, {"id": "QW3CunRu2rNB9l7X847lEA", "alias": "churchs-chicken-oceanside", "name": "Church's Chicken", "image_url": "https://s3-media2.fl.yelpcdn.com/bphoto/hprFKZRodbXroVGCROK-4Q/o.jpg", "is_closed": false, "url": "https://www.yelp.com/biz/churchs-chicken-oceanside?adjust_creative=oncXGL2aPIKrtJdnWeFSnA&utm_campaign=yelp_api_v3&utm_medium=api_v3_business_search&utm_source=oncXGL2aPIKrtJdnWeFSnA", "review_count": 68, "categories": [{"alias": "hotdogs", "title": "Fast Food"}, {"alias": "chicken_wings", "title": "Chicken Wings"}], "rating": 2.0, "coordinates": {"latitude": 33.1838864, "longitude": -117.3690057}, "transactions": [], "price": "$", "location": {"address1": "510 Oceanside Blvd", "address2": "", "address3": "", "city": "Oceanside", "zip_code": "92054", "country": "US", "state": "CA", "display_address": ["510 Oceanside Blvd", "Oceanside, CA 92054"]}, "phone": "+17604395636", "display_phone": "(760) 439-5636", "distance": 1279.8110411092312}, {"id": "9PYWRvzG__lMs0NRT3KOfw", "alias": "jack-in-the-box-oceanside", "name": "Jack in the Box", "image_url": "https://s3-media1.fl.yelpcdn.com/bphoto/mQY_ZcVbjtSpShXm1J1Yzg/o.jpg", "is_closed": false, "url": "https://www.yelp.com/biz/jack-in-the-box-oceanside?adjust_creative=oncXGL2aPIKrtJdnWeFSnA&utm_campaign=yelp_api_v3&utm_medium=api_v3_business_search&utm_source=oncXGL2aPIKrtJdnWeFSnA", "review_count": 33, "categories": [{"alias": "hotdogs", "title": "Fast Food"}], "rating": 3.5, "coordinates": {"latitude": 33.20375, "longitude": -117.366068}, "transactions": ["delivery"], "price": "$", "location": {"address1": "1900 Mission Ave", "address2": "", "address3": "", "city": "Oceanside", "zip_code": "92054", "country": "US", "state": "CA", "display_address": ["1900 Mission Ave", "Oceanside, CA 92054"]}, "phone": "+17609673971", "display_phone": "(760) 967-3971", "distance": 1108.6038166934945}, {"id": "IZHSeQG5Fgvh5kVLbmGB3Q", "alias": "arbys-roast-beef-restaurant-oceanside", "name": "Arby's Roast Beef Restaurant", "image_url": "https://s3-media1.fl.yelpcdn.com/bphoto/YpnYTza9v8sS2RpN-iDVVQ/o.jpg", "is_closed": false, "url": "https://www.yelp.com/biz/arbys-roast-beef-restaurant-oceanside?adjust_creative=oncXGL2aPIKrtJdnWeFSnA&utm_campaign=yelp_api_v3&utm_medium=api_v3_business_search&utm_source=oncXGL2aPIKrtJdnWeFSnA", "review_count": 32, "categories": [{"alias": "hotdogs", "title": "Fast Food"}, {"alias": "sandwiches", "title": "Sandwiches"}], "rating": 3.5, "coordinates": {"latitude": 33.202445, "longitude": -117.365066}, "transactions": [], "price": "$", "location": {"address1": "1863 Mission Ave", "address2": "", "address3": "", "city": "Oceanside", "zip_code": "92054", "country": "US", "state": "CA", "display_address": ["1863 Mission Ave", "Oceanside, CA 92054"]}, "phone": "+17607228467", "display_phone": "(760) 722-8467", "distance": 1026.2275783158996}, {"id": "exnRyS7ufQgjB5TO3q_GRA", "alias": "wendys-oceanside-8", "name": "Wendy's", "image_url": "https://s3-media3.fl.yelpcdn.com/bphoto/9_X5YIcsiCN_gP2lxFLtjw/o.jpg", "is_closed": false, "url": "https://www.yelp.com/biz/wendys-oceanside-8?adjust_creative=oncXGL2aPIKrtJdnWeFSnA&utm_campaign=yelp_api_v3&utm_medium=api_v3_business_search&utm_source=oncXGL2aPIKrtJdnWeFSnA", "review_count": 39, "categories": [{"alias": "hotdogs", "title": "Fast Food"}, {"alias": "burgers", "title": "Burgers"}], "rating": 2.0, "coordinates": {"latitude": 33.1985206604004, "longitude": -117.375686645508}, "transactions": [], "price": "$", "location": {"address1": "1002 Mission Ave", "address2": "", "address3": "", "city": "Oceanside", "zip_code": "92054", "country": "US", "state": "CA", "display_address": ["1002 Mission Ave", "Oceanside, CA 92054"]}, "phone": "+17609670348", "display_phone": "(760) 967-0348", "distance": 1297.663961484634}, {"id": "V2exKVZgIvly83qK0fhFWw", "alias": "wienerschnitzel-oceanside-2", "name": "Wienerschnitzel", "image_url": "https://s3-media2.fl.yelpcdn.com/bphoto/iuk1qLzPuP_DyVhDEdaaNw/o.jpg", "is_closed": false, "url": "https://www.yelp.com/biz/wienerschnitzel-oceanside-2?adjust_creative=oncXGL2aPIKrtJdnWeFSnA&utm_campaign=yelp_api_v3&utm_medium=api_v3_business_search&utm_source=oncXGL2aPIKrtJdnWeFSnA", "review_count": 24, "categories": [{"alias": "hotdog", "title": "Hot Dogs"}, {"alias": "hotdogs", "title": "Fast Food"}, {"alias": "sandwiches", "title": "Sandwiches"}], "rating": 3.5, "coordinates": {"latitude": 33.1945980869188, "longitude": -117.354382569297}, "transactions": [], "price": "$", "location": {"address1": "1960 Oceanside Blvd", "address2": "", "address3": "", "city": "Oceanside", "zip_code": "92054", "country": "US", "state": "CA", "display_address": ["1960 Oceanside Blvd", "Oceanside, CA 92054"]}, "phone": "+17607541909", "display_phone": "(760) 754-1909", "distance": 764.6997954234798}, {"id": "pQfxlkbwdg8DoBewGf-3hA", "alias": "burger-king-oceanside-2", "name": "Burger King", "image_url": "https://s3-media4.fl.yelpcdn.com/bphoto/jXAs2Si33gbRU2DqozOaGQ/o.jpg", "is_closed": false, "url": "https://www.yelp.com/biz/burger-king-oceanside-2?adjust_creative=oncXGL2aPIKrtJdnWeFSnA&utm_campaign=yelp_api_v3&utm_medium=api_v3_business_search&utm_source=oncXGL2aPIKrtJdnWeFSnA", "review_count": 20, "categories": [{"alias": "burgers", "title": "Burgers"}, {"alias": "hotdogs", "title": "Fast Food"}], "rating": 2.0, "coordinates": {"latitude": 33.20142, "longitude": -117.3703}, "transactions": [], "price": "$", "location": {"address1": "1420 Mission Ave", "address2": "", "address3": "", "city": "Oceanside", "zip_code": "92054", "country": "US", "state": "CA", "display_address": ["1420 Mission Ave", "Oceanside, CA 92054"]}, "phone": "+17604332580", "display_phone": "(760) 433-2580", "distance": 1068.3457289808}, {"id": "b53K_YhD918rxnk-VFXc6A", "alias": "jersey-mikes-oceanside-2", "name": "Jersey Mikes", "image_url": "https://s3-media2.fl.yelpcdn.com/bphoto/H3dTJ8WZ5Jol7Y_NKqMv2g/o.jpg", "is_closed": false, "url": "https://www.yelp.com/biz/jersey-mikes-oceanside-2?adjust_creative=oncXGL2aPIKrtJdnWeFSnA&utm_campaign=yelp_api_v3&utm_medium=api_v3_business_search&utm_source=oncXGL2aPIKrtJdnWeFSnA", "review_count": 5, "categories": [{"alias": "hotdogs", "title": "Fast Food"}, {"alias": "delis", "title": "Delis"}, {"alias": "sandwiches", "title": "Sandwiches"}], "rating": 5.0, "coordinates": {"latitude": 33.195073112179, "longitude": -117.381085976958}, "transactions": [], "location": {"address1": "302 Mission Ave", "address2": "", "address3": "", "city": "Oceanside", "zip_code": "92054", "country": "US", "state": "CA", "display_address": ["302 Mission Ave", "Oceanside, CA 92054"]}, "phone": "+17604350783", "display_phone": "(760) 435-0783", "distance": 1702.3683370583124}, {"id": "JBUcwK-sQgRg5SURBwSYMw", "alias": "subway-oceanside-4", "name": "Subway", "image_url": "https://s3-media2.fl.yelpcdn.com/bphoto/eZms6uXgIzSbqrZeaqdOIw/o.jpg", "is_closed": false, "url": "https://www.yelp.com/biz/subway-oceanside-4?adjust_creative=oncXGL2aPIKrtJdnWeFSnA&utm_campaign=yelp_api_v3&utm_medium=api_v3_business_search&utm_source=oncXGL2aPIKrtJdnWeFSnA", "review_count": 29, "categories": [{"alias": "sandwiches", "title": "Sandwiches"}, {"alias": "hotdogs", "title": "Fast Food"}], "rating": 3.0, "coordinates": {"latitude": 33.1926885992289, "longitude": -117.358136996627}, "transactions": [], "price": "$", "location": {"address1": "1836 Oceanside Blvd", "address2": "Ste 103C", "address3": "", "city": "Oceanside", "zip_code": "92054", "country": "US", "state": "CA", "display_address": ["1836 Oceanside Blvd", "Ste 103C", "Oceanside, CA 92054"]}, "phone": "+17609677827", "display_phone": "(760) 967-7827", "distance": 494.5440604284}, {"id": "X7PbDjO9M4RxoUKTpODVig", "alias": "wienerschnitzel-oceanside", "name": "Wienerschnitzel", "image_url": "https://s3-media1.fl.yelpcdn.com/bphoto/69960HM8Z9B9poAQgOcCvg/o.jpg", "is_closed": false, "url": "https://www.yelp.com/biz/wienerschnitzel-oceanside?adjust_creative=oncXGL2aPIKrtJdnWeFSnA&utm_campaign=yelp_api_v3&utm_medium=api_v3_business_search&utm_source=oncXGL2aPIKrtJdnWeFSnA", "review_count": 34, "categories": [{"alias": "hotdogs", "title": "Fast Food"}, {"alias": "hotdog", "title": "Hot Dogs"}, {"alias": "sandwiches", "title": "Sandwiches"}], "rating": 3.0, "coordinates": {"latitude": 33.20013, "longitude": -117.38273}, "transactions": ["delivery", "pickup"], "price": "$", "location": {"address1": "624 North Coast Hwy", "address2": "", "address3": "", "city": "Oceanside", "zip_code": "92054", "country": "US", "state": "CA", "display_address": ["624 North Coast Hwy", "Oceanside, CA 92054"]}, "phone": "+17607229059", "display_phone": "(760) 722-9059", "distance": 1979.0686693135444}, {"id": "AWysF3FqR5RxqCsO-ZoqDw", "alias": "chipotle-mexican-grill-oceanside-3", "name": "Chipotle Mexican Grill", "image_url": "https://s3-media4.fl.yelpcdn.com/bphoto/5EH5ktmaGJIeJ2379LSadA/o.jpg", "is_closed": false, "url": "https://www.yelp.com/biz/chipotle-mexican-grill-oceanside-3?adjust_creative=oncXGL2aPIKrtJdnWeFSnA&utm_campaign=yelp_api_v3&utm_medium=api_v3_business_search&utm_source=oncXGL2aPIKrtJdnWeFSnA", "review_count": 115, "categories": [{"alias": "mexican", "title": "Mexican"}, {"alias": "hotdogs", "title": "Fast Food"}], "rating": 2.5, "coordinates": {"latitude": 33.20575, "longitude": -117.28835}, "transactions": [], "price": "$", "location": {"address1": "4111 Oceanside Blvd", "address2": "", "address3": "", "city": "Oceanside", "zip_code": "92056", "country": "US", "state": "CA", "display_address": ["4111 Oceanside Blvd", "Oceanside, CA 92056"]}, "phone": "+17606594147", "display_phone": "(760) 659-4147", "distance": 7023.480248426903}, {"id": "Li5i83xVhK2HfM5J0JHY6Q", "alias": "in-n-out-burger-oceanside", "name": "In-N-Out Burger", "image_url": "https://s3-media3.fl.yelpcdn.com/bphoto/OSJuAZ2mwEdROgVQB7iIrQ/o.jpg", "is_closed": false, "url": "https://www.yelp.com/biz/in-n-out-burger-oceanside?adjust_creative=oncXGL2aPIKrtJdnWeFSnA&utm_campaign=yelp_api_v3&utm_medium=api_v3_business_search&utm_source=oncXGL2aPIKrtJdnWeFSnA", "review_count": 164, "categories": [{"alias": "hotdogs", "title": "Fast Food"}, {"alias": "burgers", "title": "Burgers"}], "rating": 4.0, "coordinates": {"latitude": 33.2378799, "longitude": -117.29921}, "transactions": [], "price": "$", "location": {"address1": "4605 Frazee Rd", "address2": "", "address3": "", "city": "Oceanside", "zip_code": "92057", "country": "US", "state": "CA", "display_address": ["4605 Frazee Rd", "Oceanside, CA 92057"]}, "phone": "+18007861000", "display_phone": "(800) 786-1000", "distance": 7643.064778851467}, {"id": "zHoEc98MvN_WOtaPIC7hGA", "alias": "mcdonalds-oceanside-11", "name": "McDonald's", "image_url": "https://s3-media2.fl.yelpcdn.com/bphoto/h4fFS-iKZ82fVdCyDDayTA/o.jpg", "is_closed": false, "url": "https://www.yelp.com/biz/mcdonalds-oceanside-11?adjust_creative=oncXGL2aPIKrtJdnWeFSnA&utm_campaign=yelp_api_v3&utm_medium=api_v3_business_search&utm_source=oncXGL2aPIKrtJdnWeFSnA", "review_count": 48, "categories": [{"alias": "burgers", "title": "Burgers"}, {"alias": "hotdogs", "title": "Fast Food"}, {"alias": "coffee", "title": "Coffee & Tea"}], "rating": 1.5, "coordinates": {"latitude": 33.1821786151965, "longitude": -117.340239286423}, "transactions": [], "price": "$", "location": {"address1": "2185 Vista Way", "address2": "", "address3": "", "city": "Oceanside", "zip_code": "92054", "country": "US", "state": "CA", "display_address": ["2185 Vista Way", "Oceanside, CA 92054"]}, "phone": "+17604392256", "display_phone": "(760) 439-2256", "distance": 2488.1208826688476}, {"id": "FTmg3nAWqHMFg_uqUhOf8Q", "alias": "firehouse-subs-oceanside", "name": "Firehouse Subs", "image_url": "https://s3-media2.fl.yelpcdn.com/bphoto/C0ir7tT9VhnOyO9mws2ltw/o.jpg", "is_closed": false, "url": "https://www.yelp.com/biz/firehouse-subs-oceanside?adjust_creative=oncXGL2aPIKrtJdnWeFSnA&utm_campaign=yelp_api_v3&utm_medium=api_v3_business_search&utm_source=oncXGL2aPIKrtJdnWeFSnA", "review_count": 208, "categories": [{"alias": "sandwiches", "title": "Sandwiches"}, {"alias": "hotdogs", "title": "Fast Food"}, {"alias": "delis", "title": "Delis"}], "rating": 3.5, "coordinates": {"latitude": 33.183075, "longitude": -117.3309326}, "transactions": ["delivery", "pickup"], "price": "$", "location": {"address1": "2619-B1 Vista Way", "address2": "", "address3": "", "city": "Oceanside", "zip_code": "92054", "country": "US", "state": "CA", "display_address": ["2619-B1 Vista Way", "Oceanside, CA 92054"]}, "phone": "+17607214321", "display_phone": "(760) 721-4321", "distance": 3261.184948375438}, {"id": "Jp467vA2j5p5DhGs36sZ2A", "alias": "popeyes-louisiana-kitchen-oceanside", "name": "Popeyes Louisiana Kitchen", "image_url": "https://s3-media3.fl.yelpcdn.com/bphoto/tLclRZf7U_cJPOqP7FHpEQ/o.jpg", "is_closed": false, "url": "https://www.yelp.com/biz/popeyes-louisiana-kitchen-oceanside?adjust_creative=oncXGL2aPIKrtJdnWeFSnA&utm_campaign=yelp_api_v3&utm_medium=api_v3_business_search&utm_source=oncXGL2aPIKrtJdnWeFSnA", "review_count": 76, "categories": [{"alias": "hotdogs", "title": "Fast Food"}, {"alias": "chicken_wings", "title": "Chicken Wings"}], "rating": 2.0, "coordinates": {"latitude": 33.2567978528058, "longitude": -117.29944245121}, "transactions": [], "price": "$", "location": {"address1": "511 Vandegrift Blvd", "address2": "", "address3": "", "city": "Oceanside", "zip_code": "92057", "country": "US", "state": "CA", "display_address": ["511 Vandegrift Blvd", "Oceanside, CA 92057"]}, "phone": "+17607579150", "display_phone": "(760) 757-9150", "distance": 9125.407076369926}, {"id": "pby86wXhVs8Sg-zlhoTSAw", "alias": "burger-king-oceanside-5", "name": "Burger King", "image_url": "https://s3-media2.fl.yelpcdn.com/bphoto/N-dEppvyT10UGyCkTTVebw/o.jpg", "is_closed": false, "url": "https://www.yelp.com/biz/burger-king-oceanside-5?adjust_creative=oncXGL2aPIKrtJdnWeFSnA&utm_campaign=yelp_api_v3&utm_medium=api_v3_business_search&utm_source=oncXGL2aPIKrtJdnWeFSnA", "review_count": 25, "categories": [{"alias": "burgers", "title": "Burgers"}, {"alias": "hotdogs", "title": "Fast Food"}], "rating": 2.0, "coordinates": {"latitude": 33.181706, "longitude": -117.337208}, "transactions": [], "price": "$", "location": {"address1": "2325 Vista Way", "address2": null, "address3": null, "city": "Oceanside", "zip_code": "92054", "country": "US", "state": "CA", "display_address": ["2325 Vista Way", "Oceanside, CA 92054"]}, "phone": "+17607220088", "display_phone": "(760) 722-0088", "distance": 2751.030442264931}, {"id": "JUFvFVlWC8NcM-wi0MnVAQ", "alias": "mcdonalds-oceanside-10", "name": "McDonald's", "image_url": "https://s3-media1.fl.yelpcdn.com/bphoto/aD4N3UhoZ9XNVj2EC3ydJw/o.jpg", "is_closed": false, "url": "https://www.yelp.com/biz/mcdonalds-oceanside-10?adjust_creative=oncXGL2aPIKrtJdnWeFSnA&utm_campaign=yelp_api_v3&utm_medium=api_v3_business_search&utm_source=oncXGL2aPIKrtJdnWeFSnA", "review_count": 40, "categories": [{"alias": "hotdogs", "title": "Fast Food"}, {"alias": "burgers", "title": "Burgers"}, {"alias": "coffee", "title": "Coffee & Tea"}], "rating": 2.0, "coordinates": {"latitude": 33.2243291957312, "longitude": -117.333398233177}, "transactions": [], "price": "$", "location": {"address1": "3720 Misson Blvd", "address2": null, "address3": null, "city": "Oceanside", "zip_code": "92054", "country": "US", "state": "CA", "display_address": ["3720 Misson Blvd", "Oceanside, CA 92054"]}, "phone": "+17607578001", "display_phone": "(760) 757-8001", "distance": 4330.156838378784}, {"id": "jAyvOg5I2OnRJjl7Hqhwbg", "alias": "taco-bell-oceanside-5", "name": "Taco Bell", "image_url": "https://s3-media3.fl.yelpcdn.com/bphoto/yFIgRwnJpOKaTTN7uF6u1g/o.jpg", "is_closed": false, "url": "https://www.yelp.com/biz/taco-bell-oceanside-5?adjust_creative=oncXGL2aPIKrtJdnWeFSnA&utm_campaign=yelp_api_v3&utm_medium=api_v3_business_search&utm_source=oncXGL2aPIKrtJdnWeFSnA", "review_count": 33, "categories": [{"alias": "mexican", "title": "Mexican"}, {"alias": "hotdogs", "title": "Fast Food"}], "rating": 3.5, "coordinates": {"latitude": 33.2272119758825, "longitude": -117.32697895513}, "transactions": ["delivery"], "price": "$", "location": {"address1": "3895 Mission Ave", "address2": null, "address3": null, "city": "Oceanside", "zip_code": "92054", "country": "US", "state": "CA", "display_address": ["3895 Mission Ave", "Oceanside, CA 92054"]}, "phone": "+17609677533", "display_phone": "(760) 967-7533", "distance": 4962.861377376639}, {"id": "YCFzdkCNCTyRYRaTNzM7hw", "alias": "subway-oceanside-11", "name": "Subway", "image_url": "", "is_closed": false, "url": "https://www.yelp.com/biz/subway-oceanside-11?adjust_creative=oncXGL2aPIKrtJdnWeFSnA&utm_campaign=yelp_api_v3&utm_medium=api_v3_business_search&utm_source=oncXGL2aPIKrtJdnWeFSnA", "review_count": 1, "categories": [{"alias": "sandwiches", "title": "Sandwiches"}, {"alias": "hotdogs", "title": "Fast Food"}], "rating": 4.0, "coordinates": {"latitude": 33.2116909580298, "longitude": -117.353553771973}, "transactions": [], "location": {"address1": "33 Area", "address2": "", "address3": "", "city": "Oceanside", "zip_code": "92054", "country": "US", "state": "CA", "display_address": ["33 Area", "Oceanside, CA 92054"]}, "phone": "", "display_phone": "", "distance": 2131.9420420123656}, {"id": "ijSYzU93jD6p9RB8AHMB1w", "alias": "subway-oceanside-12", "name": "Subway", "image_url": "https://s3-media2.fl.yelpcdn.com/bphoto/2VY4jV5Yl5_BdQ_2tJ6LLQ/o.jpg", "is_closed": false, "url": "https://www.yelp.com/biz/subway-oceanside-12?adjust_creative=oncXGL2aPIKrtJdnWeFSnA&utm_campaign=yelp_api_v3&utm_medium=api_v3_business_search&utm_source=oncXGL2aPIKrtJdnWeFSnA", "review_count": 15, "categories": [{"alias": "sandwiches", "title": "Sandwiches"}, {"alias": "hotdogs", "title": "Fast Food"}], "rating": 3.0, "coordinates": {"latitude": 33.199458, "longitude": -117.3748}, "transactions": ["delivery", "pickup"], "price": "$", "location": {"address1": "1024 Mission Ave", "address2": "", "address3": "", "city": "Oceanside", "zip_code": "92054", "country": "US", "state": "CA", "display_address": ["1024 Mission Ave", "Oceanside, CA 92054"]}, "phone": "+17609675997", "display_phone": "(760) 967-5997", "distance": 1260.6783608738367}, {"id": "eQcrc1ugY-aUNM-samcrLQ", "alias": "jack-in-the-box-oceanside-2", "name": "Jack in the Box", "image_url": "https://s3-media4.fl.yelpcdn.com/bphoto/3llopiNZHYY1IjlonI93bw/o.jpg", "is_closed": false, "url": "https://www.yelp.com/biz/jack-in-the-box-oceanside-2?adjust_creative=oncXGL2aPIKrtJdnWeFSnA&utm_campaign=yelp_api_v3&utm_medium=api_v3_business_search&utm_source=oncXGL2aPIKrtJdnWeFSnA", "review_count": 37, "categories": [{"alias": "hotdogs", "title": "Fast Food"}], "rating": 3.0, "coordinates": {"latitude": 33.2279289, "longitude": -117.3251453}, "transactions": ["delivery"], "price": "$", "location": {"address1": "3909 Mission Ave", "address2": null, "address3": null, "city": "Oceanside", "zip_code": "92058", "country": "US", "state": "CA", "display_address": ["3909 Mission Ave", "Oceanside, CA 92058"]}, "phone": "+17604399852", "display_phone": "(760) 439-9852", "distance": 5131.253611160085}, {"id": "m0SB2eHVRUPfgTZndmGsrQ", "alias": "el-pollo-loco-oceanside-5", "name": "El Pollo Loco", "image_url": "https://s3-media1.fl.yelpcdn.com/bphoto/Re3rfzWAkE2sy5J42FLT0A/o.jpg", "is_closed": false, "url": "https://www.yelp.com/biz/el-pollo-loco-oceanside-5?adjust_creative=oncXGL2aPIKrtJdnWeFSnA&utm_campaign=yelp_api_v3&utm_medium=api_v3_business_search&utm_source=oncXGL2aPIKrtJdnWeFSnA", "review_count": 64, "categories": [{"alias": "hotdogs", "title": "Fast Food"}, {"alias": "mexican", "title": "Mexican"}], "rating": 3.5, "coordinates": {"latitude": 33.1816788, "longitude": -117.2959824}, "transactions": ["delivery", "pickup"], "price": "$", "location": {"address1": "3500 College Blvd", "address2": "", "address3": "", "city": "Oceanside", "zip_code": "92056", "country": "US", "state": "CA", "display_address": ["3500 College Blvd", "Oceanside, CA 92056"]}, "phone": "+17604779345", "display_phone": "(760) 477-9345", "distance": 6378.374301769595}, {"id": "MCEJykdFu21UbBCMPurHKQ", "alias": "sacs-magic-fry-oceanside", "name": "Sac's Magic Fry", "image_url": "https://s3-media2.fl.yelpcdn.com/bphoto/Rx2YcVga2KfIBL921UeF5w/o.jpg", "is_closed": false, "url": "https://www.yelp.com/biz/sacs-magic-fry-oceanside?adjust_creative=oncXGL2aPIKrtJdnWeFSnA&utm_campaign=yelp_api_v3&utm_medium=api_v3_business_search&utm_source=oncXGL2aPIKrtJdnWeFSnA", "review_count": 6, "categories": [{"alias": "hotdogs", "title": "Fast Food"}], "rating": 3.5, "coordinates": {"latitude": 33.244665786624, "longitude": -117.322525978088}, "transactions": [], "price": "$", "location": {"address1": "650 Douglas Dr", "address2": "", "address3": "", "city": "Oceanside", "zip_code": "92058", "country": "US", "state": "CA", "display_address": ["650 Douglas Dr", "Oceanside, CA 92058"]}, "phone": "+16193425966", "display_phone": "(619) 342-5966", "distance": 6788.1369407133525}, {"id": "oN3vxCImKLGoQ6cejj8nIQ", "alias": "panda-express-camp-pendleton-north", "name": "Panda Express", "image_url": "https://s3-media1.fl.yelpcdn.com/bphoto/hqCRmcti6KlQnJfZSp5qmg/o.jpg", "is_closed": false, "url": "https://www.yelp.com/biz/panda-express-camp-pendleton-north?adjust_creative=oncXGL2aPIKrtJdnWeFSnA&utm_campaign=yelp_api_v3&utm_medium=api_v3_business_search&utm_source=oncXGL2aPIKrtJdnWeFSnA", "review_count": 21, "categories": [{"alias": "chinese", "title": "Chinese"}, {"alias": "hotdogs", "title": "Fast Food"}], "rating": 3.0, "coordinates": {"latitude": 33.2261954699329, "longitude": -117.393153905869}, "transactions": [], "price": "$", "location": {"address1": "20845 Pacific Plz", "address2": "", "address3": "", "city": "Camp Pendleton North", "zip_code": "92055", "country": "US", "state": "CA", "display_address": ["20845 Pacific Plz", "Camp Pendleton North, CA 92055"]}, "phone": "+17604307981", "display_phone": "(760) 430-7981", "distance": 4544.6421336964595}, {"id": "Mm1kzhW7TSA7wssjSuSoOw", "alias": "panda-express-oceanside-3", "name": "Panda Express", "image_url": "https://s3-media4.fl.yelpcdn.com/bphoto/p9DoPWAwn7E__lc228k5Cw/o.jpg", "is_closed": false, "url": "https://www.yelp.com/biz/panda-express-oceanside-3?adjust_creative=oncXGL2aPIKrtJdnWeFSnA&utm_campaign=yelp_api_v3&utm_medium=api_v3_business_search&utm_source=oncXGL2aPIKrtJdnWeFSnA", "review_count": 52, "categories": [{"alias": "chinese", "title": "Chinese"}, {"alias": "hotdogs", "title": "Fast Food"}], "rating": 3.5, "coordinates": {"latitude": 33.22728, "longitude": -117.32638}, "transactions": [], "price": "$", "location": {"address1": "47 Douglas Dr", "address2": null, "address3": null, "city": "Oceanside", "zip_code": "92054", "country": "US", "state": "CA", "display_address": ["47 Douglas Dr", "Oceanside, CA 92054"]}, "phone": "+17609679006", "display_phone": "(760) 967-9006", "distance": 4996.680893107335}, {"id": "ZSUDFACyvkdYL1UgVkV_qw", "alias": "mcdonalds-camp-pendleton-4", "name": "McDonald's", "image_url": "https://s3-media4.fl.yelpcdn.com/bphoto/IzoNhRWaNypkv0bminNvtg/o.jpg", "is_closed": false, "url": "https://www.yelp.com/biz/mcdonalds-camp-pendleton-4?adjust_creative=oncXGL2aPIKrtJdnWeFSnA&utm_campaign=yelp_api_v3&utm_medium=api_v3_business_search&utm_source=oncXGL2aPIKrtJdnWeFSnA", "review_count": 34, "categories": [{"alias": "coffee", "title": "Coffee & Tea"}, {"alias": "burgers", "title": "Burgers"}, {"alias": "hotdogs", "title": "Fast Food"}], "rating": 1.0, "coordinates": {"latitude": 33.28058, "longitude": -117.37231}, "transactions": [], "price": "$$", "location": {"address1": "20844 Vandegrift Blvd", "address2": null, "address3": null, "city": "Camp Pendleton", "zip_code": "92055", "country": "US", "state": "CA", "display_address": ["20844 Vandegrift Blvd", "Camp Pendleton, CA 92055"]}, "phone": "+17604304630", "display_phone": "(760) 430-4630", "distance": 4406.358490393059}, {"id": "kNNt-y6MUZY5HVQ1AFXoBQ", "alias": "kfc-oceanside", "name": "KFC", "image_url": "https://s3-media3.fl.yelpcdn.com/bphoto/ky7vtpPJo9PAer-kkv5rRA/o.jpg", "is_closed": false, "url": "https://www.yelp.com/biz/kfc-oceanside?adjust_creative=oncXGL2aPIKrtJdnWeFSnA&utm_campaign=yelp_api_v3&utm_medium=api_v3_business_search&utm_source=oncXGL2aPIKrtJdnWeFSnA", "review_count": 52, "categories": [{"alias": "hotdogs", "title": "Fast Food"}, {"alias": "chicken_wings", "title": "Chicken Wings"}, {"alias": "chickenshop", "title": "Chicken Shop"}], "rating": 1.5, "coordinates": {"latitude": 33.2238824094632, "longitude": -117.332548979286}, "transactions": ["delivery"], "price": "$$", "location": {"address1": "3747 Mission Ave", "address2": "", "address3": "", "city": "Oceanside", "zip_code": "92058", "country": "US", "state": "CA", "display_address": ["3747 Mission Ave", "Oceanside, CA 92058"]}, "phone": "+17607224196", "display_phone": "(760) 722-4196", "distance": 4342.607339727543}, {"id": "_QGAvJJpQQ04h_OhR3D2tw", "alias": "wendys-oceanside-3", "name": "Wendy's", "image_url": "https://s3-media3.fl.yelpcdn.com/bphoto/1i1xiwKzU3JdJYJqsWonyQ/o.jpg", "is_closed": false, "url": "https://www.yelp.com/biz/wendys-oceanside-3?adjust_creative=oncXGL2aPIKrtJdnWeFSnA&utm_campaign=yelp_api_v3&utm_medium=api_v3_business_search&utm_source=oncXGL2aPIKrtJdnWeFSnA", "review_count": 46, "categories": [{"alias": "hotdogs", "title": "Fast Food"}, {"alias": "burgers", "title": "Burgers"}], "rating": 3.0, "coordinates": {"latitude": 33.1815920618444, "longitude": -117.295728412086}, "transactions": [], "price": "$", "location": {"address1": "3705 Plz Dr", "address2": "", "address3": "", "city": "Oceanside", "zip_code": "92056", "country": "US", "state": "CA", "display_address": ["3705 Plz Dr", "Oceanside, CA 92056"]}, "phone": "+17606306732", "display_phone": "(760) 630-6732", "distance": 6398.057155004026}, {"id": "9K-2oBXU6MmBPn0XIfU6eA", "alias": "chipotle-mexican-grill-oceanside-5", "name": "Chipotle Mexican Grill", "image_url": "https://s3-media2.fl.yelpcdn.com/bphoto/AaadVAae67SOdZako2T6SQ/o.jpg", "is_closed": false, "url": "https://www.yelp.com/biz/chipotle-mexican-grill-oceanside-5?adjust_creative=oncXGL2aPIKrtJdnWeFSnA&utm_campaign=yelp_api_v3&utm_medium=api_v3_business_search&utm_source=oncXGL2aPIKrtJdnWeFSnA", "review_count": 44, "categories": [{"alias": "mexican", "title": "Mexican"}, {"alias": "hotdogs", "title": "Fast Food"}], "rating": 2.5, "coordinates": {"latitude": 33.2452251149466, "longitude": -117.290513811569}, "transactions": [], "price": "$", "location": {"address1": "495 College BLVD", "address2": "Ste A&B", "address3": "", "city": "Oceanside", "zip_code": "92057", "country": "US", "state": "CA", "display_address": ["495 College BLVD", "Ste A&B", "Oceanside, CA 92057"]}, "phone": "+17607581493", "display_phone": "(760) 758-1493", "distance": 8802.889670516606}, {"id": "B9nfAbQbf7AV0u09vDnOqg", "alias": "jack-in-the-box-oceanside-7", "name": "Jack in the Box", "image_url": "https://s3-media2.fl.yelpcdn.com/bphoto/ba_g2Hr1Ln3pu4_pKqTu8Q/o.jpg", "is_closed": false, "url": "https://www.yelp.com/biz/jack-in-the-box-oceanside-7?adjust_creative=oncXGL2aPIKrtJdnWeFSnA&utm_campaign=yelp_api_v3&utm_medium=api_v3_business_search&utm_source=oncXGL2aPIKrtJdnWeFSnA", "review_count": 27, "categories": [{"alias": "hotdogs", "title": "Fast Food"}, {"alias": "burgers", "title": "Burgers"}], "rating": 2.5, "coordinates": {"latitude": 33.183536529541, "longitude": -117.333084106445}, "transactions": ["delivery"], "price": "$", "location": {"address1": "2474 Vista Way", "address2": "", "address3": "", "city": "Oceanside", "zip_code": "92054", "country": "US", "state": "CA", "display_address": ["2474 Vista Way", "Oceanside, CA 92054"]}, "phone": "+17609660041", "display_phone": "(760) 966-0041", "distance": 3007.863960267372}, {"id": "u9G9j9fCx44OjLZq8O9gIw", "alias": "subway-oceanside-25", "name": "Subway", "image_url": "https://s3-media3.fl.yelpcdn.com/bphoto/H0vMQGvX4LkupmtdfDb2xg/o.jpg", "is_closed": false, "url": "https://www.yelp.com/biz/subway-oceanside-25?adjust_creative=oncXGL2aPIKrtJdnWeFSnA&utm_campaign=yelp_api_v3&utm_medium=api_v3_business_search&utm_source=oncXGL2aPIKrtJdnWeFSnA", "review_count": 15, "categories": [{"alias": "sandwiches", "title": "Sandwiches"}, {"alias": "hotdogs", "title": "Fast Food"}], "rating": 2.5, "coordinates": {"latitude": 33.19582, "longitude": -117.38021}, "transactions": ["pickup", "delivery"], "price": "$", "location": {"address1": "406 Mission Ave", "address2": "", "address3": "", "city": "Oceanside", "zip_code": "92054", "country": "US", "state": "CA", "display_address": ["406 Mission Ave", "Oceanside, CA 92054"]}, "phone": "+17609679666", "display_phone": "(760) 967-9666", "distance": 1630.1013350889389}, {"id": "h-P87SaICPoqGGRmAyNh-A", "alias": "carls-jr-oceanside-3", "name": "Carl's Jr", "image_url": "https://s3-media1.fl.yelpcdn.com/bphoto/z_Hau6zNcS9Y8rkT2vm_ag/o.jpg", "is_closed": false, "url": "https://www.yelp.com/biz/carls-jr-oceanside-3?adjust_creative=oncXGL2aPIKrtJdnWeFSnA&utm_campaign=yelp_api_v3&utm_medium=api_v3_business_search&utm_source=oncXGL2aPIKrtJdnWeFSnA", "review_count": 26, "categories": [{"alias": "hotdogs", "title": "Fast Food"}], "rating": 2.0, "coordinates": {"latitude": 33.244305, "longitude": -117.323082}, "transactions": [], "price": "$", "location": {"address1": "611 Douglas Dr", "address2": "", "address3": "", "city": "Oceanside", "zip_code": "92058", "country": "US", "state": "CA", "display_address": ["611 Douglas Dr", "Oceanside, CA 92058"]}, "phone": "+17609670371", "display_phone": "(760) 967-0371", "distance": 6690.376883331013}, {"id": "6RuFTvCe2lHGbY3juN1NkA", "alias": "jersey-mikes-subs-oceanside-3", "name": "Jersey Mike's Subs", "image_url": "https://s3-media2.fl.yelpcdn.com/bphoto/aYVqq_bhoaVVVeLyM6majw/o.jpg", "is_closed": false, "url": "https://www.yelp.com/biz/jersey-mikes-subs-oceanside-3?adjust_creative=oncXGL2aPIKrtJdnWeFSnA&utm_campaign=yelp_api_v3&utm_medium=api_v3_business_search&utm_source=oncXGL2aPIKrtJdnWeFSnA", "review_count": 89, "categories": [{"alias": "sandwiches", "title": "Sandwiches"}, {"alias": "hotdogs", "title": "Fast Food"}, {"alias": "delis", "title": "Delis"}], "rating": 3.0, "coordinates": {"latitude": 33.2054674112467, "longitude": -117.288587180336}, "transactions": [], "price": "$", "location": {"address1": "4111 Oceanside Blvd", "address2": "Ste 100", "address3": "", "city": "Oceanside", "zip_code": "92056", "country": "US", "state": "CA", "display_address": ["4111 Oceanside Blvd", "Ste 100", "Oceanside, CA 92056"]}, "phone": "+17602953339", "display_phone": "(760) 295-3339", "distance": 7020.811507658954}, {"id": "0YVSnUrOFilIIQbOUfqNVA", "alias": "del-taco-oceanside-2", "name": "Del Taco", "image_url": "https://s3-media1.fl.yelpcdn.com/bphoto/d1cjGi5_w86GytESMqVtqQ/o.jpg", "is_closed": false, "url": "https://www.yelp.com/biz/del-taco-oceanside-2?adjust_creative=oncXGL2aPIKrtJdnWeFSnA&utm_campaign=yelp_api_v3&utm_medium=api_v3_business_search&utm_source=oncXGL2aPIKrtJdnWeFSnA", "review_count": 50, "categories": [{"alias": "mexican", "title": "Mexican"}, {"alias": "hotdogs", "title": "Fast Food"}], "rating": 2.5, "coordinates": {"latitude": 33.209, "longitude": -117.28432}, "transactions": [], "price": "$", "location": {"address1": "1970 College Blvd", "address2": "", "address3": "", "city": "Oceanside", "zip_code": "92056", "country": "US", "state": "CA", "display_address": ["1970 College Blvd", "Oceanside, CA 92056"]}, "phone": "+17609453786", "display_phone": "(760) 945-3786", "distance": 7479.422551089028}, {"id": "swfhBizj8QYIkJj1OsXgOQ", "alias": "jersey-mikes-subs-oceanside-4", "name": "Jersey Mike's Subs", "image_url": "https://s3-media3.fl.yelpcdn.com/bphoto/xwI3dkNoEiOuv43pNa4isA/o.jpg", "is_closed": false, "url": "https://www.yelp.com/biz/jersey-mikes-subs-oceanside-4?adjust_creative=oncXGL2aPIKrtJdnWeFSnA&utm_campaign=yelp_api_v3&utm_medium=api_v3_business_search&utm_source=oncXGL2aPIKrtJdnWeFSnA", "review_count": 77, "categories": [{"alias": "hotdogs", "title": "Fast Food"}, {"alias": "delis", "title": "Delis"}, {"alias": "sandwiches", "title": "Sandwiches"}], "rating": 3.5, "coordinates": {"latitude": 33.2509308, "longitude": -117.3005905}, "transactions": [], "price": "$", "location": {"address1": "4904 N River Rd", "address2": "Ste 400", "address3": null, "city": "Oceanside", "zip_code": "92057", "country": "US", "state": "CA", "display_address": ["4904 N River Rd", "Ste 400", "Oceanside, CA 92057"]}, "phone": "+17605290130", "display_phone": "(760) 529-0130", "distance": 8563.238740322595}, {"id": "ptaF8CBiNWMyd9TurD3RbQ", "alias": "kfc-oceanside-2", "name": "KFC", "image_url": "https://s3-media1.fl.yelpcdn.com/bphoto/9T5sq2nNJArl3Giu23EBIQ/o.jpg", "is_closed": false, "url": "https://www.yelp.com/biz/kfc-oceanside-2?adjust_creative=oncXGL2aPIKrtJdnWeFSnA&utm_campaign=yelp_api_v3&utm_medium=api_v3_business_search&utm_source=oncXGL2aPIKrtJdnWeFSnA", "review_count": 34, "categories": [{"alias": "hotdogs", "title": "Fast Food"}, {"alias": "chicken_wings", "title": "Chicken Wings"}, {"alias": "chickenshop", "title": "Chicken Shop"}], "rating": 2.5, "coordinates": {"latitude": 33.2063, "longitude": -117.289}, "transactions": ["delivery"], "price": "$", "location": {"address1": "4100 Oceanside Blvd", "address2": "", "address3": "", "city": "Oceanside", "zip_code": "92056", "country": "US", "state": "CA", "display_address": ["4100 Oceanside Blvd", "Oceanside, CA 92056"]}, "phone": "+17606309600", "display_phone": "(760) 630-9600", "distance": 7000.2601178831}, {"id": "mDajqXWWdEitENzdb1_wzg", "alias": "el-pollo-loco-oceanside-6", "name": "El Pollo Loco", "image_url": "https://s3-media2.fl.yelpcdn.com/bphoto/FR-Z7uPSGt1xgiar81et9g/o.jpg", "is_closed": false, "url": "https://www.yelp.com/biz/el-pollo-loco-oceanside-6?adjust_creative=oncXGL2aPIKrtJdnWeFSnA&utm_campaign=yelp_api_v3&utm_medium=api_v3_business_search&utm_source=oncXGL2aPIKrtJdnWeFSnA", "review_count": 41, "categories": [{"alias": "hotdogs", "title": "Fast Food"}, {"alias": "mexican", "title": "Mexican"}], "rating": 3.0, "coordinates": {"latitude": 33.2469313201159, "longitude": -117.291715446391}, "transactions": ["delivery"], "price": "$", "location": {"address1": "483 College Blvd", "address2": null, "address3": null, "city": "Oceanside", "zip_code": "92057", "country": "US", "state": "CA", "display_address": ["483 College Blvd", "Oceanside, CA 92057"]}, "phone": "+17604078279", "display_phone": "(760) 407-8279", "distance": 8842.477821895847}, {"id": "RSThWD-WcXHiwgj-GnfcEQ", "alias": "mcdonalds-oceanside-2", "name": "McDonald's", "image_url": "https://s3-media2.fl.yelpcdn.com/bphoto/PKtRiPgle7LA8xLUax8R_g/o.jpg", "is_closed": false, "url": "https://www.yelp.com/biz/mcdonalds-oceanside-2?adjust_creative=oncXGL2aPIKrtJdnWeFSnA&utm_campaign=yelp_api_v3&utm_medium=api_v3_business_search&utm_source=oncXGL2aPIKrtJdnWeFSnA", "review_count": 52, "categories": [{"alias": "burgers", "title": "Burgers"}, {"alias": "hotdogs", "title": "Fast Food"}, {"alias": "coffee", "title": "Coffee & Tea"}], "rating": 2.0, "coordinates": {"latitude": 33.182784, "longitude": -117.293577}, "transactions": [], "price": "$", "location": {"address1": "3794 Plz", "address2": "", "address3": "", "city": "Oceanside", "zip_code": "92056", "country": "US", "state": "CA", "display_address": ["3794 Plz", "Oceanside, CA 92056"]}, "phone": "+17609457847", "display_phone": "(760) 945-7847", "distance": 6566.724474856402}, {"id": "KBLquJgSXRc8NXMpF49ZCA", "alias": "burger-king-oceanside-3", "name": "Burger King", "image_url": "https://s3-media2.fl.yelpcdn.com/bphoto/fYCM0JXe_4tuABZksUzqXQ/o.jpg", "is_closed": false, "url": "https://www.yelp.com/biz/burger-king-oceanside-3?adjust_creative=oncXGL2aPIKrtJdnWeFSnA&utm_campaign=yelp_api_v3&utm_medium=api_v3_business_search&utm_source=oncXGL2aPIKrtJdnWeFSnA", "review_count": 23, "categories": [{"alias": "burgers", "title": "Burgers"}, {"alias": "hotdogs", "title": "Fast Food"}], "rating": 2.0, "coordinates": {"latitude": 33.22474, "longitude": -117.3329}, "transactions": [], "price": "$$", "location": {"address1": "3746 Mission Ave", "address2": null, "address3": null, "city": "Oceanside", "zip_code": "92058", "country": "US", "state": "CA", "display_address": ["3746 Mission Ave", "Oceanside, CA 92058"]}, "phone": "+17607213838", "display_phone": "(760) 721-3838", "distance": 4385.363650721742}, {"id": "Ql7ltF83fHTpPAA6Lmrarg", "alias": "togo-s-sandwiches-oceanside", "name": "Togo\u2019s Sandwiches", "image_url": "https://s3-media2.fl.yelpcdn.com/bphoto/ml8y_bQ0eL96led6jSFXbw/o.jpg", "is_closed": false, "url": "https://www.yelp.com/biz/togo-s-sandwiches-oceanside?adjust_creative=oncXGL2aPIKrtJdnWeFSnA&utm_campaign=yelp_api_v3&utm_medium=api_v3_business_search&utm_source=oncXGL2aPIKrtJdnWeFSnA", "review_count": 58, "categories": [{"alias": "sandwiches", "title": "Sandwiches"}, {"alias": "delis", "title": "Delis"}, {"alias": "hotdogs", "title": "Fast Food"}], "rating": 2.5, "coordinates": {"latitude": 33.20675, "longitude": -117.28429}, "transactions": ["pickup", "delivery"], "price": "$", "location": {"address1": "4201 Oceanside Blvd", "address2": "Unit A", "address3": "", "city": "Oceanside", "zip_code": "92056", "country": "US", "state": "CA", "display_address": ["4201 Oceanside Blvd", "Unit A", "Oceanside, CA 92056"]}, "phone": "+17606311375", "display_phone": "(760) 631-1375", "distance": 7437.106702631652}, {"id": "lB1AG_dUZ-tjKkdGgTxHyA", "alias": "subway-oceanside-7", "name": "Subway", "image_url": "https://s3-media2.fl.yelpcdn.com/bphoto/5uRB-mvwau65Ior1QzNndw/o.jpg", "is_closed": false, "url": "https://www.yelp.com/biz/subway-oceanside-7?adjust_creative=oncXGL2aPIKrtJdnWeFSnA&utm_campaign=yelp_api_v3&utm_medium=api_v3_business_search&utm_source=oncXGL2aPIKrtJdnWeFSnA", "review_count": 11, "categories": [{"alias": "sandwiches", "title": "Sandwiches"}, {"alias": "hotdogs", "title": "Fast Food"}], "rating": 3.5, "coordinates": {"latitude": 33.1784354, "longitude": -117.2953997}, "transactions": [], "price": "$", "location": {"address1": "3480 Marron Rd", "address2": "", "address3": "", "city": "Oceanside", "zip_code": "92056", "country": "US", "state": "CA", "display_address": ["3480 Marron Rd", "Oceanside, CA 92056"]}, "phone": "+17604342115", "display_phone": "(760) 434-2115", "distance": 6514.63596328767}, {"id": "rJ5vu8wlhibkLhV6zYWD6g", "alias": "panda-express-oceanside", "name": "Panda Express", "image_url": "https://s3-media4.fl.yelpcdn.com/bphoto/3BJdLj_8IJ1rXcK_7uTo-g/o.jpg", "is_closed": false, "url": "https://www.yelp.com/biz/panda-express-oceanside?adjust_creative=oncXGL2aPIKrtJdnWeFSnA&utm_campaign=yelp_api_v3&utm_medium=api_v3_business_search&utm_source=oncXGL2aPIKrtJdnWeFSnA", "review_count": 63, "categories": [{"alias": "chinese", "title": "Chinese"}, {"alias": "hotdogs", "title": "Fast Food"}], "rating": 2.5, "coordinates": {"latitude": 33.2057495, "longitude": -117.2883377}, "transactions": [], "price": "$", "location": {"address1": "4121 Oceanside Blvd", "address2": "", "address3": "", "city": "Oceanside", "zip_code": "92056", "country": "US", "state": "CA", "display_address": ["4121 Oceanside Blvd", "Oceanside, CA 92056"]}, "phone": "+17607321196", "display_phone": "(760) 732-1196", "distance": 7053.319760776879}, {"id": "aqFcXEWZ-rjlH0umBLHR4g", "alias": "subway-oceanside-27", "name": "Subway", "image_url": "https://s3-media3.fl.yelpcdn.com/bphoto/mbAQMDw4iP_K2692Cseg2g/o.jpg", "is_closed": false, "url": "https://www.yelp.com/biz/subway-oceanside-27?adjust_creative=oncXGL2aPIKrtJdnWeFSnA&utm_campaign=yelp_api_v3&utm_medium=api_v3_business_search&utm_source=oncXGL2aPIKrtJdnWeFSnA", "review_count": 30, "categories": [{"alias": "sandwiches", "title": "Sandwiches"}, {"alias": "hotdogs", "title": "Fast Food"}], "rating": 2.5, "coordinates": {"latitude": 33.226746, "longitude": -117.332025}, "transactions": ["pickup", "delivery"], "price": "$", "location": {"address1": "3776 Mission Ave", "address2": "Ste 140", "address3": null, "city": "Oceanside", "zip_code": "92058", "country": "US", "state": "CA", "display_address": ["3776 Mission Ave", "Ste 140", "Oceanside, CA 92058"]}, "phone": "+17607226231", "display_phone": "(760) 722-6231", "distance": 4619.662374584177}, {"id": "OkmqBwy8-0v8PuwKgbXD5g", "alias": "carls-jr-oceanside-2", "name": "Carls Jr.", "image_url": "https://s3-media1.fl.yelpcdn.com/bphoto/iIAOc4_RORk27V9AZW1lZw/o.jpg", "is_closed": false, "url": "https://www.yelp.com/biz/carls-jr-oceanside-2?adjust_creative=oncXGL2aPIKrtJdnWeFSnA&utm_campaign=yelp_api_v3&utm_medium=api_v3_business_search&utm_source=oncXGL2aPIKrtJdnWeFSnA", "review_count": 6, "categories": [{"alias": "hotdogs", "title": "Fast Food"}, {"alias": "tradamerican", "title": "American (Traditional)"}], "rating": 2.0, "coordinates": {"latitude": 33.24427, "longitude": -117.3231}, "transactions": [], "location": {"address1": "611 Douglas Dr", "address2": null, "address3": null, "city": "Oceanside", "zip_code": "92058", "country": "US", "state": "CA", "display_address": ["611 Douglas Dr", "Oceanside, CA 92058"]}, "phone": "+17609670371", "display_phone": "(760) 967-0371", "distance": 6682.856120890894}, {"id": "SSL6oEdkrtJnZwMFrd6YgA", "alias": "jack-in-the-box-oceanside-5", "name": "Jack in the Box", "image_url": "https://s3-media1.fl.yelpcdn.com/bphoto/SwCfPxLjSsqJO3z2UDzQ6Q/o.jpg", "is_closed": false, "url": "https://www.yelp.com/biz/jack-in-the-box-oceanside-5?adjust_creative=oncXGL2aPIKrtJdnWeFSnA&utm_campaign=yelp_api_v3&utm_medium=api_v3_business_search&utm_source=oncXGL2aPIKrtJdnWeFSnA", "review_count": 40, "categories": [{"alias": "hotdogs", "title": "Fast Food"}], "rating": 3.0, "coordinates": {"latitude": 33.2072013950255, "longitude": -117.283711582398}, "transactions": ["delivery"], "price": "$", "location": {"address1": "4211 Oceanside Blvd", "address2": "", "address3": "", "city": "Oceanside", "zip_code": "92056", "country": "US", "state": "CA", "display_address": ["4211 Oceanside Blvd", "Oceanside, CA 92056"]}, "phone": "+17607582964", "display_phone": "(760) 758-2964", "distance": 7502.369970773834}, {"id": "1XetobhYc9txk32Dqn1o5A", "alias": "subway-camp-pendleton-4", "name": "Subway", "image_url": "https://s3-media1.fl.yelpcdn.com/bphoto/Chz6PqVKcLDijx8QRF6L8g/o.jpg", "is_closed": false, "url": "https://www.yelp.com/biz/subway-camp-pendleton-4?adjust_creative=oncXGL2aPIKrtJdnWeFSnA&utm_campaign=yelp_api_v3&utm_medium=api_v3_business_search&utm_source=oncXGL2aPIKrtJdnWeFSnA", "review_count": 15, "categories": [{"alias": "sandwiches", "title": "Sandwiches"}, {"alias": "hotdogs", "title": "Fast Food"}], "rating": 1.5, "coordinates": {"latitude": 33.2236774920444, "longitude": -117.395907808717}, "transactions": [], "price": "$", "location": {"address1": "Bldg 33-607 Marine Corps B", "address2": "", "address3": "", "city": "Camp Pendleton", "zip_code": "92058", "country": "US", "state": "CA", "display_address": ["Bldg 33-607 Marine Corps B", "Camp Pendleton, CA 92058"]}, "phone": "+17607251904", "display_phone": "(760) 725-1904", "distance": 4499.893081064514}, {"id": "a5dmCm_1sLVPGoxzTwyouA", "alias": "taco-bell-oceanside-3", "name": "Taco Bell", "image_url": "https://s3-media2.fl.yelpcdn.com/bphoto/OIeWXOScXTsoVZpNEJd1PA/o.jpg", "is_closed": false, "url": "https://www.yelp.com/biz/taco-bell-oceanside-3?adjust_creative=oncXGL2aPIKrtJdnWeFSnA&utm_campaign=yelp_api_v3&utm_medium=api_v3_business_search&utm_source=oncXGL2aPIKrtJdnWeFSnA", "review_count": 40, "categories": [{"alias": "mexican", "title": "Mexican"}, {"alias": "tex-mex", "title": "Tex-Mex"}, {"alias": "hotdogs", "title": "Fast Food"}], "rating": 2.5, "coordinates": {"latitude": 33.24304, "longitude": -117.29161}, "transactions": ["delivery"], "price": "$", "location": {"address1": "695 College Blvd", "address2": "", "address3": "", "city": "Oceanside", "zip_code": "92057", "country": "US", "state": "CA", "display_address": ["695 College Blvd", "Oceanside, CA 92057"]}, "phone": "+17606317860", "display_phone": "(760) 631-7860", "distance": 8581.71914508024}, {"id": "oUMmJE-vdtVrNoLG2jmx_g", "alias": "taco-bell-oceanside-2", "name": "Taco Bell", "image_url": "https://s3-media1.fl.yelpcdn.com/bphoto/RJti1FyuVHyZuRRpwXpGtQ/o.jpg", "is_closed": false, "url": "https://www.yelp.com/biz/taco-bell-oceanside-2?adjust_creative=oncXGL2aPIKrtJdnWeFSnA&utm_campaign=yelp_api_v3&utm_medium=api_v3_business_search&utm_source=oncXGL2aPIKrtJdnWeFSnA", "review_count": 37, "categories": [{"alias": "mexican", "title": "Mexican"}, {"alias": "tex-mex", "title": "Tex-Mex"}, {"alias": "hotdogs", "title": "Fast Food"}], "rating": 2.5, "coordinates": {"latitude": 33.182152, "longitude": -117.29156}, "transactions": [], "price": "$", "location": {"address1": "3845 Plaza Dr", "address2": "", "address3": "", "city": "Oceanside", "zip_code": "92056", "country": "US", "state": "CA", "display_address": ["3845 Plaza Dr", "Oceanside, CA 92056"]}, "phone": "+17609417307", "display_phone": "(760) 941-7307", "distance": 6764.5417376193955}, {"id": "Z25FkjSY_5V9kJBiZB3qTg", "alias": "carls-jr-oceanside", "name": "Carl's Jr.", "image_url": "https://s3-media3.fl.yelpcdn.com/bphoto/fmQyfEaySzA0bKygkZF5nw/o.jpg", "is_closed": false, "url": "https://www.yelp.com/biz/carls-jr-oceanside?adjust_creative=oncXGL2aPIKrtJdnWeFSnA&utm_campaign=yelp_api_v3&utm_medium=api_v3_business_search&utm_source=oncXGL2aPIKrtJdnWeFSnA", "review_count": 38, "categories": [{"alias": "hotdogs", "title": "Fast Food"}], "rating": 2.5, "coordinates": {"latitude": 33.24271, "longitude": -117.292266}, "transactions": [], "price": "$", "location": {"address1": "775 College Blvd", "address2": "", "address3": "", "city": "Oceanside", "zip_code": "92057", "country": "US", "state": "CA", "display_address": ["775 College Blvd", "Oceanside, CA 92057"]}, "phone": "+17609457850", "display_phone": "(760) 945-7850", "distance": 8498.70264120338}, {"id": "talSXJN1clZe0t-rXdEtpg", "alias": "mcdonalds-oceanside-8", "name": "McDonald's", "image_url": "https://s3-media2.fl.yelpcdn.com/bphoto/cvIPHzVfizgKiItx4jm2Dw/o.jpg", "is_closed": false, "url": "https://www.yelp.com/biz/mcdonalds-oceanside-8?adjust_creative=oncXGL2aPIKrtJdnWeFSnA&utm_campaign=yelp_api_v3&utm_medium=api_v3_business_search&utm_source=oncXGL2aPIKrtJdnWeFSnA", "review_count": 60, "categories": [{"alias": "burgers", "title": "Burgers"}, {"alias": "hotdogs", "title": "Fast Food"}, {"alias": "coffee", "title": "Coffee & Tea"}], "rating": 2.5, "coordinates": {"latitude": 33.2320154472568, "longitude": -117.308245897293}, "transactions": [], "price": "$", "location": {"address1": "185 Old Grove Rd", "address2": "", "address3": "", "city": "Oceanside", "zip_code": "92057", "country": "US", "state": "CA", "display_address": ["185 Old Grove Rd", "Oceanside, CA 92057"]}, "phone": "+17604359826", "display_phone": "(760) 435-9826", "distance": 6595.519516168762}, {"id": "xBH6IqrzDaRGDwYiFDPtOQ", "alias": "taco-bell-oceanside-6", "name": "Taco Bell", "image_url": "https://s3-media1.fl.yelpcdn.com/bphoto/4FqmkYl0ahqrafu9w4SNNA/o.jpg", "is_closed": false, "url": "https://www.yelp.com/biz/taco-bell-oceanside-6?adjust_creative=oncXGL2aPIKrtJdnWeFSnA&utm_campaign=yelp_api_v3&utm_medium=api_v3_business_search&utm_source=oncXGL2aPIKrtJdnWeFSnA", "review_count": 19, "categories": [{"alias": "hotdogs", "title": "Fast Food"}, {"alias": "tex-mex", "title": "Tex-Mex"}, {"alias": "mexican", "title": "Mexican"}], "rating": 2.0, "coordinates": {"latitude": 33.20608, "longitude": -117.2895}, "transactions": [], "price": "$", "location": {"address1": "4100 Oceanside Blvd.", "address2": "", "address3": "", "city": "Oceanside", "zip_code": "92056", "country": "US", "state": "CA", "display_address": ["4100 Oceanside Blvd.", "Oceanside, CA 92056"]}, "phone": "+17606309600", "display_phone": "(760) 630-9600", "distance": 6949.9180625404015}, {"id": "aCQluIV4i94-bH6gOipYNw", "alias": "miracosta-cafe-oceanside", "name": "MiraCosta Cafe", "image_url": "https://s3-media3.fl.yelpcdn.com/bphoto/f1Xfdvv7va2SV1tFtRFkKQ/o.jpg", "is_closed": false, "url": "https://www.yelp.com/biz/miracosta-cafe-oceanside?adjust_creative=oncXGL2aPIKrtJdnWeFSnA&utm_campaign=yelp_api_v3&utm_medium=api_v3_business_search&utm_source=oncXGL2aPIKrtJdnWeFSnA", "review_count": 4, "categories": [{"alias": "hotdogs", "title": "Fast Food"}, {"alias": "comfortfood", "title": "Comfort Food"}, {"alias": "sandwiches", "title": "Sandwiches"}], "rating": 3.0, "coordinates": {"latitude": 33.1879349, "longitude": -117.2979813}, "transactions": [], "price": "$", "location": {"address1": "3500 Barnard Dr", "address2": "", "address3": "", "city": "Oceanside", "zip_code": "92056", "country": "US", "state": "CA", "display_address": ["3500 Barnard Dr", "Oceanside, CA 92056"]}, "phone": "", "display_phone": "", "distance": 5464.128609457789}, {"id": "csNW54osOD5PfAeQjkOmlg", "alias": "mcdonalds-oceanside-3", "name": "McDonald's", "image_url": "https://s3-media2.fl.yelpcdn.com/bphoto/NTV_k_SWB3Pm9_BfhvWd_g/o.jpg", "is_closed": false, "url": "https://www.yelp.com/biz/mcdonalds-oceanside-3?adjust_creative=oncXGL2aPIKrtJdnWeFSnA&utm_campaign=yelp_api_v3&utm_medium=api_v3_business_search&utm_source=oncXGL2aPIKrtJdnWeFSnA", "review_count": 49, "categories": [{"alias": "burgers", "title": "Burgers"}, {"alias": "hotdogs", "title": "Fast Food"}, {"alias": "coffee", "title": "Coffee & Tea"}], "rating": 2.0, "coordinates": {"latitude": 33.2463989048185, "longitude": -117.291406566155}, "transactions": [], "price": "$", "location": {"address1": "487 College Blvd", "address2": "", "address3": "", "city": "Oceanside", "zip_code": "92057", "country": "US", "state": "CA", "display_address": ["487 College Blvd", "Oceanside, CA 92057"]}, "phone": "+17607587323", "display_phone": "(760) 758-7323", "distance": 8824.925050268848}, {"id": "Oo3MjVxGRyeeXVDG95yBvw", "alias": "burger-king-21864-oceanside", "name": "Burger King #21864", "image_url": "https://s3-media4.fl.yelpcdn.com/bphoto/_vvJNSOfowP3Hv0DiouiPQ/o.jpg", "is_closed": false, "url": "https://www.yelp.com/biz/burger-king-21864-oceanside?adjust_creative=oncXGL2aPIKrtJdnWeFSnA&utm_campaign=yelp_api_v3&utm_medium=api_v3_business_search&utm_source=oncXGL2aPIKrtJdnWeFSnA", "review_count": 3, "categories": [{"alias": "hotdogs", "title": "Fast Food"}, {"alias": "burgers", "title": "Burgers"}], "rating": 1.5, "coordinates": {"latitude": 33.1771879276042, "longitude": -117.297509685159}, "transactions": ["delivery"], "price": "$", "location": {"address1": "3405 Marron Rd", "address2": "", "address3": null, "city": "Oceanside", "zip_code": "92056", "country": "US", "state": "CA", "display_address": ["3405 Marron Rd", "Oceanside, CA 92056"]}, "phone": "+17607309230", "display_phone": "(760) 730-9230", "distance": 6364.181714779206}, {"id": "wAfUKOBOmJxCT7V_f7MBTQ", "alias": "jack-in-the-box-oceanside-3", "name": "Jack in the Box", "image_url": "https://s3-media1.fl.yelpcdn.com/bphoto/lNR6eHbLrtYKQKjc0z_Mdw/o.jpg", "is_closed": false, "url": "https://www.yelp.com/biz/jack-in-the-box-oceanside-3?adjust_creative=oncXGL2aPIKrtJdnWeFSnA&utm_campaign=yelp_api_v3&utm_medium=api_v3_business_search&utm_source=oncXGL2aPIKrtJdnWeFSnA", "review_count": 20, "categories": [{"alias": "hotdogs", "title": "Fast Food"}], "rating": 2.5, "coordinates": {"latitude": 33.18276, "longitude": -117.29256}, "transactions": ["delivery"], "price": "$", "location": {"address1": "3808 Plaza Dr", "address2": "", "address3": "", "city": "Oceanside", "zip_code": "92056", "country": "US", "state": "CA", "display_address": ["3808 Plaza Dr", "Oceanside, CA 92056"]}, "phone": "+17609410841", "display_phone": "(760) 941-0841", "distance": 6676.505530825001}, {"id": "IuW3oRiPucZq91zU5qbCZA", "alias": "jack-in-the-box-oceanside-4", "name": "Jack In the Box", "image_url": "", "is_closed": false, "url": "https://www.yelp.com/biz/jack-in-the-box-oceanside-4?adjust_creative=oncXGL2aPIKrtJdnWeFSnA&utm_campaign=yelp_api_v3&utm_medium=api_v3_business_search&utm_source=oncXGL2aPIKrtJdnWeFSnA", "review_count": 6, "categories": [{"alias": "hotdogs", "title": "Fast Food"}], "rating": 2.5, "coordinates": {"latitude": 33.182739, "longitude": -117.292557}, "transactions": [], "location": {"address1": "3808 Plz Dr", "address2": "", "address3": "", "city": "Oceanside", "zip_code": "92056", "country": "US", "state": "CA", "display_address": ["3808 Plz Dr", "Oceanside, CA 92056"]}, "phone": "+17609410841", "display_phone": "(760) 941-0841", "distance": 6657.716568647417}, {"id": "AvxYkT8XaZtxCtQEduCdvw", "alias": "subway-oceanside-8", "name": "Subway", "image_url": "https://s3-media2.fl.yelpcdn.com/bphoto/SVL_GFeuKisplM8HE7CHIA/o.jpg", "is_closed": false, "url": "https://www.yelp.com/biz/subway-oceanside-8?adjust_creative=oncXGL2aPIKrtJdnWeFSnA&utm_campaign=yelp_api_v3&utm_medium=api_v3_business_search&utm_source=oncXGL2aPIKrtJdnWeFSnA", "review_count": 33, "categories": [{"alias": "sandwiches", "title": "Sandwiches"}, {"alias": "hotdogs", "title": "Fast Food"}], "rating": 2.0, "coordinates": {"latitude": 33.20794, "longitude": -117.28675}, "transactions": ["pickup", "delivery"], "price": "$", "location": {"address1": "4160 Oceanside Blvd", "address2": "Ste 173", "address3": "", "city": "Oceanside", "zip_code": "92056", "country": "US", "state": "CA", "display_address": ["4160 Oceanside Blvd", "Ste 173", "Oceanside, CA 92056"]}, "phone": "+17606305851", "display_phone": "(760) 630-5851", "distance": 7243.904126550097}, {"id": "SKtTF5TreRN-WfUwlqi0qg", "alias": "subway-oceanside-14", "name": "Subway", "image_url": "https://s3-media2.fl.yelpcdn.com/bphoto/MEkXJjg5pFF62I_gQ0-__g/o.jpg", "is_closed": false, "url": "https://www.yelp.com/biz/subway-oceanside-14?adjust_creative=oncXGL2aPIKrtJdnWeFSnA&utm_campaign=yelp_api_v3&utm_medium=api_v3_business_search&utm_source=oncXGL2aPIKrtJdnWeFSnA", "review_count": 12, "categories": [{"alias": "sandwiches", "title": "Sandwiches"}, {"alias": "hotdogs", "title": "Fast Food"}], "rating": 3.5, "coordinates": {"latitude": 33.2420794, "longitude": -117.2898553}, "transactions": ["pickup", "delivery"], "price": "$", "location": {"address1": "705 College Blvd", "address2": null, "address3": null, "city": "Oceanside", "zip_code": "92057", "country": "US", "state": "CA", "display_address": ["705 College Blvd", "Oceanside, CA 92057"]}, "phone": "+17608064512", "display_phone": "(760) 806-4512", "distance": 8472.527725340244}, {"id": "zZM82lvl0jQgIuIRN0MJgg", "alias": "mcdonalds-oceanside-7", "name": "McDonald's", "image_url": "https://s3-media3.fl.yelpcdn.com/bphoto/wJEKl3vwMsLRw-9EhZpUAw/o.jpg", "is_closed": false, "url": "https://www.yelp.com/biz/mcdonalds-oceanside-7?adjust_creative=oncXGL2aPIKrtJdnWeFSnA&utm_campaign=yelp_api_v3&utm_medium=api_v3_business_search&utm_source=oncXGL2aPIKrtJdnWeFSnA", "review_count": 50, "categories": [{"alias": "burgers", "title": "Burgers"}, {"alias": "hotdogs", "title": "Fast Food"}, {"alias": "coffee", "title": "Coffee & Tea"}], "rating": 2.0, "coordinates": {"latitude": 33.20626, "longitude": -117.28681}, "transactions": [], "price": "$", "location": {"address1": "4151 Oceanside Blvd", "address2": "", "address3": "", "city": "Oceanside", "zip_code": "92057", "country": "US", "state": "CA", "display_address": ["4151 Oceanside Blvd", "Oceanside, CA 92057"]}, "phone": "+17606391263", "display_phone": "(760) 639-1263", "distance": 7198.298887856659}, {"id": "jwvziT9rVU5ld4OvzKViGw", "alias": "subway-oceanside-22", "name": "Subway", "image_url": "https://s3-media4.fl.yelpcdn.com/bphoto/ZJYrAKOAtb0fLKCCumXF0g/o.jpg", "is_closed": false, "url": "https://www.yelp.com/biz/subway-oceanside-22?adjust_creative=oncXGL2aPIKrtJdnWeFSnA&utm_campaign=yelp_api_v3&utm_medium=api_v3_business_search&utm_source=oncXGL2aPIKrtJdnWeFSnA", "review_count": 15, "categories": [{"alias": "sandwiches", "title": "Sandwiches"}, {"alias": "hotdogs", "title": "Fast Food"}], "rating": 2.0, "coordinates": {"latitude": 33.2475256919861, "longitude": -117.291984334588}, "transactions": ["pickup", "delivery"], "price": "$", "location": {"address1": "475 College Blvd", "address2": "Ste 1", "address3": "", "city": "Oceanside", "zip_code": "92057", "country": "US", "state": "CA", "display_address": ["475 College Blvd", "Ste 1", "Oceanside, CA 92057"]}, "phone": "+17609401094", "display_phone": "(760) 940-1094", "distance": 8719.328456773506}, {"id": "gZntgfa1HZGb2DOkbFpIQA", "alias": "senor-albertos-oceanside", "name": "Senor Alberto's", "image_url": "https://s3-media2.fl.yelpcdn.com/bphoto/RetsqFslWSQNf8TKS5jsVQ/o.jpg", "is_closed": false, "url": "https://www.yelp.com/biz/senor-albertos-oceanside?adjust_creative=oncXGL2aPIKrtJdnWeFSnA&utm_campaign=yelp_api_v3&utm_medium=api_v3_business_search&utm_source=oncXGL2aPIKrtJdnWeFSnA", "review_count": 37, "categories": [{"alias": "mexican", "title": "Mexican"}, {"alias": "latin", "title": "Latin American"}, {"alias": "hotdogs", "title": "Fast Food"}], "rating": 3.0, "coordinates": {"latitude": 33.2450226655832, "longitude": -117.321352706771}, "transactions": [], "price": "$", "location": {"address1": "650 Douglas Dr", "address2": "", "address3": "", "city": "Oceanside", "zip_code": "92058", "country": "US", "state": "CA", "display_address": ["650 Douglas Dr", "Oceanside, CA 92058"]}, "phone": "+14426157303", "display_phone": "(442) 615-7303", "distance": 6846.359281600885}], "total": 73}