{"businesses": [{"id": "mGdsGFALJmrGDRd1YW6hGg", "alias": "panca-peruvian-cuisine-and-rotisserie-oceanside-3", "name": "Panca Peruvian Cuisine & Rotisserie", "image_url": "https://s3-media4.fl.yelpcdn.com/bphoto/IDsgFlBwgCkkn-PMAXCSTg/o.jpg", "is_closed": false, "url": "https://www.yelp.com/biz/panca-peruvian-cuisine-and-rotisserie-oceanside-3?adjust_creative=oncXGL2aPIKrtJdnWeFSnA&utm_campaign=yelp_api_v3&utm_medium=api_v3_business_search&utm_source=oncXGL2aPIKrtJdnWeFSnA", "review_count": 734, "categories": [{"alias": "peruvian", "title": "Peruvian"}], "rating": 4.5, "coordinates": {"latitude": 33.1738223352608, "longitude": -117.360564861833}, "transactions": ["pickup", "delivery"], "price": "$$", "location": {"address1": "1902 S Coast Hwy", "address2": "", "address3": "", "city": "Oceanside", "zip_code": "92054", "country": "US", "state": "CA", "display_address": ["1902 S Coast Hwy", "Oceanside, CA 92054"]}, "phone": "+17607223396", "display_phone": "(760) 722-3396", "distance": 2270.84059591006}, {"id": "iCLgNea5a2zCS3o3nQrVdQ", "alias": "tambo-cafe-oceanside-3", "name": "Tambo Cafe", "image_url": "https://s3-media1.fl.yelpcdn.com/bphoto/zNVsCViR_P3DA_RwZGD0sg/o.jpg", "is_closed": false, "url": "https://www.yelp.com/biz/tambo-cafe-oceanside-3?adjust_creative=oncXGL2aPIKrtJdnWeFSnA&utm_campaign=yelp_api_v3&utm_medium=api_v3_business_search&utm_source=oncXGL2aPIKrtJdnWeFSnA", "review_count": 20, "categories": [{"alias": "desserts", "title": "Desserts"}, {"alias": "peruvian", "title": "Peruvian"}, {"alias": "cafes", "title": "Cafes"}], "rating": 4.0, "coordinates": {"latitude": 33.1735764, "longitude": -117.360634}, "transactions": [], "location": {"address1": "1904 S Coast Hwy", "address2": "", "address3": null, "city": "Oceanside", "zip_code": "92054", "country": "US", "state": "CA", "display_address": ["1904 S Coast Hwy", "Oceanside, CA 92054"]}, "phone": "+17606963090", "display_phone": "(760) 696-3090", "distance": 2293.380700681241}], "total": 2}