{"businesses": [{"id": "SDv30y573hEIby0MojH7cg", "alias": "birdseye-kitchen-encinitas", "name": "Birdseye Kitchen", "image_url": "https://s3-media1.fl.yelpcdn.com/bphoto/cVy-x0Z7y7izRk3FJFFxLw/o.jpg", "is_closed": false, "url": "https://www.yelp.com/biz/birdseye-kitchen-encinitas?adjust_creative=oncXGL2aPIKrtJdnWeFSnA&utm_campaign=yelp_api_v3&utm_medium=api_v3_business_search&utm_source=oncXGL2aPIKrtJdnWeFSnA", "review_count": 344, "categories": [{"alias": "vietnamese", "title": "Vietnamese"}, {"alias": "thai", "title": "Thai"}, {"alias": "asianfusion", "title": "Asian Fusion"}], "rating": 4.0, "coordinates": {"latitude": 33.0591018255092, "longitude": -117.300049330005}, "transactions": [], "price": "$$", "location": {"address1": "540 N Coast Hwy 101", "address2": "", "address3": "", "city": "Encinitas", "zip_code": "92024", "country": "US", "state": "CA", "display_address": ["540 N Coast Hwy 101", "Encinitas, CA 92024"]}, "phone": "+17604790488", "display_phone": "(760) 479-0488", "distance": 4544.373299504886}, {"id": "23T_cchBm0f45euKTRWtaA", "alias": "east-village-asian-diner-encinitas-2", "name": "East Village Asian Diner", "image_url": "https://s3-media4.fl.yelpcdn.com/bphoto/_jSLcXme4IsQnyq0q14lDQ/o.jpg", "is_closed": false, "url": "https://www.yelp.com/biz/east-village-asian-diner-encinitas-2?adjust_creative=oncXGL2aPIKrtJdnWeFSnA&utm_campaign=yelp_api_v3&utm_medium=api_v3_business_search&utm_source=oncXGL2aPIKrtJdnWeFSnA", "review_count": 484, "categories": [{"alias": "asianfusion", "title": "Asian Fusion"}, {"alias": "japanese", "title": "Japanese"}, {"alias": "korean", "title": "Korean"}], "rating": 4.0, "coordinates": {"latitude": 33.04421, "longitude": -117.2939}, "transactions": [], "price": "$$", "location": {"address1": "628 S Coast Hwy 101", "address2": "", "address3": "", "city": "Encinitas", "zip_code": "92024", "country": "US", "state": "CA", "display_address": ["628 S Coast Hwy 101", "Encinitas, CA 92024"]}, "phone": "+17607538700", "display_phone": "(760) 753-8700", "distance": 3684.5632788127295}, {"id": "M4vCrliyV7_5a1oU_k9rpA", "alias": "hooked-on-sushi-encinitas-2", "name": "Hooked On Sushi", "image_url": "https://s3-media4.fl.yelpcdn.com/bphoto/-EVUhiTw4x6PrTa-2mNbPQ/o.jpg", "is_closed": false, "url": "https://www.yelp.com/biz/hooked-on-sushi-encinitas-2?adjust_creative=oncXGL2aPIKrtJdnWeFSnA&utm_campaign=yelp_api_v3&utm_medium=api_v3_business_search&utm_source=oncXGL2aPIKrtJdnWeFSnA", "review_count": 299, "categories": [{"alias": "japanese", "title": "Japanese"}, {"alias": "sushi", "title": "Sushi Bars"}, {"alias": "asianfusion", "title": "Asian Fusion"}], "rating": 4.5, "coordinates": {"latitude": 33.0526328, "longitude": -117.261493}, "transactions": ["pickup"], "price": "$$", "location": {"address1": "272 N El Camino Real", "address2": "Ste D", "address3": "", "city": "Encinitas", "zip_code": "92024", "country": "US", "state": "CA", "display_address": ["272 N El Camino Real", "Ste D", "Encinitas, CA 92024"]}, "phone": "+17604875410", "display_phone": "(760) 487-5410", "distance": 1089.2882657277223}, {"id": "mspwZETSQkWbx01SkcLV2g", "alias": "chins-szechwan-cuisine-encinitas-encinitas", "name": "Chin's Szechwan Cuisine - Encinitas", "image_url": "https://s3-media2.fl.yelpcdn.com/bphoto/pUndntoAEanLjdhH9v5DMg/o.jpg", "is_closed": false, "url": "https://www.yelp.com/biz/chins-szechwan-cuisine-encinitas-encinitas?adjust_creative=oncXGL2aPIKrtJdnWeFSnA&utm_campaign=yelp_api_v3&utm_medium=api_v3_business_search&utm_source=oncXGL2aPIKrtJdnWeFSnA", "review_count": 312, "categories": [{"alias": "chinese", "title": "Chinese"}, {"alias": "asianfusion", "title": "Asian Fusion"}, {"alias": "soup", "title": "Soup"}], "rating": 4.0, "coordinates": {"latitude": 33.047369, "longitude": -117.278725}, "transactions": ["delivery", "pickup"], "price": "$$", "location": {"address1": "625 Encinitas Blvd", "address2": "", "address3": "", "city": "Encinitas", "zip_code": "92024", "country": "US", "state": "CA", "display_address": ["625 Encinitas Blvd", "Encinitas, CA 92024"]}, "phone": "+17607533903", "display_phone": "(760) 753-3903", "distance": 2290.110512172399}, {"id": "uOmzq7DCdfHo638KoGEh2w", "alias": "pick-up-stix-encinitas-2", "name": "Pick Up Stix", "image_url": "https://s3-media2.fl.yelpcdn.com/bphoto/6CnwwkTL7Y6PunQ0yyqrCg/o.jpg", "is_closed": false, "url": "https://www.yelp.com/biz/pick-up-stix-encinitas-2?adjust_creative=oncXGL2aPIKrtJdnWeFSnA&utm_campaign=yelp_api_v3&utm_medium=api_v3_business_search&utm_source=oncXGL2aPIKrtJdnWeFSnA", "review_count": 20, "categories": [{"alias": "asianfusion", "title": "Asian Fusion"}, {"alias": "chinese", "title": "Chinese"}], "rating": 4.0, "coordinates": {"latitude": 33.0465057439054, "longitude": -117.257539889047}, "transactions": [], "price": "$", "location": {"address1": "1460 Encinitas Blvd", "address2": "", "address3": null, "city": "Encinitas", "zip_code": "92024", "country": "US", "state": "CA", "display_address": ["1460 Encinitas Blvd", "Encinitas, CA 92024"]}, "phone": "+17606326678", "display_phone": "(760) 632-6678", "distance": 348.7100575601817}, {"id": "0wN1Iz1pGQ5IBEGeAtWCEA", "alias": "pei-wei-encinitas", "name": "Pei Wei", "image_url": "https://s3-media1.fl.yelpcdn.com/bphoto/38yDUxDqsRsOqTDZkTsGFw/o.jpg", "is_closed": false, "url": "https://www.yelp.com/biz/pei-wei-encinitas?adjust_creative=oncXGL2aPIKrtJdnWeFSnA&utm_campaign=yelp_api_v3&utm_medium=api_v3_business_search&utm_source=oncXGL2aPIKrtJdnWeFSnA", "review_count": 162, "categories": [{"alias": "chinese", "title": "Chinese"}, {"alias": "gluten_free", "title": "Gluten-Free"}, {"alias": "asianfusion", "title": "Asian Fusion"}], "rating": 3.0, "coordinates": {"latitude": 33.068531036377, "longitude": -117.265289306641}, "transactions": [], "price": "$", "location": {"address1": "1560-A Leucadia Blvd", "address2": "", "address3": "", "city": "Encinitas", "zip_code": "92024", "country": "US", "state": "CA", "display_address": ["1560-A Leucadia Blvd", "Encinitas, CA 92024"]}, "phone": "+17606352888", "display_phone": "(760) 635-2888", "distance": 2812.85458839184}, {"id": "rW8J8C833uaIMds7N8ueLg", "alias": "the-flame-broiler-vista", "name": "The Flame Broiler", "image_url": "https://s3-media2.fl.yelpcdn.com/bphoto/_C-bnc2L7EAXdjL3aCdLyg/o.jpg", "is_closed": false, "url": "https://www.yelp.com/biz/the-flame-broiler-vista?adjust_creative=oncXGL2aPIKrtJdnWeFSnA&utm_campaign=yelp_api_v3&utm_medium=api_v3_business_search&utm_source=oncXGL2aPIKrtJdnWeFSnA", "review_count": 68, "categories": [{"alias": "asianfusion", "title": "Asian Fusion"}], "rating": 3.5, "coordinates": {"latitude": 33.1317596435547, "longitude": -117.229438781738}, "transactions": [], "price": "$", "location": {"address1": "3295 Business Park Dr", "address2": "", "address3": null, "city": "Vista", "zip_code": "92081", "country": "US", "state": "CA", "display_address": ["3295 Business Park Dr", "Vista, CA 92081"]}, "phone": "+17608428771", "display_phone": "(760) 842-8771", "distance": 9933.987529561897}, {"id": "qB7HpINMiMDGyMa3Ql6zQA", "alias": "333-pacific-oceanside", "name": "333 Pacific", "image_url": "https://s3-media3.fl.yelpcdn.com/bphoto/TawVgXadIg96UZ9wD6VtNg/o.jpg", "is_closed": false, "url": "https://www.yelp.com/biz/333-pacific-oceanside?adjust_creative=oncXGL2aPIKrtJdnWeFSnA&utm_campaign=yelp_api_v3&utm_medium=api_v3_business_search&utm_source=oncXGL2aPIKrtJdnWeFSnA", "review_count": 1434, "categories": [{"alias": "newamerican", "title": "American (New)"}, {"alias": "seafood", "title": "Seafood"}, {"alias": "asianfusion", "title": "Asian Fusion"}], "rating": 4.0, "coordinates": {"latitude": 33.194954, "longitude": -117.383679}, "transactions": [], "price": "$$$", "location": {"address1": "333 N Pacific St", "address2": "", "address3": "", "city": "Oceanside", "zip_code": "92054", "country": "US", "state": "CA", "display_address": ["333 N Pacific St", "Oceanside, CA 92054"]}, "phone": "+17604333333", "display_phone": "(760) 433-3333", "distance": 20579.969767690134}, {"id": "Hqk7azstDh8NpBMXOTEwhw", "alias": "j-box-carlsbad", "name": "J BOX", "image_url": "https://s3-media2.fl.yelpcdn.com/bphoto/h81ddL3qvvs6QnZvjI5QUw/o.jpg", "is_closed": false, "url": "https://www.yelp.com/biz/j-box-carlsbad?adjust_creative=oncXGL2aPIKrtJdnWeFSnA&utm_campaign=yelp_api_v3&utm_medium=api_v3_business_search&utm_source=oncXGL2aPIKrtJdnWeFSnA", "review_count": 89, "categories": [{"alias": "japanese", "title": "Japanese"}, {"alias": "asianfusion", "title": "Asian Fusion"}, {"alias": "korean", "title": "Korean"}], "rating": 4.0, "coordinates": {"latitude": 33.1347745768318, "longitude": -117.287347264279}, "transactions": [], "price": "$$", "location": {"address1": "5814 Van Allen Way", "address2": "Ste 135", "address3": "", "city": "Carlsbad", "zip_code": "92008", "country": "US", "state": "CA", "display_address": ["5814 Van Allen Way", "Ste 135", "Carlsbad, CA 92008"]}, "phone": "+17604310056", "display_phone": "(760) 431-0056", "distance": 10457.216756428854}, {"id": "rGYBda61mS4JOxhiispscA", "alias": "the-original-sab-e-lee-san-diego", "name": "The Original Sab-E-Lee", "image_url": "https://s3-media4.fl.yelpcdn.com/bphoto/oaXDGfjnxu52v3mCofEEdw/o.jpg", "is_closed": false, "url": "https://www.yelp.com/biz/the-original-sab-e-lee-san-diego?adjust_creative=oncXGL2aPIKrtJdnWeFSnA&utm_campaign=yelp_api_v3&utm_medium=api_v3_business_search&utm_source=oncXGL2aPIKrtJdnWeFSnA", "review_count": 683, "categories": [{"alias": "asianfusion", "title": "Asian Fusion"}, {"alias": "thai", "title": "Thai"}], "rating": 4.0, "coordinates": {"latitude": 32.9574367638299, "longitude": -117.125476861099}, "transactions": [], "price": "$$", "location": {"address1": "13223 Black Mountain Rd", "address2": "Ste 2", "address3": null, "city": "San Diego", "zip_code": "92129", "country": "US", "state": "CA", "display_address": ["13223 Black Mountain Rd", "Ste 2", "San Diego, CA 92129"]}, "phone": "+18587800022", "display_phone": "(858) 780-0022", "distance": 15458.273922538254}, {"id": "s6scKVmZ-PWs77o7yUNsuQ", "alias": "p-f-changs-carlsbad", "name": "P.F. Chang's", "image_url": "https://s3-media2.fl.yelpcdn.com/bphoto/uqbj13Dt3uIB5GVd_Cpldw/o.jpg", "is_closed": false, "url": "https://www.yelp.com/biz/p-f-changs-carlsbad?adjust_creative=oncXGL2aPIKrtJdnWeFSnA&utm_campaign=yelp_api_v3&utm_medium=api_v3_business_search&utm_source=oncXGL2aPIKrtJdnWeFSnA", "review_count": 441, "categories": [{"alias": "chinese", "title": "Chinese"}, {"alias": "asianfusion", "title": "Asian Fusion"}, {"alias": "gluten_free", "title": "Gluten-Free"}], "rating": 3.0, "coordinates": {"latitude": 33.1251713786098, "longitude": -117.322928294477}, "transactions": ["delivery", "pickup"], "price": "$$", "location": {"address1": "5621 Paseo Del Norte", "address2": "", "address3": "", "city": "Carlsbad", "zip_code": "92008", "country": "US", "state": "CA", "display_address": ["5621 Paseo Del Norte", "Carlsbad, CA 92008"]}, "phone": "+17607950595", "display_phone": "(760) 795-0595", "distance": 10978.620680737322}, {"id": "nrqFHR5sjvXKKC2BtzR3gA", "alias": "blue-ocean-robata-and-sushi-bar-carlsbad-2", "name": "Blue Ocean Robata & Sushi Bar", "image_url": "https://s3-media3.fl.yelpcdn.com/bphoto/w1niqsSE0i5Oo7TJSWiO1g/o.jpg", "is_closed": false, "url": "https://www.yelp.com/biz/blue-ocean-robata-and-sushi-bar-carlsbad-2?adjust_creative=oncXGL2aPIKrtJdnWeFSnA&utm_campaign=yelp_api_v3&utm_medium=api_v3_business_search&utm_source=oncXGL2aPIKrtJdnWeFSnA", "review_count": 899, "categories": [{"alias": "asianfusion", "title": "Asian Fusion"}, {"alias": "sushi", "title": "Sushi Bars"}], "rating": 4.0, "coordinates": {"latitude": 33.1614177, "longitude": -117.3468266}, "transactions": [], "price": "$$", "location": {"address1": "2958 Madison St", "address2": "", "address3": "", "city": "Carlsbad", "zip_code": "92008", "country": "US", "state": "CA", "display_address": ["2958 Madison St", "Carlsbad, CA 92008"]}, "phone": "+17604344959", "display_phone": "(760) 434-4959", "distance": 15560.096044922093}, {"id": "AvVRl5stlkb3YQ8yLPGc8w", "alias": "pokewaii-san-marcos-5", "name": "Pokewaii", "image_url": "https://s3-media2.fl.yelpcdn.com/bphoto/aelHZq1OBgeLDOON_pXaFQ/o.jpg", "is_closed": false, "url": "https://www.yelp.com/biz/pokewaii-san-marcos-5?adjust_creative=oncXGL2aPIKrtJdnWeFSnA&utm_campaign=yelp_api_v3&utm_medium=api_v3_business_search&utm_source=oncXGL2aPIKrtJdnWeFSnA", "review_count": 201, "categories": [{"alias": "asianfusion", "title": "Asian Fusion"}, {"alias": "hawaiian", "title": "Hawaiian"}, {"alias": "poke", "title": "Poke"}], "rating": 4.0, "coordinates": {"latitude": 33.13391, "longitude": -117.19256}, "transactions": [], "price": "$", "location": {"address1": "1158 W San Marcos Blvd", "address2": "Ste 104", "address3": "", "city": "San Marcos", "zip_code": "92078", "country": "US", "state": "CA", "display_address": ["1158 W San Marcos Blvd", "Ste 104", "San Marcos, CA 92078"]}, "phone": "+17607369388", "display_phone": "(760) 736-9388", "distance": 11451.911549444323}, {"id": "AQ8gXL1-u57FkIUK89M7Kg", "alias": "pick-up-stix-carlsbad-8", "name": "Pick Up Stix", "image_url": "https://s3-media1.fl.yelpcdn.com/bphoto/bNL_eeSQixsRP9Tu_kzGlA/o.jpg", "is_closed": false, "url": "https://www.yelp.com/biz/pick-up-stix-carlsbad-8?adjust_creative=oncXGL2aPIKrtJdnWeFSnA&utm_campaign=yelp_api_v3&utm_medium=api_v3_business_search&utm_source=oncXGL2aPIKrtJdnWeFSnA", "review_count": 65, "categories": [{"alias": "chinese", "title": "Chinese"}, {"alias": "asianfusion", "title": "Asian Fusion"}], "rating": 3.0, "coordinates": {"latitude": 33.1003341674805, "longitude": -117.311668395996}, "transactions": ["delivery", "pickup"], "price": "$", "location": {"address1": "7150 Avenida Encinas", "address2": "Ste 102", "address3": "", "city": "Carlsbad", "zip_code": "92011", "country": "US", "state": "CA", "display_address": ["7150 Avenida Encinas", "Ste 102", "Carlsbad, CA 92011"]}, "phone": "+17606021077", "display_phone": "(760) 602-1077", "distance": 8156.730726933896}, {"id": "3tU-fKas38YNzZ5akOJFkw", "alias": "boto-sushi-del-mar-del-mar-7", "name": "Boto Sushi Del Mar", "image_url": "https://s3-media2.fl.yelpcdn.com/bphoto/5K_-MZ8kA9QPabXHm3Z52w/o.jpg", "is_closed": false, "url": "https://www.yelp.com/biz/boto-sushi-del-mar-del-mar-7?adjust_creative=oncXGL2aPIKrtJdnWeFSnA&utm_campaign=yelp_api_v3&utm_medium=api_v3_business_search&utm_source=oncXGL2aPIKrtJdnWeFSnA", "review_count": 147, "categories": [{"alias": "sushi", "title": "Sushi Bars"}, {"alias": "japanese", "title": "Japanese"}, {"alias": "asianfusion", "title": "Asian Fusion"}], "rating": 4.0, "coordinates": {"latitude": 32.951247, "longitude": -117.246129}, "transactions": [], "price": "$$", "location": {"address1": "2628 Del Mar Heights Rd", "address2": null, "address3": "", "city": "Del Mar", "zip_code": "92014", "country": "US", "state": "CA", "display_address": ["2628 Del Mar Heights Rd", "Del Mar, CA 92014"]}, "phone": "+18588472828", "display_phone": "(858) 847-2828", "distance": 10440.680404740018}, {"id": "n4RA5CuFhBl0DNY8AwOIxg", "alias": "wow-wa-korean-bbq-poway-4", "name": "Wow Wa Korean BBQ", "image_url": "https://s3-media2.fl.yelpcdn.com/bphoto/AdAoYLBB6OcPPjs4Wq1yWQ/o.jpg", "is_closed": false, "url": "https://www.yelp.com/biz/wow-wa-korean-bbq-poway-4?adjust_creative=oncXGL2aPIKrtJdnWeFSnA&utm_campaign=yelp_api_v3&utm_medium=api_v3_business_search&utm_source=oncXGL2aPIKrtJdnWeFSnA", "review_count": 16, "categories": [{"alias": "asianfusion", "title": "Asian Fusion"}], "rating": 4.0, "coordinates": {"latitude": 32.9809086696592, "longitude": -117.060936646402}, "transactions": [], "price": "$", "location": {"address1": "14837 Pomerado Rd", "address2": "", "address3": null, "city": "Poway", "zip_code": "92064", "country": "US", "state": "CA", "display_address": ["14837 Pomerado Rd", "Poway, CA 92064"]}, "phone": "+18587528175", "display_phone": "(858) 752-8175", "distance": 19385.408836756953}, {"id": "gVEDdSfCVeIjdrDNXKblFg", "alias": "zen-modern-asian-san-diego", "name": "ZEN Modern Asian", "image_url": "https://s3-media1.fl.yelpcdn.com/bphoto/8aHUXskU2k_FL7QPzN49Kg/o.jpg", "is_closed": false, "url": "https://www.yelp.com/biz/zen-modern-asian-san-diego?adjust_creative=oncXGL2aPIKrtJdnWeFSnA&utm_campaign=yelp_api_v3&utm_medium=api_v3_business_search&utm_source=oncXGL2aPIKrtJdnWeFSnA", "review_count": 425, "categories": [{"alias": "asianfusion", "title": "Asian Fusion"}, {"alias": "sushi", "title": "Sushi Bars"}, {"alias": "chinese", "title": "Chinese"}], "rating": 4.0, "coordinates": {"latitude": 32.96267, "longitude": -117.09202}, "transactions": ["delivery", "pickup"], "price": "$$", "location": {"address1": "13510 Sabre Spring Pkwy", "address2": "Ste 103", "address3": "", "city": "San Diego", "zip_code": "92128", "country": "US", "state": "CA", "display_address": ["13510 Sabre Spring Pkwy", "Ste 103", "San Diego, CA 92128"]}, "phone": "+18582161068", "display_phone": "(858) 216-1068", "distance": 17674.57080185095}, {"id": "P5AzGdkoI9WlGL_bW6rtcw", "alias": "blue-pepper-asian-cuisine-san-diego", "name": "Blue Pepper Asian Cuisine", "image_url": "https://s3-media4.fl.yelpcdn.com/bphoto/ShKkhWG1Gbtb0Cl9hZ9GAA/o.jpg", "is_closed": false, "url": "https://www.yelp.com/biz/blue-pepper-asian-cuisine-san-diego?adjust_creative=oncXGL2aPIKrtJdnWeFSnA&utm_campaign=yelp_api_v3&utm_medium=api_v3_business_search&utm_source=oncXGL2aPIKrtJdnWeFSnA", "review_count": 9, "categories": [{"alias": "asianfusion", "title": "Asian Fusion"}], "rating": 4.0, "coordinates": {"latitude": 32.877214110972, "longitude": -117.240527799919}, "transactions": [], "location": {"address1": "9500 Gilman Dr", "address2": "", "address3": null, "city": "San Diego", "zip_code": "92093", "country": "US", "state": "CA", "display_address": ["9500 Gilman Dr", "San Diego, CA 92093"]}, "phone": "+18582033654", "display_phone": "(858) 203-3654", "distance": 18689.116631619177}, {"id": "_4clkIuz2ZXtL7ktH0lb7w", "alias": "tong-sake-house-poway", "name": "Tong Sake House", "image_url": "https://s3-media3.fl.yelpcdn.com/bphoto/cCcstlJG3ZcvvsYfkdOeOg/o.jpg", "is_closed": false, "url": "https://www.yelp.com/biz/tong-sake-house-poway?adjust_creative=oncXGL2aPIKrtJdnWeFSnA&utm_campaign=yelp_api_v3&utm_medium=api_v3_business_search&utm_source=oncXGL2aPIKrtJdnWeFSnA", "review_count": 381, "categories": [{"alias": "japanese", "title": "Japanese"}, {"alias": "asianfusion", "title": "Asian Fusion"}], "rating": 4.5, "coordinates": {"latitude": 32.9523488737293, "longitude": -117.065501901364}, "transactions": [], "price": "$$", "location": {"address1": "12320 Poway Rd", "address2": null, "address3": "", "city": "Poway", "zip_code": "92064", "country": "US", "state": "CA", "display_address": ["12320 Poway Rd", "Poway, CA 92064"]}, "phone": "+18584863200", "display_phone": "(858) 486-3200", "distance": 20395.951290122295}, {"id": "CvgmuACGX2tfkXzkh_gomA", "alias": "poki-poki-oceanside-oceanside-3", "name": "Poki Poki - Oceanside", "image_url": "https://s3-media3.fl.yelpcdn.com/bphoto/ajV769xWBlhiCdiiSbgJBQ/o.jpg", "is_closed": false, "url": "https://www.yelp.com/biz/poki-poki-oceanside-oceanside-3?adjust_creative=oncXGL2aPIKrtJdnWeFSnA&utm_campaign=yelp_api_v3&utm_medium=api_v3_business_search&utm_source=oncXGL2aPIKrtJdnWeFSnA", "review_count": 285, "categories": [{"alias": "asianfusion", "title": "Asian Fusion"}, {"alias": "hawaiian", "title": "Hawaiian"}, {"alias": "poke", "title": "Poke"}], "rating": 4.0, "coordinates": {"latitude": 33.1784354, "longitude": -117.2953997}, "transactions": [], "price": "$$", "location": {"address1": "3480 Marron Rd", "address2": "Ste 3B-101", "address3": "", "city": "Oceanside", "zip_code": "92056", "country": "US", "state": "CA", "display_address": ["3480 Marron Rd", "Ste 3B-101", "Oceanside, CA 92056"]}, "phone": "+17602959086", "display_phone": "(760) 295-9086", "distance": 15416.891720589156}, {"id": "-wLwa2CCxNFTJzeqMh7xpg", "alias": "northern-spirits-san-marcos", "name": "Northern Spirits", "image_url": "https://s3-media1.fl.yelpcdn.com/bphoto/WrnSID88jpbmMKMQ8D3Zeg/o.jpg", "is_closed": false, "url": "https://www.yelp.com/biz/northern-spirits-san-marcos?adjust_creative=oncXGL2aPIKrtJdnWeFSnA&utm_campaign=yelp_api_v3&utm_medium=api_v3_business_search&utm_source=oncXGL2aPIKrtJdnWeFSnA", "review_count": 94, "categories": [{"alias": "jazzandblues", "title": "Jazz & Blues"}, {"alias": "asianfusion", "title": "Asian Fusion"}, {"alias": "thai", "title": "Thai"}], "rating": 4.0, "coordinates": {"latitude": 33.136223, "longitude": -117.179535}, "transactions": [], "price": "$$", "location": {"address1": "727 W San Marcos Blvd", "address2": "Ste 117", "address3": "", "city": "San Marcos", "zip_code": "92069", "country": "US", "state": "CA", "display_address": ["727 W San Marcos Blvd", "Ste 117", "San Marcos, CA 92069"]}, "phone": "+17607369996", "display_phone": "(760) 736-9996", "distance": 12316.479849496996}, {"id": "bwu_8ScPI7H9EW89-C1NLA", "alias": "pick-up-stix-carlsbad-4", "name": "Pick Up Stix", "image_url": "https://s3-media3.fl.yelpcdn.com/bphoto/Xkl0gzPtIxojJ0vkalFiQw/o.jpg", "is_closed": false, "url": "https://www.yelp.com/biz/pick-up-stix-carlsbad-4?adjust_creative=oncXGL2aPIKrtJdnWeFSnA&utm_campaign=yelp_api_v3&utm_medium=api_v3_business_search&utm_source=oncXGL2aPIKrtJdnWeFSnA", "review_count": 69, "categories": [{"alias": "asianfusion", "title": "Asian Fusion"}, {"alias": "chinese", "title": "Chinese"}], "rating": 3.5, "coordinates": {"latitude": 33.12669, "longitude": -117.25386}, "transactions": ["delivery", "pickup"], "price": "$", "location": {"address1": "2641 Gateway Rd", "address2": "Ste 101", "address3": "", "city": "Carlsbad", "zip_code": "92009", "country": "US", "state": "CA", "display_address": ["2641 Gateway Rd", "Ste 101", "Carlsbad, CA 92009"]}, "phone": "+17608041301", "display_phone": "(760) 804-1301", "distance": 9118.031955874485}, {"id": "GSF5czCp_8WEqCOdmjU81Q", "alias": "arterra-restaurant-and-lounge-san-diego", "name": "Arterra Restaurant and Lounge", "image_url": "https://s3-media3.fl.yelpcdn.com/bphoto/tVh6G5h0hg9Z45WzJusBtQ/o.jpg", "is_closed": false, "url": "https://www.yelp.com/biz/arterra-restaurant-and-lounge-san-diego?adjust_creative=oncXGL2aPIKrtJdnWeFSnA&utm_campaign=yelp_api_v3&utm_medium=api_v3_business_search&utm_source=oncXGL2aPIKrtJdnWeFSnA", "review_count": 249, "categories": [{"alias": "newamerican", "title": "American (New)"}, {"alias": "lounges", "title": "Lounges"}, {"alias": "asianfusion", "title": "Asian Fusion"}], "rating": 3.5, "coordinates": {"latitude": 32.93583, "longitude": -117.2389}, "transactions": [], "price": "$$", "location": {"address1": "11966 El Camino Real", "address2": null, "address3": null, "city": "San Diego", "zip_code": "92130", "country": "US", "state": "CA", "display_address": ["11966 El Camino Real", "San Diego, CA 92130"]}, "phone": "+18583696032", "display_phone": "(858) 369-6032", "distance": 12193.370906775266}, {"id": "oc2_rhnSN6835fS09iu8vQ", "alias": "chins-szechwan-cuisine-oceanside-oceanside-2", "name": "Chin's Szechwan Cuisine - Oceanside", "image_url": "https://s3-media2.fl.yelpcdn.com/bphoto/vLTp7Cmh0x75gvJA4IyAnw/o.jpg", "is_closed": false, "url": "https://www.yelp.com/biz/chins-szechwan-cuisine-oceanside-oceanside-2?adjust_creative=oncXGL2aPIKrtJdnWeFSnA&utm_campaign=yelp_api_v3&utm_medium=api_v3_business_search&utm_source=oncXGL2aPIKrtJdnWeFSnA", "review_count": 258, "categories": [{"alias": "chinese", "title": "Chinese"}, {"alias": "asianfusion", "title": "Asian Fusion"}, {"alias": "soup", "title": "Soup"}], "rating": 4.0, "coordinates": {"latitude": 33.207614, "longitude": -117.287945}, "transactions": ["delivery", "pickup"], "price": "$$", "location": {"address1": "4140 Oceanside Blvd", "address2": "", "address3": "", "city": "Oceanside", "zip_code": "92056", "country": "US", "state": "CA", "display_address": ["4140 Oceanside Blvd", "Oceanside, CA 92056"]}, "phone": "+17606314808", "display_phone": "(760) 631-4808", "distance": 18362.792551619237}, {"id": "g52rUywY2_pyxpqUpBZXyw", "alias": "inland-tavern-san-marcos", "name": "Inland Tavern", "image_url": "https://s3-media3.fl.yelpcdn.com/bphoto/CqWxi7wj5iAPOK1gDhHKRg/o.jpg", "is_closed": false, "url": "https://www.yelp.com/biz/inland-tavern-san-marcos?adjust_creative=oncXGL2aPIKrtJdnWeFSnA&utm_campaign=yelp_api_v3&utm_medium=api_v3_business_search&utm_source=oncXGL2aPIKrtJdnWeFSnA", "review_count": 210, "categories": [{"alias": "newamerican", "title": "American (New)"}, {"alias": "asianfusion", "title": "Asian Fusion"}, {"alias": "bars", "title": "Bars"}], "rating": 3.5, "coordinates": {"latitude": 33.133991, "longitude": -117.188377}, "transactions": [], "price": "$$", "location": {"address1": "1001 W San Marcos Blvd", "address2": "", "address3": "", "city": "San Marcos", "zip_code": "92078", "country": "US", "state": "CA", "display_address": ["1001 W San Marcos Blvd", "San Marcos, CA 92078"]}, "phone": "+17607448782", "display_phone": "(760) 744-8782", "distance": 11633.325573318409}, {"id": "4HfQK96r00AYox18BcekAg", "alias": "pick-up-stix-san-marcos", "name": "Pick up Stix", "image_url": "https://s3-media1.fl.yelpcdn.com/bphoto/LzGLOqcKFnvkp9jMPYljSw/o.jpg", "is_closed": false, "url": "https://www.yelp.com/biz/pick-up-stix-san-marcos?adjust_creative=oncXGL2aPIKrtJdnWeFSnA&utm_campaign=yelp_api_v3&utm_medium=api_v3_business_search&utm_source=oncXGL2aPIKrtJdnWeFSnA", "review_count": 40, "categories": [{"alias": "asianfusion", "title": "Asian Fusion"}, {"alias": "chinese", "title": "Chinese"}], "rating": 3.5, "coordinates": {"latitude": 33.1363380760568, "longitude": -117.17829991132}, "transactions": ["delivery", "pickup"], "price": "$", "location": {"address1": "595 Grand Ave", "address2": "", "address3": null, "city": "San Marcos", "zip_code": "92078", "country": "US", "state": "CA", "display_address": ["595 Grand Ave", "San Marcos, CA 92078"]}, "phone": "+17607368821", "display_phone": "(760) 736-8821", "distance": 12392.435400670915}, {"id": "wVgN0-GTpON4pSkKXuptyA", "alias": "waba-grill-san-diego", "name": "WaBa Grill", "image_url": "https://s3-media2.fl.yelpcdn.com/bphoto/fk4SIhtAlK_Bt_KkpJeK0A/o.jpg", "is_closed": false, "url": "https://www.yelp.com/biz/waba-grill-san-diego?adjust_creative=oncXGL2aPIKrtJdnWeFSnA&utm_campaign=yelp_api_v3&utm_medium=api_v3_business_search&utm_source=oncXGL2aPIKrtJdnWeFSnA", "review_count": 122, "categories": [{"alias": "asianfusion", "title": "Asian Fusion"}, {"alias": "hotdogs", "title": "Fast Food"}], "rating": 3.5, "coordinates": {"latitude": 32.90701, "longitude": -117.1722}, "transactions": ["delivery"], "price": "$", "location": {"address1": "6765 Mira Mesa Blvd", "address2": "", "address3": "", "city": "San Diego", "zip_code": "92121", "country": "US", "state": "CA", "display_address": ["6765 Mira Mesa Blvd", "San Diego, CA 92121"]}, "phone": "+18582558549", "display_phone": "(858) 255-8549", "distance": 17132.809944704455}, {"id": "WWjIcLS6-q5g9ceS_YRuvw", "alias": "tasty-pho-vista", "name": "Tasty Pho", "image_url": "https://s3-media1.fl.yelpcdn.com/bphoto/7EXGdqiUCsvg3XaNB01Avg/o.jpg", "is_closed": false, "url": "https://www.yelp.com/biz/tasty-pho-vista?adjust_creative=oncXGL2aPIKrtJdnWeFSnA&utm_campaign=yelp_api_v3&utm_medium=api_v3_business_search&utm_source=oncXGL2aPIKrtJdnWeFSnA", "review_count": 157, "categories": [{"alias": "vietnamese", "title": "Vietnamese"}, {"alias": "asianfusion", "title": "Asian Fusion"}], "rating": 4.5, "coordinates": {"latitude": 33.1866226196289, "longitude": -117.224250793457}, "transactions": [], "price": "$", "location": {"address1": "1250 S Santa Fe Ave", "address2": "Ste K", "address3": "", "city": "Vista", "zip_code": "92084", "country": "US", "state": "CA", "display_address": ["1250 S Santa Fe Ave", "Ste K", "Vista, CA 92084"]}, "phone": "+17606315900", "display_phone": "(760) 631-5900", "distance": 16034.27064837188}, {"id": "Vqko4bijQ7XfjMm1RfdzDw", "alias": "lemongrass-plates-san-diego", "name": "Lemongrass Plates", "image_url": "https://s3-media3.fl.yelpcdn.com/bphoto/iQG99--5dZrV8VcO2Gamjw/o.jpg", "is_closed": false, "url": "https://www.yelp.com/biz/lemongrass-plates-san-diego?adjust_creative=oncXGL2aPIKrtJdnWeFSnA&utm_campaign=yelp_api_v3&utm_medium=api_v3_business_search&utm_source=oncXGL2aPIKrtJdnWeFSnA", "review_count": 83, "categories": [{"alias": "asianfusion", "title": "Asian Fusion"}], "rating": 3.0, "coordinates": {"latitude": 32.8797724804113, "longitude": -117.236470734128}, "transactions": [], "price": "$", "location": {"address1": "9700 Gilman Dr", "address2": "", "address3": "", "city": "San Diego", "zip_code": "92093", "country": "US", "state": "CA", "display_address": ["9700 Gilman Dr", "San Diego, CA 92093"]}, "phone": "+18584556465", "display_phone": "(858) 455-6465", "distance": 18435.679717592342}, {"id": "rCdirBjSZ-r-U0Cp1GIZ5w", "alias": "p-f-changs-san-diego-4", "name": "P.F. Chang's", "image_url": "https://s3-media3.fl.yelpcdn.com/bphoto/5hTAmgQ9i0J449xtZVL9tA/o.jpg", "is_closed": false, "url": "https://www.yelp.com/biz/p-f-changs-san-diego-4?adjust_creative=oncXGL2aPIKrtJdnWeFSnA&utm_campaign=yelp_api_v3&utm_medium=api_v3_business_search&utm_source=oncXGL2aPIKrtJdnWeFSnA", "review_count": 722, "categories": [{"alias": "chinese", "title": "Chinese"}, {"alias": "asianfusion", "title": "Asian Fusion"}, {"alias": "gluten_free", "title": "Gluten-Free"}], "rating": 3.0, "coordinates": {"latitude": 32.8741560968703, "longitude": -117.209342122078}, "transactions": ["delivery", "pickup"], "price": "$$", "location": {"address1": "4540 La Jolla Village Dr", "address2": "", "address3": "", "city": "San Diego", "zip_code": "92122", "country": "US", "state": "CA", "display_address": ["4540 La Jolla Village Dr", "San Diego, CA 92122"]}, "phone": "+18584589007", "display_phone": "(858) 458-9007", "distance": 19443.236857500757}, {"id": "sv277PtwTG54M9Mh3q6TlQ", "alias": "james-place-san-diego", "name": "James Place", "image_url": "https://s3-media1.fl.yelpcdn.com/bphoto/SSW9GdjtVpO12a0l8JB2vQ/o.jpg", "is_closed": false, "url": "https://www.yelp.com/biz/james-place-san-diego?adjust_creative=oncXGL2aPIKrtJdnWeFSnA&utm_campaign=yelp_api_v3&utm_medium=api_v3_business_search&utm_source=oncXGL2aPIKrtJdnWeFSnA", "review_count": 124, "categories": [{"alias": "asianfusion", "title": "Asian Fusion"}, {"alias": "bars", "title": "Bars"}, {"alias": "sushi", "title": "Sushi Bars"}], "rating": 3.5, "coordinates": {"latitude": 32.8716502221972, "longitude": -117.240870147943}, "transactions": [], "price": "$$", "location": {"address1": "2910 La Jolla Village Dr", "address2": "", "address3": "", "city": "San Diego", "zip_code": "92093", "country": "US", "state": "CA", "display_address": ["2910 La Jolla Village Dr", "San Diego, CA 92093"]}, "phone": "+18586387778", "display_phone": "(858) 638-7778", "distance": 19304.266189173093}, {"id": "V8Sc57yFAjhP7r7o36B4Cg", "alias": "momo-bing-san-diego", "name": "Momo Bing", "image_url": "https://s3-media2.fl.yelpcdn.com/bphoto/lbsP7950usvQmLiFXoXKWg/o.jpg", "is_closed": false, "url": "https://www.yelp.com/biz/momo-bing-san-diego?adjust_creative=oncXGL2aPIKrtJdnWeFSnA&utm_campaign=yelp_api_v3&utm_medium=api_v3_business_search&utm_source=oncXGL2aPIKrtJdnWeFSnA", "review_count": 2, "categories": [{"alias": "creperies", "title": "Creperies"}, {"alias": "asianfusion", "title": "Asian Fusion"}], "rating": 4.0, "coordinates": {"latitude": 32.910904, "longitude": -117.1403701}, "transactions": [], "location": {"address1": "10510 Marauder Way", "address2": null, "address3": "", "city": "San Diego", "zip_code": "92126", "country": "US", "state": "CA", "display_address": ["10510 Marauder Way", "San Diego, CA 92126"]}, "phone": "+16195347208", "display_phone": "(619) 534-7208", "distance": 18302.23895869105}, {"id": "Edk51eFkI2TH4g1Peiuhgw", "alias": "zip-fusion-san-diego-2", "name": "Zip Fusion", "image_url": "https://s3-media4.fl.yelpcdn.com/bphoto/4J3B0ck4YBGZV2uxWtBSUQ/o.jpg", "is_closed": false, "url": "https://www.yelp.com/biz/zip-fusion-san-diego-2?adjust_creative=oncXGL2aPIKrtJdnWeFSnA&utm_campaign=yelp_api_v3&utm_medium=api_v3_business_search&utm_source=oncXGL2aPIKrtJdnWeFSnA", "review_count": 284, "categories": [{"alias": "asianfusion", "title": "Asian Fusion"}, {"alias": "sushi", "title": "Sushi Bars"}, {"alias": "korean", "title": "Korean"}], "rating": 3.0, "coordinates": {"latitude": 32.92079, "longitude": -117.21704}, "transactions": ["delivery"], "price": "$$", "location": {"address1": "11130 E Ocean Air Dr", "address2": "Ste 101", "address3": "", "city": "San Diego", "zip_code": "92130", "country": "US", "state": "CA", "display_address": ["11130 E Ocean Air Dr", "Ste 101", "San Diego, CA 92130"]}, "phone": "+18587553130", "display_phone": "(858) 755-3130", "distance": 14230.944995077803}, {"id": "1jhHg3sHxFPJEZbqLnvHjg", "alias": "c-jack-sushi-and-asian-cuisine-vista", "name": "C-Jack Sushi and Asian Cuisine", "image_url": "https://s3-media4.fl.yelpcdn.com/bphoto/Tv_03fqCqRdX_2yfbcpL5A/o.jpg", "is_closed": false, "url": "https://www.yelp.com/biz/c-jack-sushi-and-asian-cuisine-vista?adjust_creative=oncXGL2aPIKrtJdnWeFSnA&utm_campaign=yelp_api_v3&utm_medium=api_v3_business_search&utm_source=oncXGL2aPIKrtJdnWeFSnA", "review_count": 214, "categories": [{"alias": "asianfusion", "title": "Asian Fusion"}, {"alias": "sushi", "title": "Sushi Bars"}], "rating": 4.5, "coordinates": {"latitude": 33.1695709237311, "longitude": -117.213474375888}, "transactions": ["delivery", "pickup"], "price": "$$", "location": {"address1": "1711 University Dr", "address2": "Ste 130", "address3": "", "city": "Vista", "zip_code": "92083", "country": "US", "state": "CA", "display_address": ["1711 University Dr", "Ste 130", "Vista, CA 92083"]}, "phone": "+17604143989", "display_phone": "(760) 414-3989", "distance": 14376.737393019448}, {"id": "WDd-W00FnJv4Q01JSNWb-Q", "alias": "super-sushi-carlsbad-4", "name": "Super Sushi", "image_url": "https://s3-media2.fl.yelpcdn.com/bphoto/M78mp2hgkXVuN1-fDc__Xw/o.jpg", "is_closed": false, "url": "https://www.yelp.com/biz/super-sushi-carlsbad-4?adjust_creative=oncXGL2aPIKrtJdnWeFSnA&utm_campaign=yelp_api_v3&utm_medium=api_v3_business_search&utm_source=oncXGL2aPIKrtJdnWeFSnA", "review_count": 206, "categories": [{"alias": "sushi", "title": "Sushi Bars"}, {"alias": "asianfusion", "title": "Asian Fusion"}, {"alias": "ramen", "title": "Ramen"}], "rating": 4.0, "coordinates": {"latitude": 33.1766161322594, "longitude": -117.338841184974}, "transactions": ["delivery", "pickup"], "price": "$$", "location": {"address1": "1854 Marron Rd", "address2": "", "address3": "", "city": "Carlsbad", "zip_code": "92008", "country": "US", "state": "CA", "display_address": ["1854 Marron Rd", "Carlsbad, CA 92008"]}, "phone": "+17607295888", "display_phone": "(760) 729-5888", "distance": 16661.81579439497}, {"id": "QpUd76XhnY_YH9aMCK7w3g", "alias": "poki-poki-escondido-escondido", "name": "Poki Poki - Escondido", "image_url": "https://s3-media3.fl.yelpcdn.com/bphoto/WFqbfAiYfeEGFNP5WbhXbQ/o.jpg", "is_closed": false, "url": "https://www.yelp.com/biz/poki-poki-escondido-escondido?adjust_creative=oncXGL2aPIKrtJdnWeFSnA&utm_campaign=yelp_api_v3&utm_medium=api_v3_business_search&utm_source=oncXGL2aPIKrtJdnWeFSnA", "review_count": 73, "categories": [{"alias": "asianfusion", "title": "Asian Fusion"}], "rating": 4.5, "coordinates": {"latitude": 33.11229, "longitude": -117.10292}, "transactions": [], "price": "$", "location": {"address1": "1348 W Valley Pkwy", "address2": "Ste F", "address3": "", "city": "Escondido", "zip_code": "92029", "country": "US", "state": "CA", "display_address": ["1348 W Valley Pkwy", "Ste F", "Escondido, CA 92029"]}, "phone": "+17603175213", "display_phone": "(760) 317-5213", "distance": 15977.019877105316}, {"id": "t-hVd2gazf0rEnnD_NPsmg", "alias": "the-bistro-at-the-strand-la-jolla", "name": "The Bistro At the Strand", "image_url": "https://s3-media3.fl.yelpcdn.com/bphoto/JAhEB2vwmy77UWQr7EHhAA/o.jpg", "is_closed": false, "url": "https://www.yelp.com/biz/the-bistro-at-the-strand-la-jolla?adjust_creative=oncXGL2aPIKrtJdnWeFSnA&utm_campaign=yelp_api_v3&utm_medium=api_v3_business_search&utm_source=oncXGL2aPIKrtJdnWeFSnA", "review_count": 107, "categories": [{"alias": "asianfusion", "title": "Asian Fusion"}, {"alias": "sushi", "title": "Sushi Bars"}], "rating": 3.5, "coordinates": {"latitude": 32.8879403843998, "longitude": -117.242036278743}, "transactions": [], "price": "$$", "location": {"address1": "9500 Gilman Dr", "address2": "", "address3": "", "city": "La Jolla", "zip_code": "92093", "country": "US", "state": "CA", "display_address": ["9500 Gilman Dr", "La Jolla, CA 92093"]}, "phone": "+18588224275", "display_phone": "(858) 822-4275", "distance": 17489.63960697201}, {"id": "etbd6jMgSW2zz1vN8qBOcw", "alias": "chins-szechwan-cuisine-vista-vista", "name": "Chin's Szechwan Cuisine - Vista", "image_url": "https://s3-media2.fl.yelpcdn.com/bphoto/vQ-p-pje9BgwHqSHIcfqPQ/o.jpg", "is_closed": false, "url": "https://www.yelp.com/biz/chins-szechwan-cuisine-vista-vista?adjust_creative=oncXGL2aPIKrtJdnWeFSnA&utm_campaign=yelp_api_v3&utm_medium=api_v3_business_search&utm_source=oncXGL2aPIKrtJdnWeFSnA", "review_count": 175, "categories": [{"alias": "chinese", "title": "Chinese"}, {"alias": "asianfusion", "title": "Asian Fusion"}, {"alias": "soup", "title": "Soup"}], "rating": 4.0, "coordinates": {"latitude": 33.205905, "longitude": -117.237127}, "transactions": ["delivery", "pickup"], "price": "$$", "location": {"address1": "600 E Vista Way", "address2": "", "address3": "", "city": "Vista", "zip_code": "92084", "country": "US", "state": "CA", "display_address": ["600 E Vista Way", "Vista, CA 92084"]}, "phone": "+17607323880", "display_phone": "(760) 732-3880", "distance": 17975.596267478646}, {"id": "V1aIFVukgzW_BlTW4rKSSg", "alias": "seoul-man-food-truck-la-jolla", "name": "Seoul Man Food Truck", "image_url": "https://s3-media3.fl.yelpcdn.com/bphoto/8hr4N6MnIyHmWIYWhZQk3w/o.jpg", "is_closed": false, "url": "https://www.yelp.com/biz/seoul-man-food-truck-la-jolla?adjust_creative=oncXGL2aPIKrtJdnWeFSnA&utm_campaign=yelp_api_v3&utm_medium=api_v3_business_search&utm_source=oncXGL2aPIKrtJdnWeFSnA", "review_count": 67, "categories": [{"alias": "korean", "title": "Korean"}, {"alias": "asianfusion", "title": "Asian Fusion"}, {"alias": "foodtrucks", "title": "Food Trucks"}], "rating": 4.0, "coordinates": {"latitude": 32.8408508300781, "longitude": -117.257797241211}, "transactions": [], "price": "$$", "location": {"address1": "", "address2": null, "address3": "", "city": "La Jolla", "zip_code": "92037", "country": "US", "state": "CA", "display_address": ["La Jolla, CA 92037"]}, "phone": "+18449865227", "display_phone": "(844) 986-5227", "distance": 24081.21229362162}, {"id": "89l5kLeTy4kteNnwtxG5Ow", "alias": "chins-szechwan-cuisine-rancho-bernardo-san-diego", "name": "Chin's Szechwan Cuisine - Rancho Bernardo", "image_url": "https://s3-media1.fl.yelpcdn.com/bphoto/cTBzk7ooqIPIRaNP3Ef3MA/o.jpg", "is_closed": false, "url": "https://www.yelp.com/biz/chins-szechwan-cuisine-rancho-bernardo-san-diego?adjust_creative=oncXGL2aPIKrtJdnWeFSnA&utm_campaign=yelp_api_v3&utm_medium=api_v3_business_search&utm_source=oncXGL2aPIKrtJdnWeFSnA", "review_count": 218, "categories": [{"alias": "chinese", "title": "Chinese"}, {"alias": "soup", "title": "Soup"}, {"alias": "asianfusion", "title": "Asian Fusion"}], "rating": 4.0, "coordinates": {"latitude": 33.0018843882489, "longitude": -117.059156164588}, "transactions": ["delivery", "pickup"], "price": "$$", "location": {"address1": "15721 Bernardo Heights Pkwy", "address2": "", "address3": "", "city": "San Diego", "zip_code": "92128", "country": "US", "state": "CA", "display_address": ["15721 Bernardo Heights Pkwy", "San Diego, CA 92128"]}, "phone": "+18586760166", "display_phone": "(858) 676-0166", "distance": 18814.44496036458}, {"id": "TBKYgHtun61GfpvKHMLeHA", "alias": "pick-up-stix-san-diego-6", "name": "Pick Up Stix", "image_url": "https://s3-media1.fl.yelpcdn.com/bphoto/9bq1GdiXb-ZYvCddBtpsDQ/o.jpg", "is_closed": false, "url": "https://www.yelp.com/biz/pick-up-stix-san-diego-6?adjust_creative=oncXGL2aPIKrtJdnWeFSnA&utm_campaign=yelp_api_v3&utm_medium=api_v3_business_search&utm_source=oncXGL2aPIKrtJdnWeFSnA", "review_count": 46, "categories": [{"alias": "chinese", "title": "Chinese"}, {"alias": "asianfusion", "title": "Asian Fusion"}], "rating": 3.0, "coordinates": {"latitude": 32.96178, "longitude": -117.15425}, "transactions": ["delivery", "pickup"], "price": "$$", "location": {"address1": "7825 Highlands Village Pl", "address2": "", "address3": "", "city": "San Diego", "zip_code": "92129", "country": "US", "state": "CA", "display_address": ["7825 Highlands Village Pl", "San Diego, CA 92129"]}, "phone": "+18584840477", "display_phone": "(858) 484-0477", "distance": 13086.550628590323}, {"id": "-pGud-5Qbq2awWdwMygHBg", "alias": "chins-szechwan-escondido", "name": "Chin's Szechwan", "image_url": "https://s3-media1.fl.yelpcdn.com/bphoto/uKAroBoFot312ACKzOoUbg/o.jpg", "is_closed": false, "url": "https://www.yelp.com/biz/chins-szechwan-escondido?adjust_creative=oncXGL2aPIKrtJdnWeFSnA&utm_campaign=yelp_api_v3&utm_medium=api_v3_business_search&utm_source=oncXGL2aPIKrtJdnWeFSnA", "review_count": 148, "categories": [{"alias": "chinese", "title": "Chinese"}, {"alias": "asianfusion", "title": "Asian Fusion"}], "rating": 3.5, "coordinates": {"latitude": 33.12382, "longitude": -117.08705}, "transactions": ["pickup"], "price": "$$", "location": {"address1": "445 N Escondido Blvd", "address2": "", "address3": "", "city": "Escondido", "zip_code": "92025", "country": "US", "state": "CA", "display_address": ["445 N Escondido Blvd", "Escondido, CA 92025"]}, "phone": "+17604804115", "display_phone": "(760) 480-4115", "distance": 17891.830611933292}, {"id": "uaSgyTtZvFSidP-kO1RWZA", "alias": "pick-up-stix-vista", "name": "Pick Up Stix", "image_url": "https://s3-media3.fl.yelpcdn.com/bphoto/vEY_Psjh9myx8DrsN3cUFQ/o.jpg", "is_closed": false, "url": "https://www.yelp.com/biz/pick-up-stix-vista?adjust_creative=oncXGL2aPIKrtJdnWeFSnA&utm_campaign=yelp_api_v3&utm_medium=api_v3_business_search&utm_source=oncXGL2aPIKrtJdnWeFSnA", "review_count": 72, "categories": [{"alias": "chinese", "title": "Chinese"}, {"alias": "asianfusion", "title": "Asian Fusion"}], "rating": 3.0, "coordinates": {"latitude": 33.1925087, "longitude": -117.2537253}, "transactions": ["delivery", "pickup"], "price": "$", "location": {"address1": "251 South Melrose Dr", "address2": "Ste 303", "address3": "", "city": "Vista", "zip_code": "92081", "country": "US", "state": "CA", "display_address": ["251 South Melrose Dr", "Ste 303", "Vista, CA 92081"]}, "phone": "+17607589808", "display_phone": "(760) 758-9808", "distance": 16396.519573947713}, {"id": "c9PmC1tfhl2P5AYgkrJG6w", "alias": "pei-wei-san-diego-2", "name": "Pei Wei", "image_url": "https://s3-media1.fl.yelpcdn.com/bphoto/vqrvU59Zpe0d0rj65f9NQg/o.jpg", "is_closed": false, "url": "https://www.yelp.com/biz/pei-wei-san-diego-2?adjust_creative=oncXGL2aPIKrtJdnWeFSnA&utm_campaign=yelp_api_v3&utm_medium=api_v3_business_search&utm_source=oncXGL2aPIKrtJdnWeFSnA", "review_count": 247, "categories": [{"alias": "asianfusion", "title": "Asian Fusion"}, {"alias": "chinese", "title": "Chinese"}, {"alias": "gluten_free", "title": "Gluten-Free"}], "rating": 2.5, "coordinates": {"latitude": 33.019783, "longitude": -117.110514}, "transactions": [], "price": "$", "location": {"address1": "10562 Craftsman Way", "address2": "", "address3": "", "city": "San Diego", "zip_code": "92127", "country": "US", "state": "CA", "display_address": ["10562 Craftsman Way", "San Diego, CA 92127"]}, "phone": "+18582072730", "display_phone": "(858) 207-2730", "distance": 13694.664400587355}, {"id": "wABs0V1sTZd4IEzZfWk8GA", "alias": "pick-up-stix-escondido-2", "name": "Pick Up Stix", "image_url": "https://s3-media2.fl.yelpcdn.com/bphoto/2idJuG_mHRHtefdo8Olt-w/o.jpg", "is_closed": false, "url": "https://www.yelp.com/biz/pick-up-stix-escondido-2?adjust_creative=oncXGL2aPIKrtJdnWeFSnA&utm_campaign=yelp_api_v3&utm_medium=api_v3_business_search&utm_source=oncXGL2aPIKrtJdnWeFSnA", "review_count": 86, "categories": [{"alias": "asianfusion", "title": "Asian Fusion"}, {"alias": "chinese", "title": "Chinese"}], "rating": 3.0, "coordinates": {"latitude": 33.1130428658725, "longitude": -117.101114479064}, "transactions": ["delivery", "pickup"], "price": "$", "location": {"address1": "1284 Auto Pkwy", "address2": "Ste E", "address3": "", "city": "Escondido", "zip_code": "92029", "country": "US", "state": "CA", "display_address": ["1284 Auto Pkwy", "Ste E", "Escondido, CA 92029"]}, "phone": "+17604898533", "display_phone": "(760) 489-8533", "distance": 16162.523942759446}, {"id": "NR1WwOMMkq8UZLSgEFGaWA", "alias": "poki-poki-oceanside-2-oceanside-3", "name": "Poki Poki - Oceanside#2", "image_url": "https://s3-media3.fl.yelpcdn.com/bphoto/UcJRsDDP5x8SFMPM3xZV5w/o.jpg", "is_closed": false, "url": "https://www.yelp.com/biz/poki-poki-oceanside-2-oceanside-3?adjust_creative=oncXGL2aPIKrtJdnWeFSnA&utm_campaign=yelp_api_v3&utm_medium=api_v3_business_search&utm_source=oncXGL2aPIKrtJdnWeFSnA", "review_count": 47, "categories": [{"alias": "asianfusion", "title": "Asian Fusion"}, {"alias": "poke", "title": "Poke"}], "rating": 4.0, "coordinates": {"latitude": 33.20741, "longitude": -117.2879}, "transactions": [], "price": "$$", "location": {"address1": "4140 Oceanside Blvd", "address2": "Ste 143", "address3": "", "city": "Oceanside", "zip_code": "92056", "country": "US", "state": "CA", "display_address": ["4140 Oceanside Blvd", "Ste 143", "Oceanside, CA 92056"]}, "phone": "+17602954924", "display_phone": "(760) 295-4924", "distance": 18362.864484989925}, {"id": "5tSSKHxkbtHOpajyB0rr_g", "alias": "pick-up-stix-san-diego-10", "name": "Pick Up Stix", "image_url": "https://s3-media2.fl.yelpcdn.com/bphoto/C4WVPzNPhU_mRq_RBAKwGg/o.jpg", "is_closed": false, "url": "https://www.yelp.com/biz/pick-up-stix-san-diego-10?adjust_creative=oncXGL2aPIKrtJdnWeFSnA&utm_campaign=yelp_api_v3&utm_medium=api_v3_business_search&utm_source=oncXGL2aPIKrtJdnWeFSnA", "review_count": 89, "categories": [{"alias": "chinese", "title": "Chinese"}, {"alias": "asianfusion", "title": "Asian Fusion"}], "rating": 3.0, "coordinates": {"latitude": 32.9153175354004, "longitude": -117.120941162109}, "transactions": ["delivery", "pickup"], "price": "$", "location": {"address1": "10712 Westview Pkwy", "address2": "Ste 205", "address3": "", "city": "San Diego", "zip_code": "92126", "country": "US", "state": "CA", "display_address": ["10712 Westview Pkwy", "Ste 205", "San Diego, CA 92126"]}, "phone": "+18585479553", "display_phone": "(858) 547-9553", "distance": 19055.27740228074}], "total": 47, "region": {"center": {"longitude": -117.25433349609375, "latitude": 33.04488992556048}}}