{"businesses": [{"id": "HBQevRaTZ6RC9xyWFCrfow", "alias": "gen-korean-bbq-house-san-diego-4", "name": "Gen Korean BBQ House", "image_url": "https://s3-media2.fl.yelpcdn.com/bphoto/iJWnMybeZKwZEDUCH1y8sA/o.jpg", "is_closed": false, "url": "https://www.yelp.com/biz/gen-korean-bbq-house-san-diego-4?adjust_creative=oncXGL2aPIKrtJdnWeFSnA&utm_campaign=yelp_api_v3&utm_medium=api_v3_business_search&utm_source=oncXGL2aPIKrtJdnWeFSnA", "review_count": 501, "categories": [{"alias": "korean", "title": "Korean"}, {"alias": "bbq", "title": "Barbeque"}], "rating": 4.0, "coordinates": {"latitude": 32.916450186644, "longitude": -117.11930559062}, "transactions": [], "price": "$$", "location": {"address1": "10765 Westview Pkwy", "address2": "", "address3": null, "city": "San Diego", "zip_code": "92126", "country": "US", "state": "CA", "display_address": ["10765 Westview Pkwy", "San Diego, CA 92126"]}, "phone": "+18588001157", "display_phone": "(858) 800-1157", "distance": 19042.10887608818}, {"id": "E4odb7GTXjC8sEmFu7Jw8w", "alias": "phils-bbq-san-marcos", "name": "Phil's BBQ", "image_url": "https://s3-media1.fl.yelpcdn.com/bphoto/Ybgs15rzYKPwz6nz7Uc8Pg/o.jpg", "is_closed": false, "url": "https://www.yelp.com/biz/phils-bbq-san-marcos?adjust_creative=oncXGL2aPIKrtJdnWeFSnA&utm_campaign=yelp_api_v3&utm_medium=api_v3_business_search&utm_source=oncXGL2aPIKrtJdnWeFSnA", "review_count": 2343, "categories": [{"alias": "bbq", "title": "Barbeque"}, {"alias": "sportsbars", "title": "Sports Bars"}, {"alias": "burgers", "title": "Burgers"}], "rating": 4.0, "coordinates": {"latitude": 33.137024, "longitude": -117.176707}, "transactions": [], "price": "$$", "location": {"address1": "579 Grand Ave", "address2": "", "address3": "", "city": "San Marcos", "zip_code": "92078", "country": "US", "state": "CA", "display_address": ["579 Grand Ave", "San Marcos, CA 92078"]}, "phone": "+17607591400", "display_phone": "(760) 759-1400", "distance": 12540.066754524416}, {"id": "UctoBF4xKjp6Ng_UlIXACQ", "alias": "cardiff-crack-cardiff", "name": "Cardiff Crack", "image_url": "https://s3-media3.fl.yelpcdn.com/bphoto/aeEmxoF2TDhlpmO-qlb38A/o.jpg", "is_closed": false, "url": "https://www.yelp.com/biz/cardiff-crack-cardiff?adjust_creative=oncXGL2aPIKrtJdnWeFSnA&utm_campaign=yelp_api_v3&utm_medium=api_v3_business_search&utm_source=oncXGL2aPIKrtJdnWeFSnA", "review_count": 1, "categories": [{"alias": "bbq", "title": "Barbeque"}, {"alias": "foodstands", "title": "Food Stands"}], "rating": 4.0, "coordinates": {"latitude": 33.0217231785512, "longitude": -117.282038359212}, "transactions": [], "location": {"address1": "2087 San Elijo Ave", "address2": "", "address3": "Seaside Market", "city": "Cardiff", "zip_code": "92007", "country": "US", "state": "CA", "display_address": ["2087 San Elijo Ave", "Seaside Market", "Cardiff, CA 92007"]}, "phone": "+17607535445", "display_phone": "(760) 753-5445", "distance": 3647.744502496899}, {"id": "S4VR-89OVC5FEcKh9fu3xg", "alias": "miss-kims-by-that-boy-good-oceanside", "name": "Miss Kim's by That Boy Good", "image_url": "https://s3-media3.fl.yelpcdn.com/bphoto/ehPsdtO0TqF2qW90jeQurw/o.jpg", "is_closed": false, "url": "https://www.yelp.com/biz/miss-kims-by-that-boy-good-oceanside?adjust_creative=oncXGL2aPIKrtJdnWeFSnA&utm_campaign=yelp_api_v3&utm_medium=api_v3_business_search&utm_source=oncXGL2aPIKrtJdnWeFSnA", "review_count": 1731, "categories": [{"alias": "bbq", "title": "Barbeque"}, {"alias": "southern", "title": "Southern"}, {"alias": "soulfood", "title": "Soul Food"}], "rating": 4.5, "coordinates": {"latitude": 33.1960428, "longitude": -117.3800083}, "transactions": [], "price": "$$", "location": {"address1": "207 N Coast Hwy", "address2": "", "address3": "", "city": "Oceanside", "zip_code": "92054", "country": "US", "state": "CA", "display_address": ["207 N Coast Hwy", "Oceanside, CA 92054"]}, "phone": "+17607541275", "display_phone": "(760) 754-1275", "distance": 20480.959811660436}, {"id": "tkQS0Ffox1NKL4p8ISVzPA", "alias": "manna-korean-bbq-san-marcos", "name": "Manna Korean BBQ", "image_url": "https://s3-media3.fl.yelpcdn.com/bphoto/jIY7G0wX-y9MG4NXIiU55g/o.jpg", "is_closed": false, "url": "https://www.yelp.com/biz/manna-korean-bbq-san-marcos?adjust_creative=oncXGL2aPIKrtJdnWeFSnA&utm_campaign=yelp_api_v3&utm_medium=api_v3_business_search&utm_source=oncXGL2aPIKrtJdnWeFSnA", "review_count": 790, "categories": [{"alias": "korean", "title": "Korean"}, {"alias": "bbq", "title": "Barbeque"}], "rating": 4.0, "coordinates": {"latitude": 33.1344023, "longitude": -117.1197782}, "transactions": [], "price": "$$", "location": {"address1": "740 Nordahl Rd", "address2": "", "address3": "", "city": "San Marcos", "zip_code": "92069", "country": "US", "state": "CA", "display_address": ["740 Nordahl Rd", "San Marcos, CA 92069"]}, "phone": "+17607433300", "display_phone": "(760) 743-3300", "distance": 16053.856165832784}, {"id": "v8YZ85Bx0P_HJXclLeIjgQ", "alias": "felixs-bbq-with-soul-oceanside", "name": "Felix's BBQ With Soul", "image_url": "https://s3-media2.fl.yelpcdn.com/bphoto/5R0e7-wtzb64DcSTfAka8A/o.jpg", "is_closed": false, "url": "https://www.yelp.com/biz/felixs-bbq-with-soul-oceanside?adjust_creative=oncXGL2aPIKrtJdnWeFSnA&utm_campaign=yelp_api_v3&utm_medium=api_v3_business_search&utm_source=oncXGL2aPIKrtJdnWeFSnA", "review_count": 1456, "categories": [{"alias": "southern", "title": "Southern"}, {"alias": "bbq", "title": "Barbeque"}, {"alias": "soulfood", "title": "Soul Food"}], "rating": 4.5, "coordinates": {"latitude": 33.210161, "longitude": -117.311183}, "transactions": [], "price": "$$", "location": {"address1": "3613 Ocean Ranch Blvd", "address2": "", "address3": null, "city": "Oceanside", "zip_code": "92056", "country": "US", "state": "CA", "display_address": ["3613 Ocean Ranch Blvd", "Oceanside, CA 92056"]}, "phone": "+17604397072", "display_phone": "(760) 439-7072", "distance": 19124.581276854344}, {"id": "bo_MkHA5nc6jkBDDQjhVxQ", "alias": "one-love-island-cuisine-oceanside", "name": "One Love Island Cuisine", "image_url": "https://s3-media3.fl.yelpcdn.com/bphoto/iwp1eSLGrQe64ePCF9sGEA/o.jpg", "is_closed": false, "url": "https://www.yelp.com/biz/one-love-island-cuisine-oceanside?adjust_creative=oncXGL2aPIKrtJdnWeFSnA&utm_campaign=yelp_api_v3&utm_medium=api_v3_business_search&utm_source=oncXGL2aPIKrtJdnWeFSnA", "review_count": 311, "categories": [{"alias": "caribbean", "title": "Caribbean"}, {"alias": "bbq", "title": "Barbeque"}, {"alias": "seafood", "title": "Seafood"}], "rating": 4.5, "coordinates": {"latitude": 33.207439, "longitude": -117.2833753}, "transactions": ["pickup"], "price": "$", "location": {"address1": "4225 Oceanside Blvd", "address2": "Ste K", "address3": "", "city": "Oceanside", "zip_code": "92056", "country": "US", "state": "CA", "display_address": ["4225 Oceanside Blvd", "Ste K", "Oceanside, CA 92056"]}, "phone": "+17606854618", "display_phone": "(760) 685-4618", "distance": 18200.488412817554}, {"id": "KpdNbeKmPlMJG3ETA0-Lgw", "alias": "phils-bbq-san-diego-14", "name": "Phil's BBQ", "image_url": "https://s3-media4.fl.yelpcdn.com/bphoto/S-eNr5bDTgGD1moNPKJJQA/o.jpg", "is_closed": false, "url": "https://www.yelp.com/biz/phils-bbq-san-diego-14?adjust_creative=oncXGL2aPIKrtJdnWeFSnA&utm_campaign=yelp_api_v3&utm_medium=api_v3_business_search&utm_source=oncXGL2aPIKrtJdnWeFSnA", "review_count": 896, "categories": [{"alias": "bbq", "title": "Barbeque"}, {"alias": "sportsbars", "title": "Sports Bars"}, {"alias": "newamerican", "title": "American (New)"}], "rating": 4.0, "coordinates": {"latitude": 33.0241979119123, "longitude": -117.080954991213}, "transactions": [], "price": "$$", "location": {"address1": "17051 W Bernardo Dr", "address2": "", "address3": "", "city": "San Diego", "zip_code": "92127", "country": "US", "state": "CA", "display_address": ["17051 W Bernardo Dr", "San Diego, CA 92127"]}, "phone": "+18583126161", "display_phone": "(858) 312-6161", "distance": 16325.16925683841}, {"id": "Mg-dCDwJ9pqTaGNXb5OhNg", "alias": "park-101-carlsbad", "name": "Park 101", "image_url": "https://s3-media1.fl.yelpcdn.com/bphoto/PUcvZJSEe74i7F8pN17AGw/o.jpg", "is_closed": false, "url": "https://www.yelp.com/biz/park-101-carlsbad?adjust_creative=oncXGL2aPIKrtJdnWeFSnA&utm_campaign=yelp_api_v3&utm_medium=api_v3_business_search&utm_source=oncXGL2aPIKrtJdnWeFSnA", "review_count": 399, "categories": [{"alias": "bars", "title": "Bars"}, {"alias": "bbq", "title": "Barbeque"}, {"alias": "coffee", "title": "Coffee & Tea"}], "rating": 3.5, "coordinates": {"latitude": 33.157541081537, "longitude": -117.350573629938}, "transactions": [], "price": "$$", "location": {"address1": "3040 Carlsbad Blvd", "address2": "", "address3": null, "city": "Carlsbad", "zip_code": "92008", "country": "US", "state": "CA", "display_address": ["3040 Carlsbad Blvd", "Carlsbad, CA 92008"]}, "phone": "+17604342217", "display_phone": "(760) 434-2217", "distance": 15403.603372733152}, {"id": "SIF2ODB6bcmKqbj0luBOHg", "alias": "manna-bbq-san-diego", "name": "Manna BBQ", "image_url": "https://s3-media3.fl.yelpcdn.com/bphoto/f6IEtQTsUxm_TXKWaxU1wA/o.jpg", "is_closed": false, "url": "https://www.yelp.com/biz/manna-bbq-san-diego?adjust_creative=oncXGL2aPIKrtJdnWeFSnA&utm_campaign=yelp_api_v3&utm_medium=api_v3_business_search&utm_source=oncXGL2aPIKrtJdnWeFSnA", "review_count": 1203, "categories": [{"alias": "korean", "title": "Korean"}, {"alias": "bbq", "title": "Barbeque"}], "rating": 4.5, "coordinates": {"latitude": 32.9129206848645, "longitude": -117.1476405859}, "transactions": [], "price": "$$", "location": {"address1": "8188 Mira Mesa Blvd", "address2": "", "address3": "", "city": "San Diego", "zip_code": "92126", "country": "US", "state": "CA", "display_address": ["8188 Mira Mesa Blvd", "San Diego, CA 92126"]}, "phone": "+18585780300", "display_phone": "(858) 578-0300", "distance": 17730.745071435034}, {"id": "nRKvaT9vmo_XwTRw6QK16Q", "alias": "surf-brothers-teriyaki-carlsbad", "name": "Surf Brothers Teriyaki", "image_url": "https://s3-media4.fl.yelpcdn.com/bphoto/Qw6in2aB9moeBBHhMa4LYQ/o.jpg", "is_closed": false, "url": "https://www.yelp.com/biz/surf-brothers-teriyaki-carlsbad?adjust_creative=oncXGL2aPIKrtJdnWeFSnA&utm_campaign=yelp_api_v3&utm_medium=api_v3_business_search&utm_source=oncXGL2aPIKrtJdnWeFSnA", "review_count": 251, "categories": [{"alias": "hawaiian", "title": "Hawaiian"}, {"alias": "bbq", "title": "Barbeque"}, {"alias": "hotdogs", "title": "Fast Food"}], "rating": 4.0, "coordinates": {"latitude": 33.13106, "longitude": -117.260566}, "transactions": [], "price": "$", "location": {"address1": "2708 Loker Ave W", "address2": "Ste 103", "address3": "", "city": "Carlsbad", "zip_code": "92010", "country": "US", "state": "CA", "display_address": ["2708 Loker Ave W", "Ste 103", "Carlsbad, CA 92010"]}, "phone": "+17604597973", "display_phone": "(760) 459-7973", "distance": 9599.241288906673}, {"id": "3yYNEZEUPGha8eTziQ_U7g", "alias": "gyu-kaku-japanese-bbq-san-diego-2", "name": "Gyu-Kaku Japanese BBQ", "image_url": "https://s3-media2.fl.yelpcdn.com/bphoto/Orf5KT1NJ3Gxf6O3S0kh7Q/o.jpg", "is_closed": false, "url": "https://www.yelp.com/biz/gyu-kaku-japanese-bbq-san-diego-2?adjust_creative=oncXGL2aPIKrtJdnWeFSnA&utm_campaign=yelp_api_v3&utm_medium=api_v3_business_search&utm_source=oncXGL2aPIKrtJdnWeFSnA", "review_count": 901, "categories": [{"alias": "japanese", "title": "Japanese"}, {"alias": "bbq", "title": "Barbeque"}], "rating": 4.0, "coordinates": {"latitude": 32.9148970454609, "longitude": -117.114134112891}, "transactions": [], "price": "$$", "location": {"address1": "9844 Hibert St", "address2": "Ste G-1", "address3": "", "city": "San Diego", "zip_code": "92131", "country": "US", "state": "CA", "display_address": ["9844 Hibert St", "Ste G-1", "San Diego, CA 92131"]}, "phone": "+18586933790", "display_phone": "(858) 693-3790", "distance": 19492.340562500965}, {"id": "-P6SNjK8HjMv94JzZCHtAA", "alias": "guahan-grill-oceanside", "name": "Guahan Grill", "image_url": "https://s3-media4.fl.yelpcdn.com/bphoto/g4TGtuPeRHhMOS-_IirE1g/o.jpg", "is_closed": false, "url": "https://www.yelp.com/biz/guahan-grill-oceanside?adjust_creative=oncXGL2aPIKrtJdnWeFSnA&utm_campaign=yelp_api_v3&utm_medium=api_v3_business_search&utm_source=oncXGL2aPIKrtJdnWeFSnA", "review_count": 707, "categories": [{"alias": "bbq", "title": "Barbeque"}, {"alias": "guamanian", "title": "Guamanian"}], "rating": 4.5, "coordinates": {"latitude": 33.2085638, "longitude": -117.2810813}, "transactions": ["delivery", "pickup"], "price": "$$", "location": {"address1": "4259 Oceanside Blvd", "address2": "Ste 104", "address3": "", "city": "Oceanside", "zip_code": "92056", "country": "US", "state": "CA", "display_address": ["4259 Oceanside Blvd", "Ste 104", "Oceanside, CA 92056"]}, "phone": "+17608064826", "display_phone": "(760) 806-4826", "distance": 18353.62504945225}, {"id": "xWqmcC9uVZ_giCib-89SFQ", "alias": "nanays-best-bbq-san-diego", "name": "Nanay's Best BBQ", "image_url": "https://s3-media4.fl.yelpcdn.com/bphoto/iCVudzsa8LcYyyVRVbA5qw/o.jpg", "is_closed": false, "url": "https://www.yelp.com/biz/nanays-best-bbq-san-diego?adjust_creative=oncXGL2aPIKrtJdnWeFSnA&utm_campaign=yelp_api_v3&utm_medium=api_v3_business_search&utm_source=oncXGL2aPIKrtJdnWeFSnA", "review_count": 209, "categories": [{"alias": "bbq", "title": "Barbeque"}, {"alias": "filipino", "title": "Filipino"}], "rating": 4.0, "coordinates": {"latitude": 32.9064147002979, "longitude": -117.173668406904}, "transactions": [], "price": "$", "location": {"address1": "6715 Mira Mesa Blvd", "address2": "Ste 103", "address3": "", "city": "San Diego", "zip_code": "92121", "country": "US", "state": "CA", "display_address": ["6715 Mira Mesa Blvd", "Ste 103", "San Diego, CA 92121"]}, "phone": "+18586250827", "display_phone": "(858) 625-0827", "distance": 17137.938551720465}, {"id": "clsIl6MbH925NQaDsvcyYg", "alias": "gogi-blvd-san-diego-3", "name": "Gogi blvd", "image_url": "https://s3-media1.fl.yelpcdn.com/bphoto/ci-YFTv3-Nbyl1D-w8KaLg/o.jpg", "is_closed": false, "url": "https://www.yelp.com/biz/gogi-blvd-san-diego-3?adjust_creative=oncXGL2aPIKrtJdnWeFSnA&utm_campaign=yelp_api_v3&utm_medium=api_v3_business_search&utm_source=oncXGL2aPIKrtJdnWeFSnA", "review_count": 1, "categories": [{"alias": "korean", "title": "Korean"}, {"alias": "foodtrucks", "title": "Food Trucks"}, {"alias": "bbq", "title": "Barbeque"}], "rating": 5.0, "coordinates": {"latitude": 32.9063005870897, "longitude": -117.173608824054}, "transactions": [], "location": {"address1": "6755 Mira Mesa Blvd", "address2": "Ste 109", "address3": null, "city": "San Diego", "zip_code": "92121", "country": "US", "state": "CA", "display_address": ["6755 Mira Mesa Blvd", "Ste 109", "San Diego, CA 92121"]}, "phone": "+18584050717", "display_phone": "(858) 405-0717", "distance": 17151.781327154185}, {"id": "AVXXhtP1RlSOm6hDd7_5og", "alias": "when-pigs-fly-bbq-vista-8", "name": "When Pigs Fly BBQ", "image_url": "https://s3-media1.fl.yelpcdn.com/bphoto/4_lb67MzQSW8ImruZYrsEQ/o.jpg", "is_closed": false, "url": "https://www.yelp.com/biz/when-pigs-fly-bbq-vista-8?adjust_creative=oncXGL2aPIKrtJdnWeFSnA&utm_campaign=yelp_api_v3&utm_medium=api_v3_business_search&utm_source=oncXGL2aPIKrtJdnWeFSnA", "review_count": 128, "categories": [{"alias": "bbq", "title": "Barbeque"}, {"alias": "desserts", "title": "Desserts"}, {"alias": "sandwiches", "title": "Sandwiches"}], "rating": 4.0, "coordinates": {"latitude": 33.2027859, "longitude": -117.2419369}, "transactions": [], "price": "$$", "location": {"address1": "230 Main St", "address2": "", "address3": null, "city": "Vista", "zip_code": "92084", "country": "US", "state": "CA", "display_address": ["230 Main St", "Vista, CA 92084"]}, "phone": "+17602957993", "display_phone": "(760) 295-7993", "distance": 17595.124095302428}, {"id": "IOAZuBbfMSOSFiWDFwXS9Q", "alias": "bts-southern-bbq-san-diego", "name": "BT's Southern BBQ", "image_url": "https://s3-media4.fl.yelpcdn.com/bphoto/zN4Jy0hjEHSSrpLzrNC74w/o.jpg", "is_closed": false, "url": "https://www.yelp.com/biz/bts-southern-bbq-san-diego?adjust_creative=oncXGL2aPIKrtJdnWeFSnA&utm_campaign=yelp_api_v3&utm_medium=api_v3_business_search&utm_source=oncXGL2aPIKrtJdnWeFSnA", "review_count": 233, "categories": [{"alias": "bbq", "title": "Barbeque"}], "rating": 3.5, "coordinates": {"latitude": 32.9619726, "longitude": -117.1541906}, "transactions": ["delivery", "pickup"], "price": "$$", "location": {"address1": "7845 Highlands Village Pl C101", "address2": "", "address3": "", "city": "San Diego", "zip_code": "92129", "country": "US", "state": "CA", "display_address": ["7845 Highlands Village Pl C101", "San Diego, CA 92129"]}, "phone": "+18584843952", "display_phone": "(858) 484-3952", "distance": 13123.12107694269}, {"id": "zEAiA-azaeJAy2NDWbmuCA", "alias": "that-boy-good-oceanside-3", "name": "That Boy Good", "image_url": "https://s3-media4.fl.yelpcdn.com/bphoto/5FTzrgceBjh5vRo9Vauhmg/o.jpg", "is_closed": false, "url": "https://www.yelp.com/biz/that-boy-good-oceanside-3?adjust_creative=oncXGL2aPIKrtJdnWeFSnA&utm_campaign=yelp_api_v3&utm_medium=api_v3_business_search&utm_source=oncXGL2aPIKrtJdnWeFSnA", "review_count": 70, "categories": [{"alias": "bbq", "title": "Barbeque"}, {"alias": "soulfood", "title": "Soul Food"}, {"alias": "southern", "title": "Southern"}], "rating": 4.0, "coordinates": {"latitude": 33.19979, "longitude": -117.37674}, "transactions": [], "price": "$$", "location": {"address1": "326 N Horne St", "address2": "", "address3": null, "city": "Oceanside", "zip_code": "92054", "country": "US", "state": "CA", "display_address": ["326 N Horne St", "Oceanside, CA 92054"]}, "phone": "+17607541275", "display_phone": "(760) 754-1275", "distance": 20668.77784073341}, {"id": "KOSH01zSmmRHy2fhUkUuzA", "alias": "abbeys-real-texas-bbq-san-diego-2", "name": "Abbey's Real Texas BBQ", "image_url": "https://s3-media3.fl.yelpcdn.com/bphoto/IxzDuo5MHuTAWJhsjB7kyA/o.jpg", "is_closed": false, "url": "https://www.yelp.com/biz/abbeys-real-texas-bbq-san-diego-2?adjust_creative=oncXGL2aPIKrtJdnWeFSnA&utm_campaign=yelp_api_v3&utm_medium=api_v3_business_search&utm_source=oncXGL2aPIKrtJdnWeFSnA", "review_count": 707, "categories": [{"alias": "bbq", "title": "Barbeque"}], "rating": 3.5, "coordinates": {"latitude": 32.8788277772491, "longitude": -117.167453058064}, "transactions": ["pickup", "delivery"], "price": "$$", "location": {"address1": "6904 Miramar Rd", "address2": "Ste 211", "address3": "", "city": "San Diego", "zip_code": "92121", "country": "US", "state": "CA", "display_address": ["6904 Miramar Rd", "Ste 211", "San Diego, CA 92121"]}, "phone": "+18585662333", "display_phone": "(858) 566-2333", "distance": 20165.964553849706}, {"id": "oTCWNR4gpJ7kkQkffELdog", "alias": "enzos-bbq-and-alehouse-oceanside", "name": "Enzo's BBQ & Alehouse", "image_url": "https://s3-media1.fl.yelpcdn.com/bphoto/6EGkg0HRbvWh_yzl2oDyfw/o.jpg", "is_closed": false, "url": "https://www.yelp.com/biz/enzos-bbq-and-alehouse-oceanside?adjust_creative=oncXGL2aPIKrtJdnWeFSnA&utm_campaign=yelp_api_v3&utm_medium=api_v3_business_search&utm_source=oncXGL2aPIKrtJdnWeFSnA", "review_count": 504, "categories": [{"alias": "bbq", "title": "Barbeque"}, {"alias": "gourmet", "title": "Specialty Food"}], "rating": 4.0, "coordinates": {"latitude": 33.20575, "longitude": -117.28834}, "transactions": [], "price": "$$", "location": {"address1": "4121 Oceanside Blvd", "address2": "", "address3": "", "city": "Oceanside", "zip_code": "92056", "country": "US", "state": "CA", "display_address": ["4121 Oceanside Blvd", "Oceanside, CA 92056"]}, "phone": "+17606439602", "display_phone": "(760) 643-9602", "distance": 18179.21509469758}, {"id": "8SnzXDzn1LIJYdEMN7AzaQ", "alias": "smokey-jakes-bbq-vista", "name": "Smokey Jake's BBQ", "image_url": "https://s3-media3.fl.yelpcdn.com/bphoto/CZ_g3dtT-nRyiBzk0whyhg/o.jpg", "is_closed": false, "url": "https://www.yelp.com/biz/smokey-jakes-bbq-vista?adjust_creative=oncXGL2aPIKrtJdnWeFSnA&utm_campaign=yelp_api_v3&utm_medium=api_v3_business_search&utm_source=oncXGL2aPIKrtJdnWeFSnA", "review_count": 12, "categories": [{"alias": "foodstands", "title": "Food Stands"}, {"alias": "bbq", "title": "Barbeque"}], "rating": 4.5, "coordinates": {"latitude": 33.1679534912109, "longitude": -117.225868225098}, "transactions": [], "location": {"address1": "", "address2": "", "address3": "", "city": "Vista", "zip_code": "92081", "country": "US", "state": "CA", "display_address": ["Vista, CA 92081"]}, "phone": "+17604405475", "display_phone": "(760) 440-5475", "distance": 14788.42883802024}, {"id": "iTkh5PmsoaLL-Dwjsbda1A", "alias": "ohana-hawaiian-bbq-vista", "name": "Ohana Hawaiian BBQ", "image_url": "https://s3-media2.fl.yelpcdn.com/bphoto/NLqFvenrfLGzyGim88sC8A/o.jpg", "is_closed": false, "url": "https://www.yelp.com/biz/ohana-hawaiian-bbq-vista?adjust_creative=oncXGL2aPIKrtJdnWeFSnA&utm_campaign=yelp_api_v3&utm_medium=api_v3_business_search&utm_source=oncXGL2aPIKrtJdnWeFSnA", "review_count": 117, "categories": [{"alias": "hawaiian", "title": "Hawaiian"}, {"alias": "bbq", "title": "Barbeque"}], "rating": 4.0, "coordinates": {"latitude": 33.1886176834493, "longitude": -117.254448160529}, "transactions": [], "price": "$", "location": {"address1": "485 S Melrose Dr", "address2": "", "address3": "", "city": "Vista", "zip_code": "92081", "country": "US", "state": "CA", "display_address": ["485 S Melrose Dr", "Vista, CA 92081"]}, "phone": "+17606431226", "display_phone": "(760) 643-1226", "distance": 15981.783337624614}, {"id": "EOfdLZwH_MRhRHrAA7pA2Q", "alias": "m-bbq-oceanside", "name": "M. BBQ", "image_url": "https://s3-media1.fl.yelpcdn.com/bphoto/8eUi3KhZZw_3ZhCpnUXcmw/o.jpg", "is_closed": false, "url": "https://www.yelp.com/biz/m-bbq-oceanside?adjust_creative=oncXGL2aPIKrtJdnWeFSnA&utm_campaign=yelp_api_v3&utm_medium=api_v3_business_search&utm_source=oncXGL2aPIKrtJdnWeFSnA", "review_count": 55, "categories": [{"alias": "korean", "title": "Korean"}, {"alias": "bbq", "title": "Barbeque"}, {"alias": "buffets", "title": "Buffets"}], "rating": 3.5, "coordinates": {"latitude": 33.18548, "longitude": -117.32733}, "transactions": [], "price": "$$", "location": {"address1": "2216 S El Camino Real", "address2": "108  109", "address3": "", "city": "Oceanside", "zip_code": "92054", "country": "US", "state": "CA", "display_address": ["2216 S El Camino Real", "108  109", "Oceanside, CA 92054"]}, "phone": "+17604331888", "display_phone": "(760) 433-1888", "distance": 17112.971949167804}, {"id": "okfpAclrSbJCXt3854GOQA", "alias": "up-in-smoke-escondido", "name": "Up In Smoke", "image_url": "https://s3-media3.fl.yelpcdn.com/bphoto/XpGBhkK6iaT4oKTvTKVquQ/o.jpg", "is_closed": false, "url": "https://www.yelp.com/biz/up-in-smoke-escondido?adjust_creative=oncXGL2aPIKrtJdnWeFSnA&utm_campaign=yelp_api_v3&utm_medium=api_v3_business_search&utm_source=oncXGL2aPIKrtJdnWeFSnA", "review_count": 20, "categories": [{"alias": "foodtrucks", "title": "Food Trucks"}, {"alias": "bbq", "title": "Barbeque"}, {"alias": "catering", "title": "Caterers"}], "rating": 4.5, "coordinates": {"latitude": 33.12692, "longitude": -117.07505}, "transactions": [], "price": "$$", "location": {"address1": "", "address2": null, "address3": "", "city": "Escondido", "zip_code": "92025", "country": "US", "state": "CA", "display_address": ["Escondido, CA 92025"]}, "phone": "+17322458051", "display_phone": "(732) 245-8051", "distance": 19699.655166617347}, {"id": "qM5NeJk4A8tSfdosbgUAdQ", "alias": "l-and-l-hawaiian-barbecue-oceanside-2", "name": "L&L Hawaiian Barbecue", "image_url": "https://s3-media2.fl.yelpcdn.com/bphoto/jWipNNKBB4ZCetHL1Qaalw/o.jpg", "is_closed": false, "url": "https://www.yelp.com/biz/l-and-l-hawaiian-barbecue-oceanside-2?adjust_creative=oncXGL2aPIKrtJdnWeFSnA&utm_campaign=yelp_api_v3&utm_medium=api_v3_business_search&utm_source=oncXGL2aPIKrtJdnWeFSnA", "review_count": 131, "categories": [{"alias": "bbq", "title": "Barbeque"}, {"alias": "hawaiian", "title": "Hawaiian"}], "rating": 4.0, "coordinates": {"latitude": 33.2065510147543, "longitude": -117.283936571967}, "transactions": [], "price": "$", "location": {"address1": "4225 Oceanside Blvd", "address2": "Ste E", "address3": null, "city": "Oceanside", "zip_code": "92056", "country": "US", "state": "CA", "display_address": ["4225 Oceanside Blvd", "Ste E", "Oceanside, CA 92056"]}, "phone": "+17607260888", "display_phone": "(760) 726-0888", "distance": 18186.024721071393}, {"id": "ACvedwCO6bqwEBSPRU8xYQ", "alias": "l-and-l-hawaiian-barbecue-san-marcos", "name": "L&L Hawaiian Barbecue", "image_url": "https://s3-media2.fl.yelpcdn.com/bphoto/TqnybThRajAuC52rtwQfnw/o.jpg", "is_closed": false, "url": "https://www.yelp.com/biz/l-and-l-hawaiian-barbecue-san-marcos?adjust_creative=oncXGL2aPIKrtJdnWeFSnA&utm_campaign=yelp_api_v3&utm_medium=api_v3_business_search&utm_source=oncXGL2aPIKrtJdnWeFSnA", "review_count": 216, "categories": [{"alias": "hawaiian", "title": "Hawaiian"}, {"alias": "bbq", "title": "Barbeque"}], "rating": 3.0, "coordinates": {"latitude": 33.140768, "longitude": -117.191111}, "transactions": ["delivery", "pickup"], "price": "$", "location": {"address1": "137 S Las Posas Rd", "address2": "Ste 152", "address3": "", "city": "San Marcos", "zip_code": "92078", "country": "US", "state": "CA", "display_address": ["137 S Las Posas Rd", "Ste 152", "San Marcos, CA 92078"]}, "phone": "+17602903036", "display_phone": "(760) 290-3036", "distance": 12251.210767366445}, {"id": "dpL_tWbqwiUhk4wU0tewqw", "alias": "dickeys-barbecue-pit-san-marcos-5", "name": "Dickey's Barbecue Pit", "image_url": "https://s3-media1.fl.yelpcdn.com/bphoto/r7a5VgkLfuk84KhGfxxmoA/o.jpg", "is_closed": false, "url": "https://www.yelp.com/biz/dickeys-barbecue-pit-san-marcos-5?adjust_creative=oncXGL2aPIKrtJdnWeFSnA&utm_campaign=yelp_api_v3&utm_medium=api_v3_business_search&utm_source=oncXGL2aPIKrtJdnWeFSnA", "review_count": 62, "categories": [{"alias": "bbq", "title": "Barbeque"}, {"alias": "tradamerican", "title": "American (Traditional)"}, {"alias": "southern", "title": "Southern"}], "rating": 3.0, "coordinates": {"latitude": 33.1300776, "longitude": -117.1651111}, "transactions": ["delivery", "pickup"], "price": "$$", "location": {"address1": "344 S Twin Oaks Valley Rd", "address2": "", "address3": null, "city": "San Marcos", "zip_code": "92078", "country": "US", "state": "CA", "display_address": ["344 S Twin Oaks Valley Rd", "San Marcos, CA 92078"]}, "phone": "+17609992115", "display_phone": "(760) 999-2115", "distance": 12708.726555243544}, {"id": "L3uofdExs33e1UtiQ_leeg", "alias": "sunset-29-bbq-san-francisco", "name": "Sunset 29 BBQ", "image_url": "https://s3-media4.fl.yelpcdn.com/bphoto/FGnxRKegNllHI9D9BiwO0A/o.jpg", "is_closed": false, "url": "https://www.yelp.com/biz/sunset-29-bbq-san-francisco?adjust_creative=oncXGL2aPIKrtJdnWeFSnA&utm_campaign=yelp_api_v3&utm_medium=api_v3_business_search&utm_source=oncXGL2aPIKrtJdnWeFSnA", "review_count": 6, "categories": [{"alias": "bbq", "title": "Barbeque"}], "rating": 5.0, "coordinates": {"latitude": 37.727274, "longitude": -122.365613}, "transactions": [], "location": {"address1": "103 Horne Ave", "address2": "", "address3": null, "city": "San Francisco", "zip_code": "94116", "country": "US", "state": "CA", "display_address": ["103 Horne Ave", "San Francisco, CA 94116"]}, "phone": "+14157232929", "display_phone": "(415) 723-2929", "distance": 20309.11352693051}, {"id": "XO-6NGi_q8nJCJ5YGNFanQ", "alias": "the-bbq-bus-oceanside", "name": "The BBQ Bus", "image_url": "https://s3-media3.fl.yelpcdn.com/bphoto/IYIKGkUFb3coNn5iqTFgiA/o.jpg", "is_closed": false, "url": "https://www.yelp.com/biz/the-bbq-bus-oceanside?adjust_creative=oncXGL2aPIKrtJdnWeFSnA&utm_campaign=yelp_api_v3&utm_medium=api_v3_business_search&utm_source=oncXGL2aPIKrtJdnWeFSnA", "review_count": 6, "categories": [{"alias": "foodtrucks", "title": "Food Trucks"}, {"alias": "catering", "title": "Caterers"}, {"alias": "bbq", "title": "Barbeque"}], "rating": 5.0, "coordinates": {"latitude": 33.18951, "longitude": -117.37193}, "transactions": [], "location": {"address1": "", "address2": "", "address3": "", "city": "Oceanside", "zip_code": "92054", "country": "US", "state": "CA", "display_address": ["Oceanside, CA 92054"]}, "phone": "+19496424235", "display_phone": "(949) 642-4235", "distance": 19502.21236998214}, {"id": "4OUnF6Oq5hf5Ye4CO94LeA", "alias": "primo-foods-oceanside", "name": "Primo Foods", "image_url": "https://s3-media1.fl.yelpcdn.com/bphoto/ut8ENfr89bZ3I858uQEDsA/o.jpg", "is_closed": false, "url": "https://www.yelp.com/biz/primo-foods-oceanside?adjust_creative=oncXGL2aPIKrtJdnWeFSnA&utm_campaign=yelp_api_v3&utm_medium=api_v3_business_search&utm_source=oncXGL2aPIKrtJdnWeFSnA", "review_count": 246, "categories": [{"alias": "grocery", "title": "Grocery"}, {"alias": "bbq", "title": "Barbeque"}], "rating": 4.0, "coordinates": {"latitude": 33.17918, "longitude": -117.36406}, "transactions": ["delivery", "pickup"], "price": "$", "location": {"address1": "606 Morse St", "address2": "", "address3": "", "city": "Oceanside", "zip_code": "92054", "country": "US", "state": "CA", "display_address": ["606 Morse St", "Oceanside, CA 92054"]}, "phone": "+17604398711", "display_phone": "(760) 439-8711", "distance": 18092.849760015375}, {"id": "4sEfZnKg998s2iTPPdEcgA", "alias": "don-ellis-bbq-san-diego-3", "name": "Don Ellis BBQ", "image_url": "https://s3-media4.fl.yelpcdn.com/bphoto/-CmZMFzZl6q_wRXpwHzoZg/o.jpg", "is_closed": false, "url": "https://www.yelp.com/biz/don-ellis-bbq-san-diego-3?adjust_creative=oncXGL2aPIKrtJdnWeFSnA&utm_campaign=yelp_api_v3&utm_medium=api_v3_business_search&utm_source=oncXGL2aPIKrtJdnWeFSnA", "review_count": 11, "categories": [{"alias": "bbq", "title": "Barbeque"}, {"alias": "foodtrucks", "title": "Food Trucks"}], "rating": 4.0, "coordinates": {"latitude": 32.93266, "longitude": -117.08991}, "transactions": [], "price": "$", "location": {"address1": "", "address2": null, "address3": "", "city": "San Diego", "zip_code": "92131", "country": "US", "state": "CA", "display_address": ["San Diego, CA 92131"]}, "phone": "+16196002240", "display_phone": "(619) 600-2240", "distance": 24244.141877610087}, {"id": "UMvSHdFYA3x6LR8ZWKf_DQ", "alias": "koko-beach-carlsbad", "name": "KoKo Beach", "image_url": "https://s3-media3.fl.yelpcdn.com/bphoto/g8TppTfWWsjTpTCjXMhL8Q/o.jpg", "is_closed": false, "url": "https://www.yelp.com/biz/koko-beach-carlsbad?adjust_creative=oncXGL2aPIKrtJdnWeFSnA&utm_campaign=yelp_api_v3&utm_medium=api_v3_business_search&utm_source=oncXGL2aPIKrtJdnWeFSnA", "review_count": 448, "categories": [{"alias": "seafood", "title": "Seafood"}, {"alias": "steak", "title": "Steakhouses"}, {"alias": "bbq", "title": "Barbeque"}], "rating": 3.5, "coordinates": {"latitude": 33.1598, "longitude": -117.35186}, "transactions": [], "price": "$$", "location": {"address1": "2858 Carlsbad Blvd", "address2": "", "address3": "", "city": "Carlsbad", "zip_code": "92008", "country": "US", "state": "CA", "display_address": ["2858 Carlsbad Blvd", "Carlsbad, CA 92008"]}, "phone": "+17604346868", "display_phone": "(760) 434-6868", "distance": 15665.59296994622}, {"id": "tr2FMU5HeKIXNAj8Wzn8Gw", "alias": "up-skewerz-oceanside", "name": "Up Skewerz", "image_url": "https://s3-media1.fl.yelpcdn.com/bphoto/Oi3D-79e_8iTgV5yxHxElQ/o.jpg", "is_closed": false, "url": "https://www.yelp.com/biz/up-skewerz-oceanside?adjust_creative=oncXGL2aPIKrtJdnWeFSnA&utm_campaign=yelp_api_v3&utm_medium=api_v3_business_search&utm_source=oncXGL2aPIKrtJdnWeFSnA", "review_count": 13, "categories": [{"alias": "bbq", "title": "Barbeque"}, {"alias": "foodstands", "title": "Food Stands"}], "rating": 4.5, "coordinates": {"latitude": 33.18951, "longitude": -117.37193}, "transactions": [], "location": {"address1": "", "address2": "", "address3": null, "city": "Oceanside", "zip_code": "92054", "country": "US", "state": "CA", "display_address": ["Oceanside, CA 92054"]}, "phone": "", "display_phone": "", "distance": 19502.21236998214}, {"id": "-XVj5RAklZzdURR0Tx_-Gg", "alias": "by-the-beach-caribbean-cuisine-san-diego", "name": "By The Beach Caribbean Cuisine", "image_url": "https://s3-media3.fl.yelpcdn.com/bphoto/KDuMkvQ43BD07mdvLd5ybQ/o.jpg", "is_closed": false, "url": "https://www.yelp.com/biz/by-the-beach-caribbean-cuisine-san-diego?adjust_creative=oncXGL2aPIKrtJdnWeFSnA&utm_campaign=yelp_api_v3&utm_medium=api_v3_business_search&utm_source=oncXGL2aPIKrtJdnWeFSnA", "review_count": 1, "categories": [{"alias": "caribbean", "title": "Caribbean"}, {"alias": "bbq", "title": "Barbeque"}, {"alias": "foodstands", "title": "Food Stands"}], "rating": 4.0, "coordinates": {"latitude": 32.8771649662756, "longitude": -117.237356698791}, "transactions": [], "location": {"address1": "9500 Gilman Dr", "address2": "", "address3": "UCSD Farmers Market", "city": "San Diego", "zip_code": "92093", "country": "US", "state": "CA", "display_address": ["9500 Gilman Dr", "UCSD Farmers Market", "San Diego, CA 92093"]}, "phone": "+19513820224", "display_phone": "(951) 382-0224", "distance": 18158.781024915137}, {"id": "9NsJltQmA_3AreOy4FVKUw", "alias": "dickeys-barbecue-pit-san-marcos", "name": "Dickey's Barbecue Pit", "image_url": "https://s3-media3.fl.yelpcdn.com/bphoto/YfyPKA2gdcXIRht9p1vjQg/o.jpg", "is_closed": false, "url": "https://www.yelp.com/biz/dickeys-barbecue-pit-san-marcos?adjust_creative=oncXGL2aPIKrtJdnWeFSnA&utm_campaign=yelp_api_v3&utm_medium=api_v3_business_search&utm_source=oncXGL2aPIKrtJdnWeFSnA", "review_count": 256, "categories": [{"alias": "bbq", "title": "Barbeque"}, {"alias": "tradamerican", "title": "American (Traditional)"}, {"alias": "southern", "title": "Southern"}], "rating": 3.5, "coordinates": {"latitude": 33.135226, "longitude": -117.120621}, "transactions": ["pickup", "delivery"], "price": "$$", "location": {"address1": "763 Center Dr", "address2": "Ste 103", "address3": "", "city": "San Marcos", "zip_code": "92069", "country": "US", "state": "CA", "display_address": ["763 Center Dr", "Ste 103", "San Marcos, CA 92069"]}, "phone": "+17607388900", "display_phone": "(760) 738-8900", "distance": 16002.184903329442}, {"id": "crl2aOL0NiFcPT7spXXVrA", "alias": "maui-hawaiian-bbq-oceanside", "name": "Maui Hawaiian BBQ", "image_url": "https://s3-media2.fl.yelpcdn.com/bphoto/SXP21OoXVeEdvMb_IGTsFQ/o.jpg", "is_closed": false, "url": "https://www.yelp.com/biz/maui-hawaiian-bbq-oceanside?adjust_creative=oncXGL2aPIKrtJdnWeFSnA&utm_campaign=yelp_api_v3&utm_medium=api_v3_business_search&utm_source=oncXGL2aPIKrtJdnWeFSnA", "review_count": 181, "categories": [{"alias": "hawaiian", "title": "Hawaiian"}, {"alias": "bbq", "title": "Barbeque"}], "rating": 3.0, "coordinates": {"latitude": 33.1826324462891, "longitude": -117.333488464355}, "transactions": [], "price": "$", "location": {"address1": "2455 Vista Way", "address2": "Ste D", "address3": "", "city": "Oceanside", "zip_code": "92054", "country": "US", "state": "CA", "display_address": ["2455 Vista Way", "Ste D", "Oceanside, CA 92054"]}, "phone": "+17607228383", "display_phone": "(760) 722-8383", "distance": 17003.95371464965}, {"id": "W8p_NnWIjUxSIhSyfvUDkg", "alias": "california-burrito-company-san-diego-2", "name": "California Burrito Company", "image_url": "https://s3-media1.fl.yelpcdn.com/bphoto/Q-ac7HeUITkvI9HXsVQmBg/o.jpg", "is_closed": false, "url": "https://www.yelp.com/biz/california-burrito-company-san-diego-2?adjust_creative=oncXGL2aPIKrtJdnWeFSnA&utm_campaign=yelp_api_v3&utm_medium=api_v3_business_search&utm_source=oncXGL2aPIKrtJdnWeFSnA", "review_count": 223, "categories": [{"alias": "mexican", "title": "Mexican"}, {"alias": "tradamerican", "title": "American (Traditional)"}, {"alias": "bbq", "title": "Barbeque"}], "rating": 3.5, "coordinates": {"latitude": 32.8787879943848, "longitude": -117.166885375977}, "transactions": ["pickup"], "price": "$", "location": {"address1": "6912 Miramar Rd", "address2": "", "address3": "", "city": "San Diego", "zip_code": "92121", "country": "US", "state": "CA", "display_address": ["6912 Miramar Rd", "San Diego, CA 92121"]}, "phone": "+19517757241", "display_phone": "(951) 775-7241", "distance": 20187.932039040665}, {"id": "UBrKT5LH6r9wqLry_WTgiw", "alias": "devil-dogs-bbq-catering-san-marcos", "name": "Devil Dogs BBQ Catering", "image_url": "https://s3-media3.fl.yelpcdn.com/bphoto/k4oleDyEcLoPzV3QYOFIYQ/o.jpg", "is_closed": false, "url": "https://www.yelp.com/biz/devil-dogs-bbq-catering-san-marcos?adjust_creative=oncXGL2aPIKrtJdnWeFSnA&utm_campaign=yelp_api_v3&utm_medium=api_v3_business_search&utm_source=oncXGL2aPIKrtJdnWeFSnA", "review_count": 32, "categories": [{"alias": "foodtrucks", "title": "Food Trucks"}, {"alias": "bbq", "title": "Barbeque"}, {"alias": "catering", "title": "Caterers"}], "rating": 4.0, "coordinates": {"latitude": 33.1471019, "longitude": -117.197672}, "transactions": [], "price": "$$", "location": {"address1": "139 Pawnee St", "address2": null, "address3": "", "city": "San Marcos", "zip_code": "92078", "country": "US", "state": "CA", "display_address": ["139 Pawnee St", "San Marcos, CA 92078"]}, "phone": "+17608144776", "display_phone": "(760) 814-4776", "distance": 12531.28942500431}, {"id": "jRzyZuyyT26v2potoStZMg", "alias": "hong-kong-bbq-and-dim-sum-san-diego-2", "name": "Hong Kong BBQ & Dim Sum", "image_url": "https://s3-media2.fl.yelpcdn.com/bphoto/An6oPAbuP0dBQq7HxV_2SQ/o.jpg", "is_closed": false, "url": "https://www.yelp.com/biz/hong-kong-bbq-and-dim-sum-san-diego-2?adjust_creative=oncXGL2aPIKrtJdnWeFSnA&utm_campaign=yelp_api_v3&utm_medium=api_v3_business_search&utm_source=oncXGL2aPIKrtJdnWeFSnA", "review_count": 178, "categories": [{"alias": "dimsum", "title": "Dim Sum"}, {"alias": "bbq", "title": "Barbeque"}, {"alias": "cantonese", "title": "Cantonese"}], "rating": 3.5, "coordinates": {"latitude": 32.9092399, "longitude": -117.14554}, "transactions": [], "price": "$", "location": {"address1": "10550 Camino Ruiz", "address2": "", "address3": "", "city": "San Diego", "zip_code": "92126", "country": "US", "state": "CA", "display_address": ["10550 Camino Ruiz", "San Diego, CA 92126"]}, "phone": "+18584084888", "display_phone": "(858) 408-4888", "distance": 18164.968719685723}, {"id": "BKlN_RDN6vzQQ_bg4n4R6Q", "alias": "l-and-l-hawaiian-barbecue-la-jolla", "name": "L&L Hawaiian Barbecue", "image_url": "https://s3-media3.fl.yelpcdn.com/bphoto/p17Tdkl7PKo9ClzKlSGFHQ/o.jpg", "is_closed": false, "url": "https://www.yelp.com/biz/l-and-l-hawaiian-barbecue-la-jolla?adjust_creative=oncXGL2aPIKrtJdnWeFSnA&utm_campaign=yelp_api_v3&utm_medium=api_v3_business_search&utm_source=oncXGL2aPIKrtJdnWeFSnA", "review_count": 217, "categories": [{"alias": "hawaiian", "title": "Hawaiian"}, {"alias": "bbq", "title": "Barbeque"}], "rating": 2.5, "coordinates": {"latitude": 32.8728587937212, "longitude": -117.217259907421}, "transactions": ["delivery"], "price": "$", "location": {"address1": "4150 Regents Park Row", "address2": "Ste 187", "address3": "", "city": "La Jolla", "zip_code": "92037", "country": "US", "state": "CA", "display_address": ["4150 Regents Park Row", "Ste 187", "La Jolla, CA 92037"]}, "phone": "+18585540888", "display_phone": "(858) 554-0888", "distance": 19439.178084232422}, {"id": "GRMAopGY-wRxSb5l0-Pdsg", "alias": "mikes-bbq-escondido", "name": "Mike's BBQ", "image_url": "https://s3-media2.fl.yelpcdn.com/bphoto/4HBNjZyhJIUdzvx703yB2A/o.jpg", "is_closed": false, "url": "https://www.yelp.com/biz/mikes-bbq-escondido?adjust_creative=oncXGL2aPIKrtJdnWeFSnA&utm_campaign=yelp_api_v3&utm_medium=api_v3_business_search&utm_source=oncXGL2aPIKrtJdnWeFSnA", "review_count": 697, "categories": [{"alias": "bbq", "title": "Barbeque"}, {"alias": "sportsbars", "title": "Sports Bars"}], "rating": 3.0, "coordinates": {"latitude": 33.11156, "longitude": -117.10407}, "transactions": [], "price": "$$", "location": {"address1": "1356 W Valley Pkwy", "address2": "", "address3": "", "city": "Escondido", "zip_code": "92029", "country": "US", "state": "CA", "display_address": ["1356 W Valley Pkwy", "Escondido, CA 92029"]}, "phone": "+17607464444", "display_phone": "(760) 746-4444", "distance": 15839.051720733549}, {"id": "Es2UyM2mbFGnWeIaOeDf0w", "alias": "cheers-bar-and-grill-san-diego", "name": "Cheers Bar & Grill", "image_url": "https://s3-media2.fl.yelpcdn.com/bphoto/zpfX-CdzhRDLZpogU210Eg/o.jpg", "is_closed": false, "url": "https://www.yelp.com/biz/cheers-bar-and-grill-san-diego?adjust_creative=oncXGL2aPIKrtJdnWeFSnA&utm_campaign=yelp_api_v3&utm_medium=api_v3_business_search&utm_source=oncXGL2aPIKrtJdnWeFSnA", "review_count": 99, "categories": [{"alias": "bbq", "title": "Barbeque"}, {"alias": "sportsbars", "title": "Sports Bars"}, {"alias": "karaoke", "title": "Karaoke"}], "rating": 3.0, "coordinates": {"latitude": 32.960046, "longitude": -117.1114617}, "transactions": [], "price": "$", "location": {"address1": "9995 Carmel Mountain Rd", "address2": "Ste B1", "address3": "", "city": "San Diego", "zip_code": "92129", "country": "US", "state": "CA", "display_address": ["9995 Carmel Mountain Rd", "Ste B1", "San Diego, CA 92129"]}, "phone": "+18584844215", "display_phone": "(858) 484-4215", "distance": 16325.23035694435}, {"id": "jXWMbsge330VEs6J23V8DQ", "alias": "dickeys-barbecue-pit-san-diego-2", "name": "Dickey's Barbecue Pit", "image_url": "https://s3-media1.fl.yelpcdn.com/bphoto/P849Z0FZ-RwYY0x2IpRWSw/o.jpg", "is_closed": false, "url": "https://www.yelp.com/biz/dickeys-barbecue-pit-san-diego-2?adjust_creative=oncXGL2aPIKrtJdnWeFSnA&utm_campaign=yelp_api_v3&utm_medium=api_v3_business_search&utm_source=oncXGL2aPIKrtJdnWeFSnA", "review_count": 100, "categories": [{"alias": "bbq", "title": "Barbeque"}, {"alias": "southern", "title": "Southern"}, {"alias": "tradamerican", "title": "American (Traditional)"}], "rating": 3.0, "coordinates": {"latitude": 32.97974, "longitude": -117.07692}, "transactions": ["pickup", "delivery"], "price": "$$", "location": {"address1": "11835 Carmel Mountain Rd", "address2": "", "address3": null, "city": "San Diego", "zip_code": "92128", "country": "US", "state": "CA", "display_address": ["11835 Carmel Mountain Rd", "San Diego, CA 92128"]}, "phone": "+18587985226", "display_phone": "(858) 798-5226", "distance": 18036.0735991903}, {"id": "DnobBO7FPizg1jfODt_SOg", "alias": "l-and-l-hawaiian-barbecue-san-diego", "name": "L&L Hawaiian Barbecue", "image_url": "https://s3-media1.fl.yelpcdn.com/bphoto/VpT8F3CVP2VETf0oZwhYfA/o.jpg", "is_closed": false, "url": "https://www.yelp.com/biz/l-and-l-hawaiian-barbecue-san-diego?adjust_creative=oncXGL2aPIKrtJdnWeFSnA&utm_campaign=yelp_api_v3&utm_medium=api_v3_business_search&utm_source=oncXGL2aPIKrtJdnWeFSnA", "review_count": 280, "categories": [{"alias": "hawaiian", "title": "Hawaiian"}, {"alias": "bbq", "title": "Barbeque"}], "rating": 3.0, "coordinates": {"latitude": 32.914745, "longitude": -117.146077}, "transactions": ["delivery", "pickup"], "price": "$", "location": {"address1": "8280-A Mira Mesa Blvd", "address2": "", "address3": "Mira Mesa Mall", "city": "San Diego", "zip_code": "92126", "country": "US", "state": "CA", "display_address": ["8280-A Mira Mesa Blvd", "Mira Mesa Mall", "San Diego, CA 92126"]}, "phone": "+18586935888", "display_phone": "(858) 693-5888", "distance": 17646.22179442415}, {"id": "ZVIYF78mykOlT5jDSpPWKA", "alias": "da-big-show-bbq-oceanside", "name": "Da Big Show BBQ", "image_url": "https://s3-media2.fl.yelpcdn.com/bphoto/lsNgp5RcqrnVJS3ysR_tVA/o.jpg", "is_closed": false, "url": "https://www.yelp.com/biz/da-big-show-bbq-oceanside?adjust_creative=oncXGL2aPIKrtJdnWeFSnA&utm_campaign=yelp_api_v3&utm_medium=api_v3_business_search&utm_source=oncXGL2aPIKrtJdnWeFSnA", "review_count": 4, "categories": [{"alias": "bbq", "title": "Barbeque"}, {"alias": "caribbean", "title": "Caribbean"}, {"alias": "foodtrucks", "title": "Food Trucks"}], "rating": 5.0, "coordinates": {"latitude": 33.18951, "longitude": -117.37193}, "transactions": [], "location": {"address1": "", "address2": "", "address3": null, "city": "Oceanside", "zip_code": "92054", "country": "US", "state": "CA", "display_address": ["Oceanside, CA 92054"]}, "phone": "+16198529129", "display_phone": "(619) 852-9129", "distance": 19502.21236998214}, {"id": "Irg_HOCEdJ0jwzj_GHIHBQ", "alias": "shozen-and-manpo-san-diego", "name": "Shozen & Manpo", "image_url": "https://s3-media4.fl.yelpcdn.com/bphoto/xL90FOXTn895tq0KWuZcDg/o.jpg", "is_closed": false, "url": "https://www.yelp.com/biz/shozen-and-manpo-san-diego?adjust_creative=oncXGL2aPIKrtJdnWeFSnA&utm_campaign=yelp_api_v3&utm_medium=api_v3_business_search&utm_source=oncXGL2aPIKrtJdnWeFSnA", "review_count": 210, "categories": [{"alias": "korean", "title": "Korean"}, {"alias": "bbq", "title": "Barbeque"}], "rating": 3.5, "coordinates": {"latitude": 32.917908, "longitude": -117.11306}, "transactions": [], "price": "$$", "location": {"address1": "9906 Mira Mesa Blvd", "address2": "", "address3": "", "city": "San Diego", "zip_code": "92131", "country": "US", "state": "CA", "display_address": ["9906 Mira Mesa Blvd", "San Diego, CA 92131"]}, "phone": "+18585860099", "display_phone": "(858) 586-0099", "distance": 19313.445462091437}, {"id": "KWINE0_f0GeKIN--IGfPxw", "alias": "knights-smokehouse-bbq-carlsbad", "name": "Knights' Smokehouse BBQ", "image_url": "https://s3-media1.fl.yelpcdn.com/bphoto/1zRTYqE_oYmRv2wDuoN6Zg/o.jpg", "is_closed": false, "url": "https://www.yelp.com/biz/knights-smokehouse-bbq-carlsbad?adjust_creative=oncXGL2aPIKrtJdnWeFSnA&utm_campaign=yelp_api_v3&utm_medium=api_v3_business_search&utm_source=oncXGL2aPIKrtJdnWeFSnA", "review_count": 38, "categories": [{"alias": "bbq", "title": "Barbeque"}], "rating": 3.0, "coordinates": {"latitude": 33.1293883124575, "longitude": -117.310397380673}, "transactions": [], "price": "$$", "location": {"address1": "1 Legoland Dr", "address2": "", "address3": "", "city": "Carlsbad", "zip_code": "92008", "country": "US", "state": "CA", "display_address": ["1 Legoland Dr", "Carlsbad, CA 92008"]}, "phone": "", "display_phone": "", "distance": 10749.95854211793}, {"id": "bq9sdtQoAgeUHRlngR1htQ", "alias": "juicys-del-mar", "name": "Juicys", "image_url": "https://s3-media2.fl.yelpcdn.com/bphoto/1HPxkuhSj8F0Vzx0uLbuIA/o.jpg", "is_closed": false, "url": "https://www.yelp.com/biz/juicys-del-mar?adjust_creative=oncXGL2aPIKrtJdnWeFSnA&utm_campaign=yelp_api_v3&utm_medium=api_v3_business_search&utm_source=oncXGL2aPIKrtJdnWeFSnA", "review_count": 5, "categories": [{"alias": "bbq", "title": "Barbeque"}], "rating": 3.0, "coordinates": {"latitude": 32.9737546, "longitude": -117.2566051}, "transactions": [], "price": "$", "location": {"address1": "2260 Jimmy Durante Blvd", "address2": "", "address3": "", "city": "Del Mar", "zip_code": "92014", "country": "US", "state": "CA", "display_address": ["2260 Jimmy Durante Blvd", "Del Mar, CA 92014"]}, "phone": "+18587551161", "display_phone": "(858) 755-1161", "distance": 7912.7141507707165}, {"id": "wC3CqwTy_-rgANl-W9XG-Q", "alias": "l-and-l-hawaiian-barbecue-san-diego-18", "name": "L&L Hawaiian Barbecue", "image_url": "https://s3-media2.fl.yelpcdn.com/bphoto/nwxK6lEOnKx0EAjBx31SEQ/o.jpg", "is_closed": false, "url": "https://www.yelp.com/biz/l-and-l-hawaiian-barbecue-san-diego-18?adjust_creative=oncXGL2aPIKrtJdnWeFSnA&utm_campaign=yelp_api_v3&utm_medium=api_v3_business_search&utm_source=oncXGL2aPIKrtJdnWeFSnA", "review_count": 221, "categories": [{"alias": "hawaiian", "title": "Hawaiian"}, {"alias": "bbq", "title": "Barbeque"}], "rating": 2.5, "coordinates": {"latitude": 32.98216805569, "longitude": -117.07484663457}, "transactions": ["delivery", "pickup"], "price": "$", "location": {"address1": "11975 Carmel Mountain Rd", "address2": "", "address3": "", "city": "San Diego", "zip_code": "92128", "country": "US", "state": "CA", "display_address": ["11975 Carmel Mountain Rd", "San Diego, CA 92128"]}, "phone": "+18584516888", "display_phone": "(858) 451-6888", "distance": 18130.706698949394}, {"id": "OV02DAz3eKVl1_surDYjpw", "alias": "super-q-food-truck-poway", "name": "Super Q Food Truck", "image_url": "https://s3-media4.fl.yelpcdn.com/bphoto/gevBLc8L-pA2uSuucJmA_g/o.jpg", "is_closed": false, "url": "https://www.yelp.com/biz/super-q-food-truck-poway?adjust_creative=oncXGL2aPIKrtJdnWeFSnA&utm_campaign=yelp_api_v3&utm_medium=api_v3_business_search&utm_source=oncXGL2aPIKrtJdnWeFSnA", "review_count": 199, "categories": [{"alias": "foodtrucks", "title": "Food Trucks"}, {"alias": "bbq", "title": "Barbeque"}], "rating": 4.0, "coordinates": {"latitude": 32.95507, "longitude": -117.05514}, "transactions": [], "price": "$$", "location": {"address1": "12735 Poway Rd", "address2": "", "address3": "", "city": "Poway", "zip_code": "92064", "country": "US", "state": "CA", "display_address": ["12735 Poway Rd", "Poway, CA 92064"]}, "phone": "+16199954227", "display_phone": "(619) 995-4227", "distance": 21092.044073675697}], "total": 61, "region": {"center": {"longitude": -117.25433349609375, "latitude": 33.04488992556048}}}