{"businesses": [{"id": "qtF9m3WSYUCbl0juKQCGQA", "alias": "taj-mahal-san-diego-2", "name": "Taj Mahal", "image_url": "https://s3-media1.fl.yelpcdn.com/bphoto/s87t0iXDhk-yNhpZFS9_pw/o.jpg", "is_closed": false, "url": "https://www.yelp.com/biz/taj-mahal-san-diego-2?adjust_creative=oncXGL2aPIKrtJdnWeFSnA&utm_campaign=yelp_api_v3&utm_medium=api_v3_business_search&utm_source=oncXGL2aPIKrtJdnWeFSnA", "review_count": 10, "categories": [{"alias": "indpak", "title": "Indian"}, {"alias": "buffets", "title": "Buffets"}, {"alias": "seafood", "title": "Seafood"}], "rating": 4.0, "coordinates": {"latitude": 32.90079, "longitude": -117.19322}, "transactions": ["delivery", "pickup"], "location": {"address1": "10066 Pacific Heights Blvd", "address2": "Ste 106", "address3": "", "city": "San Diego", "zip_code": "92121", "country": "US", "state": "CA", "display_address": ["10066 Pacific Heights Blvd", "Ste 106", "San Diego, CA 92121"]}, "phone": "+18584533672", "display_phone": "(858) 453-3672", "distance": 17029.26591306317}, {"id": "oC6zWdHOnVe4tCRr2Uj01w", "alias": "round-table-pizza-encinitas", "name": "Round Table Pizza", "image_url": "https://s3-media1.fl.yelpcdn.com/bphoto/uBTHFlVDc2kNC0jNomxH9A/o.jpg", "is_closed": false, "url": "https://www.yelp.com/biz/round-table-pizza-encinitas?adjust_creative=oncXGL2aPIKrtJdnWeFSnA&utm_campaign=yelp_api_v3&utm_medium=api_v3_business_search&utm_source=oncXGL2aPIKrtJdnWeFSnA", "review_count": 67, "categories": [{"alias": "pizza", "title": "Pizza"}, {"alias": "buffets", "title": "Buffets"}], "rating": 3.0, "coordinates": {"latitude": 33.044713439575, "longitude": -117.26119945923}, "transactions": [], "price": "$$", "location": {"address1": "1321 Encinitas Blvd.", "address2": "", "address3": "", "city": "Encinitas", "zip_code": "92024", "country": "US", "state": "CA", "display_address": ["1321 Encinitas Blvd.", "Encinitas, CA 92024"]}, "phone": "+17607538303", "display_phone": "(760) 753-8303", "distance": 640.2664288391074}, {"id": "HCIYSB5pviGPHMAO-h8RCg", "alias": "bricks-family-restaurant-carlsbad", "name": "Bricks Family Restaurant", "image_url": "https://s3-media1.fl.yelpcdn.com/bphoto/9TV36n-ti5YtmxaVdk_ChA/o.jpg", "is_closed": false, "url": "https://www.yelp.com/biz/bricks-family-restaurant-carlsbad?adjust_creative=oncXGL2aPIKrtJdnWeFSnA&utm_campaign=yelp_api_v3&utm_medium=api_v3_business_search&utm_source=oncXGL2aPIKrtJdnWeFSnA", "review_count": 161, "categories": [{"alias": "buffets", "title": "Buffets"}], "rating": 4.0, "coordinates": {"latitude": 33.1237338, "longitude": -117.3063065}, "transactions": [], "price": "$$", "location": {"address1": "5885 The Crossings Dr", "address2": "", "address3": "Legoland Hotel", "city": "Carlsbad", "zip_code": "92008", "country": "US", "state": "CA", "display_address": ["5885 The Crossings Dr", "Legoland Hotel", "Carlsbad, CA 92008"]}, "phone": "+17604445623", "display_phone": "(760) 444-5623", "distance": 10439.92464979296}, {"id": "zCzyvV3rQrCB5EFJQ0TwuA", "alias": "souplantation-san-diego-7", "name": "Souplantation", "image_url": "https://s3-media3.fl.yelpcdn.com/bphoto/itR8FEhXCajxW7nCACECmA/o.jpg", "is_closed": false, "url": "https://www.yelp.com/biz/souplantation-san-diego-7?adjust_creative=oncXGL2aPIKrtJdnWeFSnA&utm_campaign=yelp_api_v3&utm_medium=api_v3_business_search&utm_source=oncXGL2aPIKrtJdnWeFSnA", "review_count": 252, "categories": [{"alias": "vegetarian", "title": "Vegetarian"}, {"alias": "buffets", "title": "Buffets"}, {"alias": "salad", "title": "Salad"}], "rating": 3.5, "coordinates": {"latitude": 32.9380499, "longitude": -117.23121}, "transactions": [], "price": "$$", "location": {"address1": "3804 Valley Centre Dr", "address2": null, "address3": "", "city": "San Diego", "zip_code": "92130", "country": "US", "state": "CA", "display_address": ["3804 Valley Centre Dr", "San Diego, CA 92130"]}, "phone": "+18584813225", "display_phone": "(858) 481-3225", "distance": 12076.177227252543}, {"id": "Qt4fUndy7VFCFraOPrrnGA", "alias": "luxe-buffet-carlsbad", "name": "Luxe Buffet", "image_url": "https://s3-media4.fl.yelpcdn.com/bphoto/6WcqFbz0oCpSQC8VDvfrTg/o.jpg", "is_closed": false, "url": "https://www.yelp.com/biz/luxe-buffet-carlsbad?adjust_creative=oncXGL2aPIKrtJdnWeFSnA&utm_campaign=yelp_api_v3&utm_medium=api_v3_business_search&utm_source=oncXGL2aPIKrtJdnWeFSnA", "review_count": 458, "categories": [{"alias": "buffets", "title": "Buffets"}, {"alias": "seafood", "title": "Seafood"}, {"alias": "chinese", "title": "Chinese"}], "rating": 3.5, "coordinates": {"latitude": 33.1798820495605, "longitude": -117.327186584473}, "transactions": [], "price": "$$", "location": {"address1": "2515 El Camino Real", "address2": "", "address3": "", "city": "Carlsbad", "zip_code": "92008", "country": "US", "state": "CA", "display_address": ["2515 El Camino Real", "Carlsbad, CA 92008"]}, "phone": "+17607293888", "display_phone": "(760) 729-3888", "distance": 16467.89454041873}, {"id": "tzIAJ15RydftX3PcK6rTZg", "alias": "shabu-works-san-diego-5", "name": "SHABU-WORKS", "image_url": "https://s3-media2.fl.yelpcdn.com/bphoto/Cjjw7fGg28juCHViMcsR6A/o.jpg", "is_closed": false, "url": "https://www.yelp.com/biz/shabu-works-san-diego-5?adjust_creative=oncXGL2aPIKrtJdnWeFSnA&utm_campaign=yelp_api_v3&utm_medium=api_v3_business_search&utm_source=oncXGL2aPIKrtJdnWeFSnA", "review_count": 252, "categories": [{"alias": "hotpot", "title": "Hot Pot"}, {"alias": "japanese", "title": "Japanese"}, {"alias": "buffets", "title": "Buffets"}], "rating": 4.0, "coordinates": {"latitude": 32.9162250668104, "longitude": -117.114164074074}, "transactions": [], "price": "$$", "location": {"address1": "9841 Mira Mesa Blvd", "address2": "", "address3": null, "city": "San Diego", "zip_code": "92131", "country": "US", "state": "CA", "display_address": ["9841 Mira Mesa Blvd", "San Diego, CA 92131"]}, "phone": "+18588605730", "display_phone": "(858) 860-5730", "distance": 19381.138189120695}, {"id": "EOfdLZwH_MRhRHrAA7pA2Q", "alias": "m-bbq-oceanside", "name": "M. BBQ", "image_url": "https://s3-media1.fl.yelpcdn.com/bphoto/8eUi3KhZZw_3ZhCpnUXcmw/o.jpg", "is_closed": false, "url": "https://www.yelp.com/biz/m-bbq-oceanside?adjust_creative=oncXGL2aPIKrtJdnWeFSnA&utm_campaign=yelp_api_v3&utm_medium=api_v3_business_search&utm_source=oncXGL2aPIKrtJdnWeFSnA", "review_count": 55, "categories": [{"alias": "korean", "title": "Korean"}, {"alias": "bbq", "title": "Barbeque"}, {"alias": "buffets", "title": "Buffets"}], "rating": 3.5, "coordinates": {"latitude": 33.18548, "longitude": -117.32733}, "transactions": [], "price": "$$", "location": {"address1": "2216 S El Camino Real", "address2": "108  109", "address3": "", "city": "Oceanside", "zip_code": "92054", "country": "US", "state": "CA", "display_address": ["2216 S El Camino Real", "108  109", "Oceanside, CA 92054"]}, "phone": "+17604331888", "display_phone": "(760) 433-1888", "distance": 17112.971949167804}, {"id": "YCFUFOfMPBtfXFklSWAzDg", "alias": "annapurna-indian-cuisine-carlsbad", "name": "Annapurna Indian Cuisine", "image_url": "https://s3-media4.fl.yelpcdn.com/bphoto/A4TozFqoXDKMEtZiH7FaGQ/o.jpg", "is_closed": false, "url": "https://www.yelp.com/biz/annapurna-indian-cuisine-carlsbad?adjust_creative=oncXGL2aPIKrtJdnWeFSnA&utm_campaign=yelp_api_v3&utm_medium=api_v3_business_search&utm_source=oncXGL2aPIKrtJdnWeFSnA", "review_count": 40, "categories": [{"alias": "indpak", "title": "Indian"}, {"alias": "buffets", "title": "Buffets"}], "rating": 3.0, "coordinates": {"latitude": 33.12719, "longitude": -117.25282}, "transactions": ["pickup", "delivery"], "price": "$$", "location": {"address1": "2675 Gateway Rd", "address2": "Ste 101", "address3": "", "city": "Carlsbad", "zip_code": "92009", "country": "US", "state": "CA", "display_address": ["2675 Gateway Rd", "Ste 101", "Carlsbad, CA 92009"]}, "phone": "+16192919191", "display_phone": "(619) 291-9191", "distance": 9155.225503237494}, {"id": "FGoVzAS6EDV0VydoRPaPrw", "alias": "indian-tandoor-san-diego", "name": "Indian Tandoor", "image_url": "https://s3-media1.fl.yelpcdn.com/bphoto/hyze4LedNPhm1Ia3Isq09A/o.jpg", "is_closed": false, "url": "https://www.yelp.com/biz/indian-tandoor-san-diego?adjust_creative=oncXGL2aPIKrtJdnWeFSnA&utm_campaign=yelp_api_v3&utm_medium=api_v3_business_search&utm_source=oncXGL2aPIKrtJdnWeFSnA", "review_count": 338, "categories": [{"alias": "indpak", "title": "Indian"}, {"alias": "buffets", "title": "Buffets"}], "rating": 4.0, "coordinates": {"latitude": 32.906185, "longitude": -117.173720842837}, "transactions": ["pickup", "delivery"], "price": "$", "location": {"address1": "6755 Mira Mesa Blvd", "address2": "Ste 110", "address3": "", "city": "San Diego", "zip_code": "92121", "country": "US", "state": "CA", "display_address": ["6755 Mira Mesa Blvd", "Ste 110", "San Diego, CA 92121"]}, "phone": "+18585581939", "display_phone": "(858) 558-1939", "distance": 17158.750320783776}, {"id": "5xcJooq72wBj8KrEIY2Suw", "alias": "bistro-c-del-mar", "name": "Bistro C", "image_url": "https://s3-media1.fl.yelpcdn.com/bphoto/SKZtCPz-HvrxJ_BfuS8kBQ/o.jpg", "is_closed": false, "url": "https://www.yelp.com/biz/bistro-c-del-mar?adjust_creative=oncXGL2aPIKrtJdnWeFSnA&utm_campaign=yelp_api_v3&utm_medium=api_v3_business_search&utm_source=oncXGL2aPIKrtJdnWeFSnA", "review_count": 5, "categories": [{"alias": "bars", "title": "Bars"}, {"alias": "buffets", "title": "Buffets"}], "rating": 4.0, "coordinates": {"latitude": 32.951319, "longitude": -117.262816}, "transactions": [], "price": "$", "location": {"address1": "Clarion Del Mar Inn Hotel", "address2": "", "address3": "720 Camino Del Mar", "city": "Del Mar", "zip_code": "92014", "country": "US", "state": "CA", "display_address": ["Clarion Del Mar Inn Hotel", "720 Camino Del Mar", "Del Mar, CA 92014"]}, "phone": "+18587559765", "display_phone": "(858) 755-9765", "distance": 10434.629375410144}, {"id": "6sN7peLpDgOWIZOSxWPgBQ", "alias": "souplantation-carlsbad", "name": "Souplantation", "image_url": "https://s3-media2.fl.yelpcdn.com/bphoto/uAl0H7l8l-KO9W6YtWZTag/o.jpg", "is_closed": false, "url": "https://www.yelp.com/biz/souplantation-carlsbad?adjust_creative=oncXGL2aPIKrtJdnWeFSnA&utm_campaign=yelp_api_v3&utm_medium=api_v3_business_search&utm_source=oncXGL2aPIKrtJdnWeFSnA", "review_count": 239, "categories": [{"alias": "buffets", "title": "Buffets"}, {"alias": "vegetarian", "title": "Vegetarian"}, {"alias": "salad", "title": "Salad"}], "rating": 4.0, "coordinates": {"latitude": 33.17688406671, "longitude": -117.338593}, "transactions": [], "price": "$$", "location": {"address1": "1860 Marron Rd", "address2": "", "address3": "", "city": "Carlsbad", "zip_code": "92008", "country": "US", "state": "CA", "display_address": ["1860 Marron Rd", "Carlsbad, CA 92008"]}, "phone": "+17604349100", "display_phone": "(760) 434-9100", "distance": 16643.438028657907}, {"id": "YTXQaUyNRF2DM7h6_Q9y4A", "alias": "cocina-del-charro-san-marcos", "name": "Cocina Del Charro", "image_url": "https://s3-media4.fl.yelpcdn.com/bphoto/0sFMfEbDQjqaI2LN4RvLyw/o.jpg", "is_closed": false, "url": "https://www.yelp.com/biz/cocina-del-charro-san-marcos?adjust_creative=oncXGL2aPIKrtJdnWeFSnA&utm_campaign=yelp_api_v3&utm_medium=api_v3_business_search&utm_source=oncXGL2aPIKrtJdnWeFSnA", "review_count": 442, "categories": [{"alias": "mexican", "title": "Mexican"}, {"alias": "latin", "title": "Latin American"}, {"alias": "buffets", "title": "Buffets"}], "rating": 3.5, "coordinates": {"latitude": 33.1348588, "longitude": -117.1904449}, "transactions": [], "price": "$$", "location": {"address1": "1020 W San Marcos Blvd", "address2": "Ste 50", "address3": null, "city": "San Marcos", "zip_code": "92078", "country": "US", "state": "CA", "display_address": ["1020 W San Marcos Blvd", "Ste 50", "San Marcos, CA 92078"]}, "phone": "+17604716644", "display_phone": "(760) 471-6644", "distance": 11640.73074661709}, {"id": "SnfHfR-AHWIys-zXC8CHvw", "alias": "virsa-indian-cuisine-san-diego-3", "name": "Virsa Indian Cuisine", "image_url": "https://s3-media2.fl.yelpcdn.com/bphoto/47H-IDc8g5P0oL4KdHDqew/o.jpg", "is_closed": false, "url": "https://www.yelp.com/biz/virsa-indian-cuisine-san-diego-3?adjust_creative=oncXGL2aPIKrtJdnWeFSnA&utm_campaign=yelp_api_v3&utm_medium=api_v3_business_search&utm_source=oncXGL2aPIKrtJdnWeFSnA", "review_count": 237, "categories": [{"alias": "indpak", "title": "Indian"}, {"alias": "buffets", "title": "Buffets"}, {"alias": "vegetarian", "title": "Vegetarian"}], "rating": 4.0, "coordinates": {"latitude": 32.878323, "longitude": -117.1685865}, "transactions": ["delivery", "pickup"], "price": "$$", "location": {"address1": "6780 Miramar Rd", "address2": "Ste 100", "address3": "", "city": "San Diego", "zip_code": "92121", "country": "US", "state": "CA", "display_address": ["6780 Miramar Rd", "Ste 100", "San Diego, CA 92121"]}, "phone": "+18585660806", "display_phone": "(858) 566-0806", "distance": 20108.246549857457}, {"id": "NKzp6LMyD1hzjI4Zv9W61A", "alias": "pan-asia-buffet-san-marcos", "name": "Pan Asia Buffet", "image_url": "https://s3-media3.fl.yelpcdn.com/bphoto/7JEgdmJWf6PJVYwwu2W1WQ/o.jpg", "is_closed": false, "url": "https://www.yelp.com/biz/pan-asia-buffet-san-marcos?adjust_creative=oncXGL2aPIKrtJdnWeFSnA&utm_campaign=yelp_api_v3&utm_medium=api_v3_business_search&utm_source=oncXGL2aPIKrtJdnWeFSnA", "review_count": 456, "categories": [{"alias": "buffets", "title": "Buffets"}, {"alias": "sushi", "title": "Sushi Bars"}, {"alias": "panasian", "title": "Pan Asian"}], "rating": 3.5, "coordinates": {"latitude": 33.133185, "longitude": -117.122313}, "transactions": [], "price": "$$", "location": {"address1": "707 Center Dr", "address2": "", "address3": "", "city": "San Marcos", "zip_code": "92069", "country": "US", "state": "CA", "display_address": ["707 Center Dr", "San Marcos, CA 92069"]}, "phone": "+17607967708", "display_phone": "(760) 796-7708", "distance": 15737.32481392351}, {"id": "YgZVDq1cbNkBg4M-UAVK1A", "alias": "natsumi-sushi-and-seafood-buffet-san-diego", "name": "Natsumi Sushi & Seafood Buffet", "image_url": "https://s3-media2.fl.yelpcdn.com/bphoto/pIG4P8rdv0knJrOgHZTVZw/o.jpg", "is_closed": false, "url": "https://www.yelp.com/biz/natsumi-sushi-and-seafood-buffet-san-diego?adjust_creative=oncXGL2aPIKrtJdnWeFSnA&utm_campaign=yelp_api_v3&utm_medium=api_v3_business_search&utm_source=oncXGL2aPIKrtJdnWeFSnA", "review_count": 124, "categories": [{"alias": "sushi", "title": "Sushi Bars"}, {"alias": "buffets", "title": "Buffets"}, {"alias": "seafood", "title": "Seafood"}], "rating": 3.0, "coordinates": {"latitude": 32.8793237543526, "longitude": -117.164631543655}, "transactions": [], "price": "$$", "location": {"address1": "7040 Miramar Rd", "address2": "", "address3": null, "city": "San Diego", "zip_code": "92121", "country": "US", "state": "CA", "display_address": ["7040 Miramar Rd", "San Diego, CA 92121"]}, "phone": "+18586950888", "display_phone": "(858) 695-0888", "distance": 20222.975086231683}, {"id": "PVwxsEs-DwYuvznyQcKAGg", "alias": "seaside-buffet-san-diego", "name": "Seaside Buffet", "image_url": "https://s3-media1.fl.yelpcdn.com/bphoto/nbSI8gk1kajna1qBmhAyUA/o.jpg", "is_closed": false, "url": "https://www.yelp.com/biz/seaside-buffet-san-diego?adjust_creative=oncXGL2aPIKrtJdnWeFSnA&utm_campaign=yelp_api_v3&utm_medium=api_v3_business_search&utm_source=oncXGL2aPIKrtJdnWeFSnA", "review_count": 428, "categories": [{"alias": "buffets", "title": "Buffets"}, {"alias": "chinese", "title": "Chinese"}, {"alias": "seafood", "title": "Seafood"}], "rating": 3.5, "coordinates": {"latitude": 32.8945113449462, "longitude": -117.131427973509}, "transactions": [], "price": "$$", "location": {"address1": "8998 Miramar Rd", "address2": "", "address3": "", "city": "San Diego", "zip_code": "92126", "country": "US", "state": "CA", "display_address": ["8998 Miramar Rd", "San Diego, CA 92126"]}, "phone": "+18585661888", "display_phone": "(858) 566-1888", "distance": 20274.663155965067}, {"id": "xCrE8VgFBY4r8NDc5Utqnw", "alias": "souplantation-vista-2", "name": "Souplantation", "image_url": "https://s3-media2.fl.yelpcdn.com/bphoto/LeS8waq_g9HTEq8fZq3Img/o.jpg", "is_closed": false, "url": "https://www.yelp.com/biz/souplantation-vista-2?adjust_creative=oncXGL2aPIKrtJdnWeFSnA&utm_campaign=yelp_api_v3&utm_medium=api_v3_business_search&utm_source=oncXGL2aPIKrtJdnWeFSnA", "review_count": 158, "categories": [{"alias": "vegetarian", "title": "Vegetarian"}, {"alias": "buffets", "title": "Buffets"}, {"alias": "salad", "title": "Salad"}], "rating": 4.0, "coordinates": {"latitude": 33.17094, "longitude": -117.21733}, "transactions": [], "price": "$$", "location": {"address1": "1860 University Dr", "address2": "", "address3": "", "city": "Vista", "zip_code": "92083", "country": "US", "state": "CA", "display_address": ["1860 University Dr", "Vista, CA 92083"]}, "phone": "+17606309217", "display_phone": "(760) 630-9217", "distance": 14415.453299096076}, {"id": "Veu1VgN4e6EjGzEakxACEg", "alias": "8elements-express-san-diego", "name": "8Elements Express", "image_url": "https://s3-media2.fl.yelpcdn.com/bphoto/PvEMbdwp0BjVMVryf5y-QA/o.jpg", "is_closed": false, "url": "https://www.yelp.com/biz/8elements-express-san-diego?adjust_creative=oncXGL2aPIKrtJdnWeFSnA&utm_campaign=yelp_api_v3&utm_medium=api_v3_business_search&utm_source=oncXGL2aPIKrtJdnWeFSnA", "review_count": 33, "categories": [{"alias": "indpak", "title": "Indian"}, {"alias": "buffets", "title": "Buffets"}], "rating": 3.0, "coordinates": {"latitude": 32.8996467590332, "longitude": -117.205635070801}, "transactions": ["pickup"], "price": "$", "location": {"address1": "10201 Wateridge Cir", "address2": "Bldg B", "address3": "", "city": "San Diego", "zip_code": "92121", "country": "US", "state": "CA", "display_address": ["10201 Wateridge Cir", "Bldg B", "San Diego, CA 92121"]}, "phone": "+18584502920", "display_phone": "(858) 450-2920", "distance": 16768.28044268061}, {"id": "Ve5Wh1z4eIRXBMX7xbDLNQ", "alias": "souplantation-san-diego-8", "name": "Souplantation", "image_url": "https://s3-media2.fl.yelpcdn.com/bphoto/1EFW3Rkm9dCovLHjLcfvng/o.jpg", "is_closed": false, "url": "https://www.yelp.com/biz/souplantation-san-diego-8?adjust_creative=oncXGL2aPIKrtJdnWeFSnA&utm_campaign=yelp_api_v3&utm_medium=api_v3_business_search&utm_source=oncXGL2aPIKrtJdnWeFSnA", "review_count": 339, "categories": [{"alias": "vegetarian", "title": "Vegetarian"}, {"alias": "buffets", "title": "Buffets"}, {"alias": "salad", "title": "Salad"}], "rating": 3.5, "coordinates": {"latitude": 32.9121499, "longitude": -117.14868}, "transactions": [], "price": "$$", "location": {"address1": "8105 Mira Mesa Blvd", "address2": "", "address3": "", "city": "San Diego", "zip_code": "92126", "country": "US", "state": "CA", "display_address": ["8105 Mira Mesa Blvd", "San Diego, CA 92126"]}, "phone": "+18585661172", "display_phone": "(858) 566-1172", "distance": 17754.270488970145}, {"id": "eGih09BZfdwutgnHyuK8kQ", "alias": "fasia-buffet-escondido-4", "name": "Fasia Buffet", "image_url": "https://s3-media1.fl.yelpcdn.com/bphoto/cxDfL8CzeAEbykNQx5M06A/o.jpg", "is_closed": false, "url": "https://www.yelp.com/biz/fasia-buffet-escondido-4?adjust_creative=oncXGL2aPIKrtJdnWeFSnA&utm_campaign=yelp_api_v3&utm_medium=api_v3_business_search&utm_source=oncXGL2aPIKrtJdnWeFSnA", "review_count": 75, "categories": [{"alias": "buffets", "title": "Buffets"}, {"alias": "hotdogs", "title": "Fast Food"}], "rating": 3.5, "coordinates": {"latitude": 33.1314515, "longitude": -117.0645612}, "transactions": [], "price": "$$", "location": {"address1": "1323 E Valley Pkwy", "address2": "", "address3": "", "city": "Escondido", "zip_code": "92027", "country": "US", "state": "CA", "display_address": ["1323 E Valley Pkwy", "Escondido, CA 92027"]}, "phone": "+17607353378", "display_phone": "(760) 735-3378", "distance": 20171.369063886934}, {"id": "rpc-E4EFJhiShoR7g3NNXw", "alias": "annapurna-indian-cuisine-san-diego", "name": "Annapurna Indian Cuisine", "image_url": "https://s3-media1.fl.yelpcdn.com/bphoto/Ajj3Sv2m9NiPjis3gwc2WA/o.jpg", "is_closed": false, "url": "https://www.yelp.com/biz/annapurna-indian-cuisine-san-diego?adjust_creative=oncXGL2aPIKrtJdnWeFSnA&utm_campaign=yelp_api_v3&utm_medium=api_v3_business_search&utm_source=oncXGL2aPIKrtJdnWeFSnA", "review_count": 254, "categories": [{"alias": "indpak", "title": "Indian"}, {"alias": "buffets", "title": "Buffets"}, {"alias": "halal", "title": "Halal"}], "rating": 3.5, "coordinates": {"latitude": 32.9101399, "longitude": -117.1448286}, "transactions": ["pickup", "delivery"], "price": "$$", "location": {"address1": "10606 Camino Ruiz", "address2": "Ste 6", "address3": "", "city": "San Diego", "zip_code": "92126", "country": "US", "state": "CA", "display_address": ["10606 Camino Ruiz", "Ste 6", "San Diego, CA 92126"]}, "phone": "+18582849191", "display_phone": "(858) 284-9191", "distance": 18134.01941204135}, {"id": "MvWlGttPXDD77fN1wb_q3g", "alias": "souplantation-san-diego-10", "name": "Souplantation", "image_url": "https://s3-media3.fl.yelpcdn.com/bphoto/3nzW2LQHQKUHfgkmiV2-pA/o.jpg", "is_closed": false, "url": "https://www.yelp.com/biz/souplantation-san-diego-10?adjust_creative=oncXGL2aPIKrtJdnWeFSnA&utm_campaign=yelp_api_v3&utm_medium=api_v3_business_search&utm_source=oncXGL2aPIKrtJdnWeFSnA", "review_count": 301, "categories": [{"alias": "vegetarian", "title": "Vegetarian"}, {"alias": "buffets", "title": "Buffets"}, {"alias": "salad", "title": "Salad"}], "rating": 3.5, "coordinates": {"latitude": 33.02604, "longitude": -117.07533}, "transactions": [], "price": "$$", "location": {"address1": "17210 Bernardo Center Dr", "address2": "", "address3": "", "city": "San Diego", "zip_code": "92128", "country": "US", "state": "CA", "display_address": ["17210 Bernardo Center Dr", "San Diego, CA 92128"]}, "phone": "+18586753353", "display_phone": "(858) 675-3353", "distance": 16817.830956023176}, {"id": "YOknlHsf3Z2hKO9Uk7w_3g", "alias": "the-ida-and-cecil-green-faculty-club-la-jolla", "name": "The Ida and Cecil Green Faculty Club", "image_url": "https://s3-media2.fl.yelpcdn.com/bphoto/o8IrpLLWMnR9lHpfvuSFLQ/o.jpg", "is_closed": false, "url": "https://www.yelp.com/biz/the-ida-and-cecil-green-faculty-club-la-jolla?adjust_creative=oncXGL2aPIKrtJdnWeFSnA&utm_campaign=yelp_api_v3&utm_medium=api_v3_business_search&utm_source=oncXGL2aPIKrtJdnWeFSnA", "review_count": 23, "categories": [{"alias": "buffets", "title": "Buffets"}, {"alias": "venues", "title": "Venues & Event Spaces"}], "rating": 4.0, "coordinates": {"latitude": 32.8791957907917, "longitude": -117.239782847464}, "transactions": [], "price": "$$", "location": {"address1": "9500 Gilman Dr", "address2": "Ste 0121", "address3": "", "city": "La Jolla", "zip_code": "92093", "country": "US", "state": "CA", "display_address": ["9500 Gilman Dr", "Ste 0121", "La Jolla, CA 92093"]}, "phone": "+18585340876", "display_phone": "(858) 534-0876", "distance": 18474.270271722315}, {"id": "AWQB--GdK2KHNwej0-F2bA", "alias": "sun-hing-buffet-vista", "name": "Sun Hing Buffet", "image_url": "https://s3-media3.fl.yelpcdn.com/bphoto/ZWWg3o2sl180SSMWlHJK9A/o.jpg", "is_closed": false, "url": "https://www.yelp.com/biz/sun-hing-buffet-vista?adjust_creative=oncXGL2aPIKrtJdnWeFSnA&utm_campaign=yelp_api_v3&utm_medium=api_v3_business_search&utm_source=oncXGL2aPIKrtJdnWeFSnA", "review_count": 166, "categories": [{"alias": "buffets", "title": "Buffets"}, {"alias": "chinese", "title": "Chinese"}], "rating": 3.0, "coordinates": {"latitude": 33.1846508919716, "longitude": -117.282936562427}, "transactions": [], "price": "$$", "location": {"address1": "1960 Hacienda Dr", "address2": "", "address3": "", "city": "Vista", "zip_code": "92081", "country": "US", "state": "CA", "display_address": ["1960 Hacienda Dr", "Vista, CA 92081"]}, "phone": "+17608063586", "display_phone": "(760) 806-3586", "distance": 15767.36003771113}, {"id": "BV4kI9JTPK48PrRJTqpDGw", "alias": "round-table-pizza-oceanside-2", "name": "Round Table Pizza", "image_url": "https://s3-media4.fl.yelpcdn.com/bphoto/CZu2Kr6bK62my_kh5RBV0A/o.jpg", "is_closed": false, "url": "https://www.yelp.com/biz/round-table-pizza-oceanside-2?adjust_creative=oncXGL2aPIKrtJdnWeFSnA&utm_campaign=yelp_api_v3&utm_medium=api_v3_business_search&utm_source=oncXGL2aPIKrtJdnWeFSnA", "review_count": 137, "categories": [{"alias": "pizza", "title": "Pizza"}, {"alias": "buffets", "title": "Buffets"}], "rating": 3.0, "coordinates": {"latitude": 33.17837, "longitude": -117.29708}, "transactions": [], "price": "$$", "location": {"address1": "3440 Marron Road", "address2": "", "address3": "", "city": "Oceanside", "zip_code": "92054", "country": "US", "state": "CA", "display_address": ["3440 Marron Road", "Oceanside, CA 92054"]}, "phone": "+17604345977", "display_phone": "(760) 434-5977", "distance": 15358.168802507169}, {"id": "29ck3ySHNYb_nmT_bl83zQ", "alias": "round-table-pizza-san-diego", "name": "Round Table Pizza", "image_url": "https://s3-media4.fl.yelpcdn.com/bphoto/MfASFG4jhVcHYAcwPo1Xwg/o.jpg", "is_closed": false, "url": "https://www.yelp.com/biz/round-table-pizza-san-diego?adjust_creative=oncXGL2aPIKrtJdnWeFSnA&utm_campaign=yelp_api_v3&utm_medium=api_v3_business_search&utm_source=oncXGL2aPIKrtJdnWeFSnA", "review_count": 138, "categories": [{"alias": "pizza", "title": "Pizza"}, {"alias": "buffets", "title": "Buffets"}], "rating": 3.0, "coordinates": {"latitude": 32.958852, "longitude": -117.124908}, "transactions": ["delivery", "pickup"], "price": "$$", "location": {"address1": "13293 Black Mountain Road", "address2": "", "address3": "", "city": "San Diego", "zip_code": "92129", "country": "US", "state": "CA", "display_address": ["13293 Black Mountain Road", "San Diego, CA 92129"]}, "phone": "+18584846800", "display_phone": "(858) 484-6800", "distance": 15395.860665553744}, {"id": "GcLaBmfOmT_WEzqANyXrxA", "alias": "souplantation-escondido", "name": "Souplantation", "image_url": "https://s3-media4.fl.yelpcdn.com/bphoto/zsAFw6JUaFfwwhW_hX2wbg/o.jpg", "is_closed": false, "url": "https://www.yelp.com/biz/souplantation-escondido?adjust_creative=oncXGL2aPIKrtJdnWeFSnA&utm_campaign=yelp_api_v3&utm_medium=api_v3_business_search&utm_source=oncXGL2aPIKrtJdnWeFSnA", "review_count": 155, "categories": [{"alias": "buffets", "title": "Buffets"}, {"alias": "vegetarian", "title": "Vegetarian"}, {"alias": "salad", "title": "Salad"}], "rating": 3.5, "coordinates": {"latitude": 33.1110356951801, "longitude": -117.0989625946}, "transactions": [], "price": "$$", "location": {"address1": "1260 A & B Auto Pkwy", "address2": "", "address3": "", "city": "Escondido", "zip_code": "92029", "country": "US", "state": "CA", "display_address": ["1260 A & B Auto Pkwy", "Escondido, CA 92029"]}, "phone": "+17608398200", "display_phone": "(760) 839-8200", "distance": 16237.724666616836}], "total": 27, "region": {"center": {"longitude": -117.25433349609375, "latitude": 33.04488992556048}}}