{"businesses": [{"id": "cJIcN2kZHiOvuvQrH_Ep8g", "alias": "benitos-cafe-oceanside", "name": "Benito's Cafe", "image_url": "https://s3-media2.fl.yelpcdn.com/bphoto/n4K1JC7Z18MNUFaxXir-YA/o.jpg", "is_closed": false, "url": "https://www.yelp.com/biz/benitos-cafe-oceanside?adjust_creative=oncXGL2aPIKrtJdnWeFSnA&utm_campaign=yelp_api_v3&utm_medium=api_v3_business_search&utm_source=oncXGL2aPIKrtJdnWeFSnA", "review_count": 18, "categories": [{"alias": "pizza", "title": "Pizza"}, {"alias": "pastashops", "title": "Pasta Shops"}, {"alias": "chickenshop", "title": "Chicken Shop"}], "rating": 4.5, "coordinates": {"latitude": 33.19667, "longitude": -117.37853}, "transactions": [], "location": {"address1": "610 Mission Ave", "address2": "", "address3": null, "city": "Oceanside", "zip_code": "92054", "country": "US", "state": "CA", "display_address": ["610 Mission Ave", "Oceanside, CA 92054"]}, "phone": "+17607213000", "display_phone": "(760) 721-3000", "distance": 20469.54051753148}, {"id": "PqTUa25qT766-xSbK856tw", "alias": "cowboy-chicken-san-diego-6", "name": "Cowboy Chicken", "image_url": "https://s3-media1.fl.yelpcdn.com/bphoto/xY821afdpDNgQ8XPRrzzww/o.jpg", "is_closed": false, "url": "https://www.yelp.com/biz/cowboy-chicken-san-diego-6?adjust_creative=oncXGL2aPIKrtJdnWeFSnA&utm_campaign=yelp_api_v3&utm_medium=api_v3_business_search&utm_source=oncXGL2aPIKrtJdnWeFSnA", "review_count": 115, "categories": [{"alias": "tradamerican", "title": "American (Traditional)"}, {"alias": "chickenshop", "title": "Chicken Shop"}], "rating": 3.5, "coordinates": {"latitude": 33.0196228, "longitude": -117.110638}, "transactions": ["pickup", "delivery"], "price": "$", "location": {"address1": "10562 Craftsman Way", "address2": "Ste 192", "address3": null, "city": "San Diego", "zip_code": "92127", "country": "US", "state": "CA", "display_address": ["10562 Craftsman Way", "Ste 192", "San Diego, CA 92127"]}, "phone": "+18586741981", "display_phone": "(858) 674-1981", "distance": 13696.135836961123}, {"id": "ouVYbwBfUjejp3xwg2KdGQ", "alias": "kfc-san-marcos", "name": "KFC", "image_url": "https://s3-media2.fl.yelpcdn.com/bphoto/iuiPQo-xVH5LBniZ1_AfTA/o.jpg", "is_closed": false, "url": "https://www.yelp.com/biz/kfc-san-marcos?adjust_creative=oncXGL2aPIKrtJdnWeFSnA&utm_campaign=yelp_api_v3&utm_medium=api_v3_business_search&utm_source=oncXGL2aPIKrtJdnWeFSnA", "review_count": 24, "categories": [{"alias": "hotdogs", "title": "Fast Food"}, {"alias": "chicken_wings", "title": "Chicken Wings"}, {"alias": "chickenshop", "title": "Chicken Shop"}], "rating": 2.5, "coordinates": {"latitude": 33.146, "longitude": -117.2}, "transactions": ["delivery"], "price": "$", "location": {"address1": "201 S Rancho Santa Fe Rd", "address2": "", "address3": "", "city": "San Marcos", "zip_code": "92078", "country": "US", "state": "CA", "display_address": ["201 S Rancho Santa Fe Rd", "San Marcos, CA 92078"]}, "phone": "+17607440672", "display_phone": "(760) 744-0672", "distance": 12329.68566301163}, {"id": "blfPxmIyUrWWuvDcAoOFWg", "alias": "kfc-carlsbad-3", "name": "KFC", "image_url": "https://s3-media1.fl.yelpcdn.com/bphoto/fs_zpnX99Qx_6tdLH2omIQ/o.jpg", "is_closed": false, "url": "https://www.yelp.com/biz/kfc-carlsbad-3?adjust_creative=oncXGL2aPIKrtJdnWeFSnA&utm_campaign=yelp_api_v3&utm_medium=api_v3_business_search&utm_source=oncXGL2aPIKrtJdnWeFSnA", "review_count": 45, "categories": [{"alias": "chicken_wings", "title": "Chicken Wings"}, {"alias": "hotdogs", "title": "Fast Food"}, {"alias": "chickenshop", "title": "Chicken Shop"}], "rating": 2.0, "coordinates": {"latitude": 33.1609, "longitude": -117.346}, "transactions": ["delivery"], "price": "$", "location": {"address1": "745 Carlsbad Village Dr", "address2": "", "address3": "", "city": "Carlsbad", "zip_code": "92008", "country": "US", "state": "CA", "display_address": ["745 Carlsbad Village Dr", "Carlsbad, CA 92008"]}, "phone": "+17607297213", "display_phone": "(760) 729-7213", "distance": 15469.576183472687}, {"id": "BEifR3zRVbpFh62zq3QFJA", "alias": "kfc-oceanside-7", "name": "KFC", "image_url": "https://s3-media3.fl.yelpcdn.com/bphoto/xd-GUKBybn8ebnZnFfvzwA/o.jpg", "is_closed": false, "url": "https://www.yelp.com/biz/kfc-oceanside-7?adjust_creative=oncXGL2aPIKrtJdnWeFSnA&utm_campaign=yelp_api_v3&utm_medium=api_v3_business_search&utm_source=oncXGL2aPIKrtJdnWeFSnA", "review_count": 17, "categories": [{"alias": "hotdogs", "title": "Fast Food"}, {"alias": "chicken_wings", "title": "Chicken Wings"}, {"alias": "chickenshop", "title": "Chicken Shop"}], "rating": 2.5, "coordinates": {"latitude": 33.2042, "longitude": -117.364}, "transactions": [], "price": "$", "location": {"address1": "2007 Mission Ave", "address2": null, "address3": null, "city": "Oceanside", "zip_code": "92054", "country": "US", "state": "CA", "display_address": ["2007 Mission Ave", "Oceanside, CA 92054"]}, "phone": "+17607577514", "display_phone": "(760) 757-7514", "distance": 20447.454656368453}, {"id": "3Qz7FlvhGtnAvbVBOaIYEA", "alias": "kfc-san-diego-21", "name": "KFC", "image_url": "https://s3-media3.fl.yelpcdn.com/bphoto/h5QJE0NWirB2uauVWK46Lg/o.jpg", "is_closed": false, "url": "https://www.yelp.com/biz/kfc-san-diego-21?adjust_creative=oncXGL2aPIKrtJdnWeFSnA&utm_campaign=yelp_api_v3&utm_medium=api_v3_business_search&utm_source=oncXGL2aPIKrtJdnWeFSnA", "review_count": 50, "categories": [{"alias": "hotdogs", "title": "Fast Food"}, {"alias": "chicken_wings", "title": "Chicken Wings"}, {"alias": "chickenshop", "title": "Chicken Shop"}], "rating": 2.5, "coordinates": {"latitude": 32.907, "longitude": -117.173}, "transactions": ["pickup", "delivery"], "price": "$", "location": {"address1": "6745 Mira Mesa Blvd", "address2": "", "address3": "", "city": "San Diego", "zip_code": "92121", "country": "US", "state": "CA", "display_address": ["6745 Mira Mesa Blvd", "San Diego, CA 92121"]}, "phone": "+18585581581", "display_phone": "(858) 558-1581", "distance": 17107.038142395973}, {"id": "Ho6RgAfMzfxV2omZQ8pCIQ", "alias": "kfc-san-diego-31", "name": "KFC", "image_url": "https://s3-media1.fl.yelpcdn.com/bphoto/oq_hDeIMdfsz3ciCffOVyg/o.jpg", "is_closed": false, "url": "https://www.yelp.com/biz/kfc-san-diego-31?adjust_creative=oncXGL2aPIKrtJdnWeFSnA&utm_campaign=yelp_api_v3&utm_medium=api_v3_business_search&utm_source=oncXGL2aPIKrtJdnWeFSnA", "review_count": 40, "categories": [{"alias": "chicken_wings", "title": "Chicken Wings"}, {"alias": "hotdogs", "title": "Fast Food"}, {"alias": "chickenshop", "title": "Chicken Shop"}], "rating": 2.5, "coordinates": {"latitude": 32.8811, "longitude": -117.158}, "transactions": ["pickup", "delivery"], "price": "$", "location": {"address1": "7180 Miramar Rd", "address2": "", "address3": "", "city": "San Diego", "zip_code": "92121", "country": "US", "state": "CA", "display_address": ["7180 Miramar Rd", "San Diego, CA 92121"]}, "phone": "+18582718559", "display_phone": "(858) 271-8559", "distance": 20309.40781514683}, {"id": "UbJOn4n9t5FFiRT-MfLKpA", "alias": "kfc-poway-2", "name": "KFC", "image_url": "https://s3-media2.fl.yelpcdn.com/bphoto/DDrgfB8UvyGozTmG6vkcCw/o.jpg", "is_closed": false, "url": "https://www.yelp.com/biz/kfc-poway-2?adjust_creative=oncXGL2aPIKrtJdnWeFSnA&utm_campaign=yelp_api_v3&utm_medium=api_v3_business_search&utm_source=oncXGL2aPIKrtJdnWeFSnA", "review_count": 61, "categories": [{"alias": "hotdogs", "title": "Fast Food"}, {"alias": "chicken_wings", "title": "Chicken Wings"}, {"alias": "chickenshop", "title": "Chicken Shop"}], "rating": 2.5, "coordinates": {"latitude": 32.9545, "longitude": -117.057}, "transactions": ["pickup", "delivery"], "price": "$", "location": {"address1": "12660 Poway Rd", "address2": "", "address3": "", "city": "Poway", "zip_code": "92064", "country": "US", "state": "CA", "display_address": ["12660 Poway Rd", "Poway, CA 92064"]}, "phone": "+18587485979", "display_phone": "(858) 748-5979", "distance": 20968.411659881116}, {"id": "ptaF8CBiNWMyd9TurD3RbQ", "alias": "kfc-oceanside-2", "name": "KFC", "image_url": "https://s3-media1.fl.yelpcdn.com/bphoto/9T5sq2nNJArl3Giu23EBIQ/o.jpg", "is_closed": false, "url": "https://www.yelp.com/biz/kfc-oceanside-2?adjust_creative=oncXGL2aPIKrtJdnWeFSnA&utm_campaign=yelp_api_v3&utm_medium=api_v3_business_search&utm_source=oncXGL2aPIKrtJdnWeFSnA", "review_count": 34, "categories": [{"alias": "hotdogs", "title": "Fast Food"}, {"alias": "chicken_wings", "title": "Chicken Wings"}, {"alias": "chickenshop", "title": "Chicken Shop"}], "rating": 2.5, "coordinates": {"latitude": 33.2063, "longitude": -117.289}, "transactions": ["delivery"], "price": "$", "location": {"address1": "4100 Oceanside Blvd", "address2": "", "address3": "", "city": "Oceanside", "zip_code": "92056", "country": "US", "state": "CA", "display_address": ["4100 Oceanside Blvd", "Oceanside, CA 92056"]}, "phone": "+17606309600", "display_phone": "(760) 630-9600", "distance": 18235.97703994242}, {"id": "qr4LOW9pC3S3x6-17vqBpA", "alias": "kfc-escondido", "name": "KFC", "image_url": "https://s3-media3.fl.yelpcdn.com/bphoto/SW4kq-gQRglGkJguyHKgyA/o.jpg", "is_closed": false, "url": "https://www.yelp.com/biz/kfc-escondido?adjust_creative=oncXGL2aPIKrtJdnWeFSnA&utm_campaign=yelp_api_v3&utm_medium=api_v3_business_search&utm_source=oncXGL2aPIKrtJdnWeFSnA", "review_count": 17, "categories": [{"alias": "hotdogs", "title": "Fast Food"}, {"alias": "chicken_wings", "title": "Chicken Wings"}, {"alias": "chickenshop", "title": "Chicken Shop"}], "rating": 2.5, "coordinates": {"latitude": 33.1276, "longitude": -117.084}, "transactions": ["delivery"], "price": "$", "location": {"address1": "639 N Broadway", "address2": "", "address3": "", "city": "Escondido", "zip_code": "92025", "country": "US", "state": "CA", "display_address": ["639 N Broadway", "Escondido, CA 92025"]}, "phone": "+17604809122", "display_phone": "(760) 480-9122", "distance": 18341.479782191698}, {"id": "JqgycUSuO_n-E7ZtWMEyIg", "alias": "kfc-san-diego-10", "name": "KFC", "image_url": "https://s3-media2.fl.yelpcdn.com/bphoto/guc5KHdN4IeaPm5dXOKYXQ/o.jpg", "is_closed": false, "url": "https://www.yelp.com/biz/kfc-san-diego-10?adjust_creative=oncXGL2aPIKrtJdnWeFSnA&utm_campaign=yelp_api_v3&utm_medium=api_v3_business_search&utm_source=oncXGL2aPIKrtJdnWeFSnA", "review_count": 65, "categories": [{"alias": "hotdogs", "title": "Fast Food"}, {"alias": "chicken_wings", "title": "Chicken Wings"}, {"alias": "chickenshop", "title": "Chicken Shop"}], "rating": 2.0, "coordinates": {"latitude": 32.9372, "longitude": -117.113}, "transactions": ["delivery"], "price": "$", "location": {"address1": "12305 Alemania Rd", "address2": "", "address3": "", "city": "San Diego", "zip_code": "92129", "country": "US", "state": "CA", "display_address": ["12305 Alemania Rd", "San Diego, CA 92129"]}, "phone": "+18585479744", "display_phone": "(858) 547-9744", "distance": 17808.483291669203}, {"id": "cJ2YJPZcM9OcsXQ-wyj5rA", "alias": "kfc-san-marcos-3", "name": "KFC", "image_url": "https://s3-media1.fl.yelpcdn.com/bphoto/bvcFCVsVKp4of54887BILg/o.jpg", "is_closed": false, "url": "https://www.yelp.com/biz/kfc-san-marcos-3?adjust_creative=oncXGL2aPIKrtJdnWeFSnA&utm_campaign=yelp_api_v3&utm_medium=api_v3_business_search&utm_source=oncXGL2aPIKrtJdnWeFSnA", "review_count": 24, "categories": [{"alias": "chicken_wings", "title": "Chicken Wings"}, {"alias": "hotdogs", "title": "Fast Food"}, {"alias": "chickenshop", "title": "Chicken Shop"}], "rating": 2.0, "coordinates": {"latitude": 33.1355, "longitude": -117.121}, "transactions": ["delivery"], "price": "$", "location": {"address1": "771 Center Dr", "address2": "", "address3": "", "city": "San Marcos", "zip_code": "92069", "country": "US", "state": "CA", "display_address": ["771 Center Dr", "San Marcos, CA 92069"]}, "phone": "+17607813384", "display_phone": "(760) 781-3384", "distance": 15993.875697395857}, {"id": "-me7Al8qNDQ9MIU1x1S4Vw", "alias": "kfc-vista-2", "name": "KFC", "image_url": "https://s3-media3.fl.yelpcdn.com/bphoto/QywIFGRVwQVrMPjVNgVBew/o.jpg", "is_closed": false, "url": "https://www.yelp.com/biz/kfc-vista-2?adjust_creative=oncXGL2aPIKrtJdnWeFSnA&utm_campaign=yelp_api_v3&utm_medium=api_v3_business_search&utm_source=oncXGL2aPIKrtJdnWeFSnA", "review_count": 19, "categories": [{"alias": "hotdogs", "title": "Fast Food"}, {"alias": "chicken_wings", "title": "Chicken Wings"}, {"alias": "chickenshop", "title": "Chicken Shop"}], "rating": 2.0, "coordinates": {"latitude": 33.2103, "longitude": -117.234}, "transactions": ["delivery"], "price": "$", "location": {"address1": "840 E Vista Way", "address2": "", "address3": "", "city": "Vista", "zip_code": "92084", "country": "US", "state": "CA", "display_address": ["840 E Vista Way", "Vista, CA 92084"]}, "phone": "+17609411295", "display_phone": "(760) 941-1295", "distance": 18489.946775260072}], "total": 13, "region": {"center": {"longitude": -117.25433349609375, "latitude": 33.04488992556048}}}