{"businesses": [{"id": "a3yfBL2Nlm6Z6-1Yzl4ncw", "alias": "din-tai-fung-san-diego-3", "name": "Din Tai Fung", "image_url": "https://s3-media2.fl.yelpcdn.com/bphoto/ZNATGHB0-khY7Q10awdKgQ/o.jpg", "is_closed": false, "url": "https://www.yelp.com/biz/din-tai-fung-san-diego-3?adjust_creative=oncXGL2aPIKrtJdnWeFSnA&utm_campaign=yelp_api_v3&utm_medium=api_v3_business_search&utm_source=oncXGL2aPIKrtJdnWeFSnA", "review_count": 304, "categories": [{"alias": "taiwanese", "title": "Taiwanese"}, {"alias": "dimsum", "title": "Dim Sum"}, {"alias": "noodles", "title": "Noodles"}], "rating": 4.5, "coordinates": {"latitude": 32.8724184, "longitude": -117.213775}, "transactions": ["restaurant_reservation"], "location": {"address1": "4301 La Jolla Village Dr", "address2": "Bldg P Unit 2000", "address3": null, "city": "San Diego", "zip_code": "92122", "country": "US", "state": "CA", "display_address": ["4301 La Jolla Village Dr", "Bldg P Unit 2000", "San Diego, CA 92122"]}, "phone": "+18583755988", "display_phone": "(858) 375-5988", "distance": 19564.36987593627}, {"id": "mspwZETSQkWbx01SkcLV2g", "alias": "chins-szechwan-cuisine-encinitas-encinitas", "name": "Chin's Szechwan Cuisine - Encinitas", "image_url": "https://s3-media2.fl.yelpcdn.com/bphoto/pUndntoAEanLjdhH9v5DMg/o.jpg", "is_closed": false, "url": "https://www.yelp.com/biz/chins-szechwan-cuisine-encinitas-encinitas?adjust_creative=oncXGL2aPIKrtJdnWeFSnA&utm_campaign=yelp_api_v3&utm_medium=api_v3_business_search&utm_source=oncXGL2aPIKrtJdnWeFSnA", "review_count": 312, "categories": [{"alias": "chinese", "title": "Chinese"}, {"alias": "asianfusion", "title": "Asian Fusion"}, {"alias": "soup", "title": "Soup"}], "rating": 4.0, "coordinates": {"latitude": 33.047369, "longitude": -117.278725}, "transactions": ["pickup", "delivery"], "price": "$$", "location": {"address1": "625 Encinitas Blvd", "address2": "", "address3": "", "city": "Encinitas", "zip_code": "92024", "country": "US", "state": "CA", "display_address": ["625 Encinitas Blvd", "Encinitas, CA 92024"]}, "phone": "+17607533903", "display_phone": "(760) 753-3903", "distance": 2290.110512172399}, {"id": "Cj0HSg9eLUpUaDijuQh19g", "alias": "chinatown-restaurant-encinitas-2", "name": "Chinatown Restaurant", "image_url": "https://s3-media2.fl.yelpcdn.com/bphoto/PDUegLO53CDirf-txIO9fQ/o.jpg", "is_closed": false, "url": "https://www.yelp.com/biz/chinatown-restaurant-encinitas-2?adjust_creative=oncXGL2aPIKrtJdnWeFSnA&utm_campaign=yelp_api_v3&utm_medium=api_v3_business_search&utm_source=oncXGL2aPIKrtJdnWeFSnA", "review_count": 154, "categories": [{"alias": "chinese", "title": "Chinese"}, {"alias": "italian", "title": "Italian"}], "rating": 4.0, "coordinates": {"latitude": 33.064755, "longitude": -117.300905}, "transactions": ["pickup", "delivery"], "price": "$", "location": {"address1": "118 Leucadia Blvd", "address2": "", "address3": "", "city": "Encinitas", "zip_code": "92024", "country": "US", "state": "CA", "display_address": ["118 Leucadia Blvd", "Encinitas, CA 92024"]}, "phone": "+17607530565", "display_phone": "(760) 753-0565", "distance": 4917.657131445906}, {"id": "uOmzq7DCdfHo638KoGEh2w", "alias": "pick-up-stix-encinitas-2", "name": "Pick Up Stix", "image_url": "https://s3-media2.fl.yelpcdn.com/bphoto/6CnwwkTL7Y6PunQ0yyqrCg/o.jpg", "is_closed": false, "url": "https://www.yelp.com/biz/pick-up-stix-encinitas-2?adjust_creative=oncXGL2aPIKrtJdnWeFSnA&utm_campaign=yelp_api_v3&utm_medium=api_v3_business_search&utm_source=oncXGL2aPIKrtJdnWeFSnA", "review_count": 20, "categories": [{"alias": "asianfusion", "title": "Asian Fusion"}, {"alias": "chinese", "title": "Chinese"}], "rating": 4.0, "coordinates": {"latitude": 33.0465057439054, "longitude": -117.257539889047}, "transactions": [], "price": "$", "location": {"address1": "1460 Encinitas Blvd", "address2": "", "address3": null, "city": "Encinitas", "zip_code": "92024", "country": "US", "state": "CA", "display_address": ["1460 Encinitas Blvd", "Encinitas, CA 92024"]}, "phone": "+17606326678", "display_phone": "(760) 632-6678", "distance": 348.7100575601817}, {"id": "0wN1Iz1pGQ5IBEGeAtWCEA", "alias": "pei-wei-encinitas", "name": "Pei Wei", "image_url": "https://s3-media1.fl.yelpcdn.com/bphoto/38yDUxDqsRsOqTDZkTsGFw/o.jpg", "is_closed": false, "url": "https://www.yelp.com/biz/pei-wei-encinitas?adjust_creative=oncXGL2aPIKrtJdnWeFSnA&utm_campaign=yelp_api_v3&utm_medium=api_v3_business_search&utm_source=oncXGL2aPIKrtJdnWeFSnA", "review_count": 162, "categories": [{"alias": "chinese", "title": "Chinese"}, {"alias": "gluten_free", "title": "Gluten-Free"}, {"alias": "asianfusion", "title": "Asian Fusion"}], "rating": 3.0, "coordinates": {"latitude": 33.068531036377, "longitude": -117.265289306641}, "transactions": [], "price": "$", "location": {"address1": "1560-A Leucadia Blvd", "address2": "", "address3": "", "city": "Encinitas", "zip_code": "92024", "country": "US", "state": "CA", "display_address": ["1560-A Leucadia Blvd", "Encinitas, CA 92024"]}, "phone": "+17606352888", "display_phone": "(760) 635-2888", "distance": 2812.85458839184}, {"id": "FmD9_DP7px43pLzPiNZATQ", "alias": "del-mar-rendezvous-del-mar", "name": "Del Mar Rendezvous", "image_url": "https://s3-media2.fl.yelpcdn.com/bphoto/ntqytCfQioOS0Lf9lmZFgw/o.jpg", "is_closed": false, "url": "https://www.yelp.com/biz/del-mar-rendezvous-del-mar?adjust_creative=oncXGL2aPIKrtJdnWeFSnA&utm_campaign=yelp_api_v3&utm_medium=api_v3_business_search&utm_source=oncXGL2aPIKrtJdnWeFSnA", "review_count": 652, "categories": [{"alias": "chinese", "title": "Chinese"}, {"alias": "gluten_free", "title": "Gluten-Free"}, {"alias": "vegetarian", "title": "Vegetarian"}], "rating": 4.0, "coordinates": {"latitude": 32.9607441389406, "longitude": -117.265116690795}, "transactions": ["pickup", "delivery"], "price": "$$", "location": {"address1": "1555 Camino Del Mar", "address2": "Ste 102", "address3": "", "city": "Del Mar", "zip_code": "92014", "country": "US", "state": "CA", "display_address": ["1555 Camino Del Mar", "Ste 102", "Del Mar, CA 92014"]}, "phone": "+18587552669", "display_phone": "(858) 755-2669", "distance": 9410.453657655355}, {"id": "kj9g39Mz_q21831-2ya3SQ", "alias": "panda-express-encinitas-2", "name": "Panda Express", "image_url": "https://s3-media2.fl.yelpcdn.com/bphoto/x1VL9oYFM8mqsj6BHNHpGg/o.jpg", "is_closed": false, "url": "https://www.yelp.com/biz/panda-express-encinitas-2?adjust_creative=oncXGL2aPIKrtJdnWeFSnA&utm_campaign=yelp_api_v3&utm_medium=api_v3_business_search&utm_source=oncXGL2aPIKrtJdnWeFSnA", "review_count": 59, "categories": [{"alias": "chinese", "title": "Chinese"}, {"alias": "hotdogs", "title": "Fast Food"}], "rating": 3.0, "coordinates": {"latitude": 33.0651394414774, "longitude": -117.264642938826}, "transactions": [], "price": "$", "location": {"address1": "1084 N El Camino Real", "address2": "", "address3": "", "city": "Encinitas", "zip_code": "92024", "country": "US", "state": "CA", "display_address": ["1084 N El Camino Real", "Encinitas, CA 92024"]}, "phone": "+17609438888", "display_phone": "(760) 943-8888", "distance": 2448.0713415767145}, {"id": "kE90EEmscN5FPma9GlD0og", "alias": "panda-garden-san-marcos", "name": "Panda Garden", "image_url": "https://s3-media3.fl.yelpcdn.com/bphoto/Y-47TAyg584YFYkIDC65xA/o.jpg", "is_closed": false, "url": "https://www.yelp.com/biz/panda-garden-san-marcos?adjust_creative=oncXGL2aPIKrtJdnWeFSnA&utm_campaign=yelp_api_v3&utm_medium=api_v3_business_search&utm_source=oncXGL2aPIKrtJdnWeFSnA", "review_count": 388, "categories": [{"alias": "chinese", "title": "Chinese"}], "rating": 4.0, "coordinates": {"latitude": 33.132276, "longitude": -117.209051}, "transactions": [], "price": "$$", "location": {"address1": "742 Rancho Santa Fe Rd", "address2": null, "address3": "", "city": "San Marcos", "zip_code": "92078", "country": "US", "state": "CA", "display_address": ["742 Rancho Santa Fe Rd", "San Marcos, CA 92078"]}, "phone": "+17607272322", "display_phone": "(760) 727-2322", "distance": 10593.128688863617}, {"id": "Qt4fUndy7VFCFraOPrrnGA", "alias": "luxe-buffet-carlsbad", "name": "Luxe Buffet", "image_url": "https://s3-media4.fl.yelpcdn.com/bphoto/6WcqFbz0oCpSQC8VDvfrTg/o.jpg", "is_closed": false, "url": "https://www.yelp.com/biz/luxe-buffet-carlsbad?adjust_creative=oncXGL2aPIKrtJdnWeFSnA&utm_campaign=yelp_api_v3&utm_medium=api_v3_business_search&utm_source=oncXGL2aPIKrtJdnWeFSnA", "review_count": 458, "categories": [{"alias": "buffets", "title": "Buffets"}, {"alias": "seafood", "title": "Seafood"}, {"alias": "chinese", "title": "Chinese"}], "rating": 3.5, "coordinates": {"latitude": 33.1798820495605, "longitude": -117.327186584473}, "transactions": [], "price": "$$", "location": {"address1": "2515 El Camino Real", "address2": "", "address3": "", "city": "Carlsbad", "zip_code": "92008", "country": "US", "state": "CA", "display_address": ["2515 El Camino Real", "Carlsbad, CA 92008"]}, "phone": "+17607293888", "display_phone": "(760) 729-3888", "distance": 16467.89454041873}, {"id": "s6scKVmZ-PWs77o7yUNsuQ", "alias": "p-f-changs-carlsbad", "name": "P.F. Chang's", "image_url": "https://s3-media2.fl.yelpcdn.com/bphoto/uqbj13Dt3uIB5GVd_Cpldw/o.jpg", "is_closed": false, "url": "https://www.yelp.com/biz/p-f-changs-carlsbad?adjust_creative=oncXGL2aPIKrtJdnWeFSnA&utm_campaign=yelp_api_v3&utm_medium=api_v3_business_search&utm_source=oncXGL2aPIKrtJdnWeFSnA", "review_count": 441, "categories": [{"alias": "chinese", "title": "Chinese"}, {"alias": "asianfusion", "title": "Asian Fusion"}, {"alias": "gluten_free", "title": "Gluten-Free"}], "rating": 3.0, "coordinates": {"latitude": 33.1251713786098, "longitude": -117.322928294477}, "transactions": ["pickup", "delivery"], "price": "$$", "location": {"address1": "5621 Paseo Del Norte", "address2": "", "address3": "", "city": "Carlsbad", "zip_code": "92008", "country": "US", "state": "CA", "display_address": ["5621 Paseo Del Norte", "Carlsbad, CA 92008"]}, "phone": "+17607950595", "display_phone": "(760) 795-0595", "distance": 10978.620680737322}, {"id": "-0HxZmRZ2chkYhJfPoGwbQ", "alias": "369-ramen-and-poke-and-chinese-food-poway-2", "name": "369 Ramen & Poke & Chinese Food", "image_url": "https://s3-media3.fl.yelpcdn.com/bphoto/bf86q6biLUonpH3urJYS1Q/o.jpg", "is_closed": false, "url": "https://www.yelp.com/biz/369-ramen-and-poke-and-chinese-food-poway-2?adjust_creative=oncXGL2aPIKrtJdnWeFSnA&utm_campaign=yelp_api_v3&utm_medium=api_v3_business_search&utm_source=oncXGL2aPIKrtJdnWeFSnA", "review_count": 46, "categories": [{"alias": "ramen", "title": "Ramen"}, {"alias": "poke", "title": "Poke"}, {"alias": "chinese", "title": "Chinese"}], "rating": 4.0, "coordinates": {"latitude": 32.95089, "longitude": -117.06282}, "transactions": ["pickup", "delivery"], "location": {"address1": "12373 Poway Rd", "address2": "Ste A", "address3": "", "city": "Poway", "zip_code": "92064", "country": "US", "state": "CA", "display_address": ["12373 Poway Rd", "Ste A", "Poway, CA 92064"]}, "phone": "+18586682887", "display_phone": "(858) 668-2887", "distance": 20681.12728602217}, {"id": "AQ8gXL1-u57FkIUK89M7Kg", "alias": "pick-up-stix-carlsbad-8", "name": "Pick Up Stix", "image_url": "https://s3-media1.fl.yelpcdn.com/bphoto/bNL_eeSQixsRP9Tu_kzGlA/o.jpg", "is_closed": false, "url": "https://www.yelp.com/biz/pick-up-stix-carlsbad-8?adjust_creative=oncXGL2aPIKrtJdnWeFSnA&utm_campaign=yelp_api_v3&utm_medium=api_v3_business_search&utm_source=oncXGL2aPIKrtJdnWeFSnA", "review_count": 65, "categories": [{"alias": "chinese", "title": "Chinese"}, {"alias": "asianfusion", "title": "Asian Fusion"}], "rating": 3.0, "coordinates": {"latitude": 33.1003341674805, "longitude": -117.311668395996}, "transactions": ["pickup", "delivery"], "price": "$", "location": {"address1": "7150 Avenida Encinas", "address2": "Ste 102", "address3": "", "city": "Carlsbad", "zip_code": "92011", "country": "US", "state": "CA", "display_address": ["7150 Avenida Encinas", "Ste 102", "Carlsbad, CA 92011"]}, "phone": "+17606021077", "display_phone": "(760) 602-1077", "distance": 8156.730726933896}, {"id": "R0Zgcp0PZfOaXh-PEa9Mng", "alias": "pho-truc-xanh-escondido", "name": "Pho Truc Xanh", "image_url": "https://s3-media4.fl.yelpcdn.com/bphoto/71Z4dwkLY1ZEA7WELil1dA/o.jpg", "is_closed": false, "url": "https://www.yelp.com/biz/pho-truc-xanh-escondido?adjust_creative=oncXGL2aPIKrtJdnWeFSnA&utm_campaign=yelp_api_v3&utm_medium=api_v3_business_search&utm_source=oncXGL2aPIKrtJdnWeFSnA", "review_count": 940, "categories": [{"alias": "vietnamese", "title": "Vietnamese"}, {"alias": "chinese", "title": "Chinese"}], "rating": 4.5, "coordinates": {"latitude": 33.127895, "longitude": -117.091797}, "transactions": [], "price": "$", "location": {"address1": "503 W Mission Ave", "address2": "", "address3": "", "city": "Escondido", "zip_code": "92025", "country": "US", "state": "CA", "display_address": ["503 W Mission Ave", "Escondido, CA 92025"]}, "phone": "+17604898201", "display_phone": "(760) 489-8201", "distance": 17734.87579756556}, {"id": "ZDF-Vv_DbAhzRW25VRqKjA", "alias": "fung-fung-yuen-san-diego", "name": "Fung Fung Yuen", "image_url": "https://s3-media3.fl.yelpcdn.com/bphoto/toUIfIw4IV5GaWWLJ6O5_A/o.jpg", "is_closed": false, "url": "https://www.yelp.com/biz/fung-fung-yuen-san-diego?adjust_creative=oncXGL2aPIKrtJdnWeFSnA&utm_campaign=yelp_api_v3&utm_medium=api_v3_business_search&utm_source=oncXGL2aPIKrtJdnWeFSnA", "review_count": 725, "categories": [{"alias": "dimsum", "title": "Dim Sum"}], "rating": 3.0, "coordinates": {"latitude": 32.9111813573066, "longitude": -117.144599922932}, "transactions": [], "price": "$$", "location": {"address1": "10660 Camino Ruiz", "address2": "", "address3": null, "city": "San Diego", "zip_code": "92126", "country": "US", "state": "CA", "display_address": ["10660 Camino Ruiz", "San Diego, CA 92126"]}, "phone": "+18585788800", "display_phone": "(858) 578-8800", "distance": 18050.5053895231}, {"id": "-ZwjF70WAbgieD_QQvETww", "alias": "china-fusion-oceanside", "name": "China Fusion", "image_url": "https://s3-media4.fl.yelpcdn.com/bphoto/qoHlx2aEX7aXoEplULKIpg/o.jpg", "is_closed": false, "url": "https://www.yelp.com/biz/china-fusion-oceanside?adjust_creative=oncXGL2aPIKrtJdnWeFSnA&utm_campaign=yelp_api_v3&utm_medium=api_v3_business_search&utm_source=oncXGL2aPIKrtJdnWeFSnA", "review_count": 206, "categories": [{"alias": "chinese", "title": "Chinese"}], "rating": 4.5, "coordinates": {"latitude": 33.2064214924819, "longitude": -117.28414903418}, "transactions": [], "price": "$$", "location": {"address1": "4225 Oceanside Blvd", "address2": "Ste B", "address3": null, "city": "Oceanside", "zip_code": "92056", "country": "US", "state": "CA", "display_address": ["4225 Oceanside Blvd", "Ste B", "Oceanside, CA 92056"]}, "phone": "+17607268888", "display_phone": "(760) 726-8888", "distance": 18174.801361517897}, {"id": "oONK85cRdPmygX1ZczLx9g", "alias": "double-happiness-del-mar-3", "name": "Double Happiness", "image_url": "https://s3-media1.fl.yelpcdn.com/bphoto/6zZi2oHw5OWLIuhQ1NkBUg/o.jpg", "is_closed": false, "url": "https://www.yelp.com/biz/double-happiness-del-mar-3?adjust_creative=oncXGL2aPIKrtJdnWeFSnA&utm_campaign=yelp_api_v3&utm_medium=api_v3_business_search&utm_source=oncXGL2aPIKrtJdnWeFSnA", "review_count": 250, "categories": [{"alias": "chinese", "title": "Chinese"}], "rating": 3.5, "coordinates": {"latitude": 32.95476, "longitude": -117.26304}, "transactions": [], "price": "$$", "location": {"address1": "1011 Camino Del Mar", "address2": "", "address3": "", "city": "Del Mar", "zip_code": "92014", "country": "US", "state": "CA", "display_address": ["1011 Camino Del Mar", "Del Mar, CA 92014"]}, "phone": "+18584818584", "display_phone": "(858) 481-8584", "distance": 10036.867370345844}, {"id": "Dadjxp4g0vNUxCO3m1ApSg", "alias": "panda-express-solana-beach", "name": "Panda Express", "image_url": "https://s3-media2.fl.yelpcdn.com/bphoto/_LKdep-ptUmEtzGEXq1hVg/o.jpg", "is_closed": false, "url": "https://www.yelp.com/biz/panda-express-solana-beach?adjust_creative=oncXGL2aPIKrtJdnWeFSnA&utm_campaign=yelp_api_v3&utm_medium=api_v3_business_search&utm_source=oncXGL2aPIKrtJdnWeFSnA", "review_count": 31, "categories": [{"alias": "chinese", "title": "Chinese"}, {"alias": "hotdogs", "title": "Fast Food"}], "rating": 3.0, "coordinates": {"latitude": 32.9958852, "longitude": -117.2594862}, "transactions": [], "price": "$", "location": {"address1": "689 Lomas Santa Fe Dr", "address2": "", "address3": "", "city": "Solana Beach", "zip_code": "92075", "country": "US", "state": "CA", "display_address": ["689 Lomas Santa Fe Dr", "Solana Beach, CA 92075"]}, "phone": "+18585099066", "display_phone": "(858) 509-9066", "distance": 5598.205019681849}, {"id": "gVEDdSfCVeIjdrDNXKblFg", "alias": "zen-modern-asian-san-diego", "name": "ZEN Modern Asian", "image_url": "https://s3-media1.fl.yelpcdn.com/bphoto/8aHUXskU2k_FL7QPzN49Kg/o.jpg", "is_closed": false, "url": "https://www.yelp.com/biz/zen-modern-asian-san-diego?adjust_creative=oncXGL2aPIKrtJdnWeFSnA&utm_campaign=yelp_api_v3&utm_medium=api_v3_business_search&utm_source=oncXGL2aPIKrtJdnWeFSnA", "review_count": 425, "categories": [{"alias": "asianfusion", "title": "Asian Fusion"}, {"alias": "sushi", "title": "Sushi Bars"}, {"alias": "chinese", "title": "Chinese"}], "rating": 4.0, "coordinates": {"latitude": 32.96267, "longitude": -117.09202}, "transactions": ["pickup", "delivery"], "price": "$$", "location": {"address1": "13510 Sabre Spring Pkwy", "address2": "Ste 103", "address3": "", "city": "San Diego", "zip_code": "92128", "country": "US", "state": "CA", "display_address": ["13510 Sabre Spring Pkwy", "Ste 103", "San Diego, CA 92128"]}, "phone": "+18582161068", "display_phone": "(858) 216-1068", "distance": 17674.57080185095}, {"id": "Sfp0o1lJtvymEeiSZ_cgFw", "alias": "chef-wong-chinese-cuisine-san-diego-4", "name": "Chef Wong Chinese Cuisine", "image_url": "https://s3-media2.fl.yelpcdn.com/bphoto/GxcDX0KoUsc02_X2vOW2WA/o.jpg", "is_closed": false, "url": "https://www.yelp.com/biz/chef-wong-chinese-cuisine-san-diego-4?adjust_creative=oncXGL2aPIKrtJdnWeFSnA&utm_campaign=yelp_api_v3&utm_medium=api_v3_business_search&utm_source=oncXGL2aPIKrtJdnWeFSnA", "review_count": 221, "categories": [{"alias": "chinese", "title": "Chinese"}], "rating": 4.0, "coordinates": {"latitude": 32.9598594164377, "longitude": -117.112495897982}, "transactions": ["pickup", "delivery"], "price": "$$", "location": {"address1": "9995 Carmel Mountain Rd", "address2": "Ste 6", "address3": "", "city": "San Diego", "zip_code": "92129", "country": "US", "state": "CA", "display_address": ["9995 Carmel Mountain Rd", "Ste 6", "San Diego, CA 92129"]}, "phone": "+18585381388", "display_phone": "(858) 538-1388", "distance": 16258.685833947166}, {"id": "xHC_I6WOxB6Og5IEFQIM4Q", "alias": "tim-ky-noodle-san-diego", "name": "Tim Ky Noodle", "image_url": "https://s3-media4.fl.yelpcdn.com/bphoto/E9IOokkuLZu-ff5F77_vOA/o.jpg", "is_closed": false, "url": "https://www.yelp.com/biz/tim-ky-noodle-san-diego?adjust_creative=oncXGL2aPIKrtJdnWeFSnA&utm_campaign=yelp_api_v3&utm_medium=api_v3_business_search&utm_source=oncXGL2aPIKrtJdnWeFSnA", "review_count": 359, "categories": [{"alias": "vietnamese", "title": "Vietnamese"}, {"alias": "chinese", "title": "Chinese"}, {"alias": "noodles", "title": "Noodles"}], "rating": 4.0, "coordinates": {"latitude": 32.918898, "longitude": -117.1236}, "transactions": [], "price": "$", "location": {"address1": "9330 Mira Mesa Blvd", "address2": "Ste A", "address3": "", "city": "San Diego", "zip_code": "92126", "country": "US", "state": "CA", "display_address": ["9330 Mira Mesa Blvd", "Ste A", "San Diego, CA 92126"]}, "phone": "+18582718887", "display_phone": "(858) 271-8887", "distance": 18573.3030315029}, {"id": "kSRLVc86XstN0Pq2vm-52A", "alias": "panda-wok-oceanside", "name": "Panda Wok", "image_url": "https://s3-media3.fl.yelpcdn.com/bphoto/as4a5ZufsP2Zg7XSw3u4hQ/o.jpg", "is_closed": false, "url": "https://www.yelp.com/biz/panda-wok-oceanside?adjust_creative=oncXGL2aPIKrtJdnWeFSnA&utm_campaign=yelp_api_v3&utm_medium=api_v3_business_search&utm_source=oncXGL2aPIKrtJdnWeFSnA", "review_count": 6, "categories": [{"alias": "chinese", "title": "Chinese"}], "rating": 4.5, "coordinates": {"latitude": 33.19373, "longitude": -117.35885}, "transactions": [], "location": {"address1": "1836 Oceanside Blvd", "address2": null, "address3": null, "city": "Oceanside", "zip_code": "92054", "country": "US", "state": "CA", "display_address": ["1836 Oceanside Blvd", "Oceanside, CA 92054"]}, "phone": "+17609673956", "display_phone": "(760) 967-3956", "distance": 19085.958925879288}, {"id": "Ux7zGWaND5HPy-q_yk-cuQ", "alias": "chung-hing-san-diego", "name": "Chung Hing", "image_url": "https://s3-media1.fl.yelpcdn.com/bphoto/xnmu4cHqwTlQWYCcuzp6Hg/o.jpg", "is_closed": false, "url": "https://www.yelp.com/biz/chung-hing-san-diego?adjust_creative=oncXGL2aPIKrtJdnWeFSnA&utm_campaign=yelp_api_v3&utm_medium=api_v3_business_search&utm_source=oncXGL2aPIKrtJdnWeFSnA", "review_count": 204, "categories": [{"alias": "chinese", "title": "Chinese"}], "rating": 4.0, "coordinates": {"latitude": 32.8802792121645, "longitude": -117.159922930908}, "transactions": [], "price": "$", "location": {"address1": "7160 Miramar Rd", "address2": "Ste 112", "address3": "", "city": "San Diego", "zip_code": "92121", "country": "US", "state": "CA", "display_address": ["7160 Miramar Rd", "Ste 112", "San Diego, CA 92121"]}, "phone": "+18586953354", "display_phone": "(858) 695-3354", "distance": 20312.8784805128}, {"id": "YckPmm8RWebdKXf-k1lFhw", "alias": "chef-tang-vista", "name": "Chef Tang", "image_url": "https://s3-media3.fl.yelpcdn.com/bphoto/0Xi6xa4jKrB1s2eH0AlMxQ/o.jpg", "is_closed": false, "url": "https://www.yelp.com/biz/chef-tang-vista?adjust_creative=oncXGL2aPIKrtJdnWeFSnA&utm_campaign=yelp_api_v3&utm_medium=api_v3_business_search&utm_source=oncXGL2aPIKrtJdnWeFSnA", "review_count": 116, "categories": [{"alias": "chinese", "title": "Chinese"}], "rating": 4.0, "coordinates": {"latitude": 33.16782, "longitude": -117.24717}, "transactions": [], "price": "$$", "location": {"address1": "1580 S Melrose Dr", "address2": "Ste 106", "address3": "", "city": "Vista", "zip_code": "92081", "country": "US", "state": "CA", "display_address": ["1580 S Melrose Dr", "Ste 106", "Vista, CA 92081"]}, "phone": "+17605979900", "display_phone": "(760) 597-9900", "distance": 13729.451080073233}, {"id": "bwu_8ScPI7H9EW89-C1NLA", "alias": "pick-up-stix-carlsbad-4", "name": "Pick Up Stix", "image_url": "https://s3-media3.fl.yelpcdn.com/bphoto/Xkl0gzPtIxojJ0vkalFiQw/o.jpg", "is_closed": false, "url": "https://www.yelp.com/biz/pick-up-stix-carlsbad-4?adjust_creative=oncXGL2aPIKrtJdnWeFSnA&utm_campaign=yelp_api_v3&utm_medium=api_v3_business_search&utm_source=oncXGL2aPIKrtJdnWeFSnA", "review_count": 69, "categories": [{"alias": "asianfusion", "title": "Asian Fusion"}, {"alias": "chinese", "title": "Chinese"}], "rating": 3.5, "coordinates": {"latitude": 33.12669, "longitude": -117.25386}, "transactions": ["pickup", "delivery"], "price": "$", "location": {"address1": "2641 Gateway Rd", "address2": "Ste 101", "address3": "", "city": "Carlsbad", "zip_code": "92009", "country": "US", "state": "CA", "display_address": ["2641 Gateway Rd", "Ste 101", "Carlsbad, CA 92009"]}, "phone": "+17608041301", "display_phone": "(760) 804-1301", "distance": 9118.031955874485}, {"id": "BZL-XE7m-i_OoFp91UIA6Q", "alias": "spicy-hut-san-diego-2", "name": "Spicy Hut", "image_url": "https://s3-media2.fl.yelpcdn.com/bphoto/Skg3YmaSNXmUmDozg9zDfg/o.jpg", "is_closed": false, "url": "https://www.yelp.com/biz/spicy-hut-san-diego-2?adjust_creative=oncXGL2aPIKrtJdnWeFSnA&utm_campaign=yelp_api_v3&utm_medium=api_v3_business_search&utm_source=oncXGL2aPIKrtJdnWeFSnA", "review_count": 53, "categories": [{"alias": "szechuan", "title": "Szechuan"}], "rating": 3.5, "coordinates": {"latitude": 32.9174312, "longitude": -117.1213782}, "transactions": [], "price": "$$", "location": {"address1": "9460 Mira Mesa Blvd", "address2": "Ste E8", "address3": null, "city": "San Diego", "zip_code": "92126", "country": "US", "state": "CA", "display_address": ["9460 Mira Mesa Blvd", "Ste E8", "San Diego, CA 92126"]}, "phone": "+18585788818", "display_phone": "(858) 578-8818", "distance": 18710.477006452416}, {"id": "1ZflRsr-3BuNgQel1GHCQQ", "alias": "pho-saigon-express-escondido", "name": "Pho Saigon Express", "image_url": "https://s3-media1.fl.yelpcdn.com/bphoto/gBLX--Q607TSLMtCef5Ong/o.jpg", "is_closed": false, "url": "https://www.yelp.com/biz/pho-saigon-express-escondido?adjust_creative=oncXGL2aPIKrtJdnWeFSnA&utm_campaign=yelp_api_v3&utm_medium=api_v3_business_search&utm_source=oncXGL2aPIKrtJdnWeFSnA", "review_count": 659, "categories": [{"alias": "vietnamese", "title": "Vietnamese"}, {"alias": "chinese", "title": "Chinese"}, {"alias": "vegetarian", "title": "Vegetarian"}], "rating": 4.5, "coordinates": {"latitude": 33.126807, "longitude": -117.084974}, "transactions": ["pickup"], "price": "$", "location": {"address1": "605 N Broadway", "address2": null, "address3": "", "city": "Escondido", "zip_code": "92025", "country": "US", "state": "CA", "display_address": ["605 N Broadway", "Escondido, CA 92025"]}, "phone": "+17607464669", "display_phone": "(760) 746-4669", "distance": 18218.842699609115}, {"id": "xgXjP2mVktVF2hxWnYlgJg", "alias": "china-cafe-del-mar-4", "name": "China Cafe", "image_url": "https://s3-media2.fl.yelpcdn.com/bphoto/ktqrafVBK3kgnFcZVlm4ow/o.jpg", "is_closed": false, "url": "https://www.yelp.com/biz/china-cafe-del-mar-4?adjust_creative=oncXGL2aPIKrtJdnWeFSnA&utm_campaign=yelp_api_v3&utm_medium=api_v3_business_search&utm_source=oncXGL2aPIKrtJdnWeFSnA", "review_count": 162, "categories": [{"alias": "chinese", "title": "Chinese"}], "rating": 3.5, "coordinates": {"latitude": 32.93397, "longitude": -117.25437}, "transactions": ["pickup", "delivery"], "price": "$$", "location": {"address1": "2236 Carmel Valley Rd", "address2": null, "address3": "", "city": "Del Mar", "zip_code": "92014", "country": "US", "state": "CA", "display_address": ["2236 Carmel Valley Rd", "Del Mar, CA 92014"]}, "phone": "+18587938478", "display_phone": "(858) 793-8478", "distance": 12330.01679251142}, {"id": "TwxxZav5ix_GUE2V0BP3YQ", "alias": "chins-gourmet-carlsbad", "name": "Chins Gourmet", "image_url": "https://s3-media2.fl.yelpcdn.com/bphoto/L1KI7gcSNz9bVcBg7NZiOw/o.jpg", "is_closed": false, "url": "https://www.yelp.com/biz/chins-gourmet-carlsbad?adjust_creative=oncXGL2aPIKrtJdnWeFSnA&utm_campaign=yelp_api_v3&utm_medium=api_v3_business_search&utm_source=oncXGL2aPIKrtJdnWeFSnA", "review_count": 35, "categories": [{"alias": "chinese", "title": "Chinese"}], "rating": 3.0, "coordinates": {"latitude": 33.1042138301478, "longitude": -117.266007228243}, "transactions": ["pickup", "delivery"], "price": "$$", "location": {"address1": "6990 El Camino Real", "address2": "", "address3": null, "city": "Carlsbad", "zip_code": "92009", "country": "US", "state": "CA", "display_address": ["6990 El Camino Real", "Carlsbad, CA 92009"]}, "phone": "+17604387886", "display_phone": "(760) 438-7886", "distance": 6685.587702406662}, {"id": "--4B6GkzqEh3P_ajSEmFiA", "alias": "yenchim-garden-restaurant-san-diego", "name": "Yenchim Garden Restaurant", "image_url": "https://s3-media1.fl.yelpcdn.com/bphoto/8BCn-Asv5R26vFbjErFE5w/o.jpg", "is_closed": false, "url": "https://www.yelp.com/biz/yenchim-garden-restaurant-san-diego?adjust_creative=oncXGL2aPIKrtJdnWeFSnA&utm_campaign=yelp_api_v3&utm_medium=api_v3_business_search&utm_source=oncXGL2aPIKrtJdnWeFSnA", "review_count": 294, "categories": [{"alias": "chinese", "title": "Chinese"}], "rating": 4.0, "coordinates": {"latitude": 32.9589952257099, "longitude": -117.124592730411}, "transactions": [], "price": "$$", "location": {"address1": "13297 Black Mountain Rd", "address2": "", "address3": "", "city": "San Diego", "zip_code": "92129", "country": "US", "state": "CA", "display_address": ["13297 Black Mountain Rd", "San Diego, CA 92129"]}, "phone": "+18584847277", "display_phone": "(858) 484-7277", "distance": 15414.397727342746}, {"id": "oc2_rhnSN6835fS09iu8vQ", "alias": "chins-szechwan-cuisine-oceanside-oceanside-2", "name": "Chin's Szechwan Cuisine - Oceanside", "image_url": "https://s3-media2.fl.yelpcdn.com/bphoto/vLTp7Cmh0x75gvJA4IyAnw/o.jpg", "is_closed": false, "url": "https://www.yelp.com/biz/chins-szechwan-cuisine-oceanside-oceanside-2?adjust_creative=oncXGL2aPIKrtJdnWeFSnA&utm_campaign=yelp_api_v3&utm_medium=api_v3_business_search&utm_source=oncXGL2aPIKrtJdnWeFSnA", "review_count": 258, "categories": [{"alias": "chinese", "title": "Chinese"}, {"alias": "asianfusion", "title": "Asian Fusion"}, {"alias": "soup", "title": "Soup"}], "rating": 4.0, "coordinates": {"latitude": 33.207614, "longitude": -117.287945}, "transactions": ["pickup", "delivery"], "price": "$$", "location": {"address1": "4140 Oceanside Blvd", "address2": "", "address3": "", "city": "Oceanside", "zip_code": "92056", "country": "US", "state": "CA", "display_address": ["4140 Oceanside Blvd", "Oceanside, CA 92056"]}, "phone": "+17606314808", "display_phone": "(760) 631-4808", "distance": 18362.792551619237}, {"id": "NZsIIH5zFa9DbBH2gyiwxA", "alias": "panda-wok-oceanside-2", "name": "Panda Wok", "image_url": "https://s3-media4.fl.yelpcdn.com/bphoto/Q6rjHYiSpaiMKlwaJDz5oA/o.jpg", "is_closed": false, "url": "https://www.yelp.com/biz/panda-wok-oceanside-2?adjust_creative=oncXGL2aPIKrtJdnWeFSnA&utm_campaign=yelp_api_v3&utm_medium=api_v3_business_search&utm_source=oncXGL2aPIKrtJdnWeFSnA", "review_count": 1, "categories": [{"alias": "chinese", "title": "Chinese"}], "rating": 4.0, "coordinates": {"latitude": 33.1931156690619, "longitude": -117.357905609654}, "transactions": [], "location": {"address1": "1836 Oceanside Blvd", "address2": "Ste 101", "address3": null, "city": "Oceanside", "zip_code": "92054", "country": "US", "state": "CA", "display_address": ["1836 Oceanside Blvd", "Ste 101", "Oceanside, CA 92054"]}, "phone": "+17609673956", "display_phone": "(760) 967-3956", "distance": 19096.926038852034}, {"id": "4HfQK96r00AYox18BcekAg", "alias": "pick-up-stix-san-marcos", "name": "Pick up Stix", "image_url": "https://s3-media1.fl.yelpcdn.com/bphoto/LzGLOqcKFnvkp9jMPYljSw/o.jpg", "is_closed": false, "url": "https://www.yelp.com/biz/pick-up-stix-san-marcos?adjust_creative=oncXGL2aPIKrtJdnWeFSnA&utm_campaign=yelp_api_v3&utm_medium=api_v3_business_search&utm_source=oncXGL2aPIKrtJdnWeFSnA", "review_count": 40, "categories": [{"alias": "asianfusion", "title": "Asian Fusion"}, {"alias": "chinese", "title": "Chinese"}], "rating": 3.5, "coordinates": {"latitude": 33.1363380760568, "longitude": -117.17829991132}, "transactions": ["pickup", "delivery"], "price": "$", "location": {"address1": "595 Grand Ave", "address2": "", "address3": null, "city": "San Marcos", "zip_code": "92078", "country": "US", "state": "CA", "display_address": ["595 Grand Ave", "San Marcos, CA 92078"]}, "phone": "+17607368821", "display_phone": "(760) 736-8821", "distance": 12392.435400670915}, {"id": "wGJJi6enDpzj1WzVsmhrug", "alias": "pho-4-queen-san-marcos", "name": "Pho 4 Queen", "image_url": "https://s3-media2.fl.yelpcdn.com/bphoto/HxAIuDYYsYGTqmLcxFVnHg/o.jpg", "is_closed": false, "url": "https://www.yelp.com/biz/pho-4-queen-san-marcos?adjust_creative=oncXGL2aPIKrtJdnWeFSnA&utm_campaign=yelp_api_v3&utm_medium=api_v3_business_search&utm_source=oncXGL2aPIKrtJdnWeFSnA", "review_count": 182, "categories": [{"alias": "vietnamese", "title": "Vietnamese"}, {"alias": "chinese", "title": "Chinese"}, {"alias": "soup", "title": "Soup"}], "rating": 4.0, "coordinates": {"latitude": 33.1471976, "longitude": -117.1995141}, "transactions": ["pickup"], "price": "$", "location": {"address1": "159 S Rancho Santa Fe Rd", "address2": "", "address3": "", "city": "San Marcos", "zip_code": "92078", "country": "US", "state": "CA", "display_address": ["159 S Rancho Santa Fe Rd", "San Marcos, CA 92078"]}, "phone": "+17604712572", "display_phone": "(760) 471-2572", "distance": 12448.504711428655}, {"id": "Os8pkvG4WvTNthL9rfcOfA", "alias": "dragon-express-escondido", "name": "Dragon Express", "image_url": "https://s3-media2.fl.yelpcdn.com/bphoto/ZD7J_7Bl4kcq-Zc3b9DGBQ/o.jpg", "is_closed": false, "url": "https://www.yelp.com/biz/dragon-express-escondido?adjust_creative=oncXGL2aPIKrtJdnWeFSnA&utm_campaign=yelp_api_v3&utm_medium=api_v3_business_search&utm_source=oncXGL2aPIKrtJdnWeFSnA", "review_count": 110, "categories": [{"alias": "chinese", "title": "Chinese"}], "rating": 4.5, "coordinates": {"latitude": 33.134615, "longitude": -117.058094}, "transactions": [], "price": "$", "location": {"address1": "1652 E Valley Pkwy", "address2": null, "address3": "", "city": "Escondido", "zip_code": "92027", "country": "US", "state": "CA", "display_address": ["1652 E Valley Pkwy", "Escondido, CA 92027"]}, "phone": "+17607433580", "display_phone": "(760) 743-3580", "distance": 20827.024842582545}, {"id": "TXaU8fcElFrOYIt0nP7w5A", "alias": "overseas-restaurant-carlsbad-2", "name": "Overseas Restaurant", "image_url": "https://s3-media1.fl.yelpcdn.com/bphoto/ik35nbDskUfexstOJoOi4Q/o.jpg", "is_closed": false, "url": "https://www.yelp.com/biz/overseas-restaurant-carlsbad-2?adjust_creative=oncXGL2aPIKrtJdnWeFSnA&utm_campaign=yelp_api_v3&utm_medium=api_v3_business_search&utm_source=oncXGL2aPIKrtJdnWeFSnA", "review_count": 219, "categories": [{"alias": "chinese", "title": "Chinese"}], "rating": 3.5, "coordinates": {"latitude": 33.1621017, "longitude": -117.3490593}, "transactions": [], "price": "$$", "location": {"address1": "2820 Roosevelt St", "address2": "", "address3": "", "city": "Carlsbad", "zip_code": "92008", "country": "US", "state": "CA", "display_address": ["2820 Roosevelt St", "Carlsbad, CA 92008"]}, "phone": "+17607290348", "display_phone": "(760) 729-0348", "distance": 15765.739636855453}, {"id": "t-W5alvYGno4D-03Ycd5IQ", "alias": "inchins-bamboo-garden-san-diego", "name": "Inchin's Bamboo Garden", "image_url": "https://s3-media2.fl.yelpcdn.com/bphoto/qFUKasKN35t3EE7mcC6mbA/o.jpg", "is_closed": false, "url": "https://www.yelp.com/biz/inchins-bamboo-garden-san-diego?adjust_creative=oncXGL2aPIKrtJdnWeFSnA&utm_campaign=yelp_api_v3&utm_medium=api_v3_business_search&utm_source=oncXGL2aPIKrtJdnWeFSnA", "review_count": 186, "categories": [{"alias": "chinese", "title": "Chinese"}, {"alias": "panasian", "title": "Pan Asian"}, {"alias": "halal", "title": "Halal"}], "rating": 3.5, "coordinates": {"latitude": 32.9146968991591, "longitude": -117.146445423279}, "transactions": ["pickup", "delivery"], "price": "$$", "location": {"address1": "8242 Mira Mesa Blvd", "address2": null, "address3": null, "city": "San Diego", "zip_code": "92126", "country": "US", "state": "CA", "display_address": ["8242 Mira Mesa Blvd", "San Diego, CA 92126"]}, "phone": "+18585368843", "display_phone": "(858) 536-8843", "distance": 17630.972090038427}, {"id": "CE_6L0_txHkGcZVBRvv_3A", "alias": "china-wokery-san-marcos", "name": "China Wokery", "image_url": "https://s3-media1.fl.yelpcdn.com/bphoto/UoENjc8rvQo2ZglRU--mnQ/o.jpg", "is_closed": false, "url": "https://www.yelp.com/biz/china-wokery-san-marcos?adjust_creative=oncXGL2aPIKrtJdnWeFSnA&utm_campaign=yelp_api_v3&utm_medium=api_v3_business_search&utm_source=oncXGL2aPIKrtJdnWeFSnA", "review_count": 194, "categories": [{"alias": "chinese", "title": "Chinese"}], "rating": 3.5, "coordinates": {"latitude": 33.13535, "longitude": -117.18991}, "transactions": [], "price": "$$", "location": {"address1": "1020 W San Marcos Blvd", "address2": "Ste 142", "address3": "", "city": "San Marcos", "zip_code": "92078", "country": "US", "state": "CA", "display_address": ["1020 W San Marcos Blvd", "Ste 142", "San Marcos, CA 92078"]}, "phone": "+17604716066", "display_phone": "(760) 471-6066", "distance": 11603.196378767678}, {"id": "rCdirBjSZ-r-U0Cp1GIZ5w", "alias": "p-f-changs-san-diego-4", "name": "P.F. Chang's", "image_url": "https://s3-media3.fl.yelpcdn.com/bphoto/5hTAmgQ9i0J449xtZVL9tA/o.jpg", "is_closed": false, "url": "https://www.yelp.com/biz/p-f-changs-san-diego-4?adjust_creative=oncXGL2aPIKrtJdnWeFSnA&utm_campaign=yelp_api_v3&utm_medium=api_v3_business_search&utm_source=oncXGL2aPIKrtJdnWeFSnA", "review_count": 722, "categories": [{"alias": "chinese", "title": "Chinese"}, {"alias": "asianfusion", "title": "Asian Fusion"}, {"alias": "gluten_free", "title": "Gluten-Free"}], "rating": 3.0, "coordinates": {"latitude": 32.8741560968703, "longitude": -117.209342122078}, "transactions": ["pickup", "delivery"], "price": "$$", "location": {"address1": "4540 La Jolla Village Dr", "address2": "", "address3": "", "city": "San Diego", "zip_code": "92122", "country": "US", "state": "CA", "display_address": ["4540 La Jolla Village Dr", "San Diego, CA 92122"]}, "phone": "+18584589007", "display_phone": "(858) 458-9007", "distance": 19443.236857500757}, {"id": "jRzyZuyyT26v2potoStZMg", "alias": "hong-kong-bbq-and-dim-sum-san-diego-2", "name": "Hong Kong BBQ & Dim Sum", "image_url": "https://s3-media2.fl.yelpcdn.com/bphoto/An6oPAbuP0dBQq7HxV_2SQ/o.jpg", "is_closed": false, "url": "https://www.yelp.com/biz/hong-kong-bbq-and-dim-sum-san-diego-2?adjust_creative=oncXGL2aPIKrtJdnWeFSnA&utm_campaign=yelp_api_v3&utm_medium=api_v3_business_search&utm_source=oncXGL2aPIKrtJdnWeFSnA", "review_count": 178, "categories": [{"alias": "dimsum", "title": "Dim Sum"}, {"alias": "bbq", "title": "Barbeque"}, {"alias": "cantonese", "title": "Cantonese"}], "rating": 3.5, "coordinates": {"latitude": 32.9092399, "longitude": -117.14554}, "transactions": [], "price": "$", "location": {"address1": "10550 Camino Ruiz", "address2": "", "address3": "", "city": "San Diego", "zip_code": "92126", "country": "US", "state": "CA", "display_address": ["10550 Camino Ruiz", "San Diego, CA 92126"]}, "phone": "+18584084888", "display_phone": "(858) 408-4888", "distance": 18164.968719685723}, {"id": "jR44yr8nwNKExcURFUaJZQ", "alias": "pho-ha-noi-san-diego", "name": "Pho Ha Noi", "image_url": "https://s3-media2.fl.yelpcdn.com/bphoto/ZATsHBMaDEwO-8mMffv5rw/o.jpg", "is_closed": false, "url": "https://www.yelp.com/biz/pho-ha-noi-san-diego?adjust_creative=oncXGL2aPIKrtJdnWeFSnA&utm_campaign=yelp_api_v3&utm_medium=api_v3_business_search&utm_source=oncXGL2aPIKrtJdnWeFSnA", "review_count": 118, "categories": [{"alias": "vietnamese", "title": "Vietnamese"}, {"alias": "chinese", "title": "Chinese"}, {"alias": "breakfast_brunch", "title": "Breakfast & Brunch"}], "rating": 4.0, "coordinates": {"latitude": 32.8791578097215, "longitude": -117.166892234177}, "transactions": ["pickup", "delivery"], "price": "$", "location": {"address1": "6904 Miramar Rd", "address2": "Ste 215", "address3": "", "city": "San Diego", "zip_code": "92121", "country": "US", "state": "CA", "display_address": ["6904 Miramar Rd", "Ste 215", "San Diego, CA 92121"]}, "phone": "+18586216330", "display_phone": "(858) 621-6330", "distance": 20153.483664644333}, {"id": "Z22lzt8mfZQNsCipm5Msng", "alias": "wonderwok-san-marcos", "name": "Wonderwok", "image_url": "https://s3-media2.fl.yelpcdn.com/bphoto/UWpqQLMTTLWqb-63YNw42g/o.jpg", "is_closed": false, "url": "https://www.yelp.com/biz/wonderwok-san-marcos?adjust_creative=oncXGL2aPIKrtJdnWeFSnA&utm_campaign=yelp_api_v3&utm_medium=api_v3_business_search&utm_source=oncXGL2aPIKrtJdnWeFSnA", "review_count": 3, "categories": [{"alias": "fooddeliveryservices", "title": "Food Delivery Services"}, {"alias": "chinese", "title": "Chinese"}], "rating": 3.5, "coordinates": {"latitude": 33.1415416, "longitude": -117.1854618}, "transactions": ["pickup", "delivery"], "location": {"address1": "980 Los Vallecitos Blvd", "address2": "unit B & C", "address3": "", "city": "San Marcos", "zip_code": "92069", "country": "US", "state": "CA", "display_address": ["980 Los Vallecitos Blvd", "unit B & C", "San Marcos, CA 92069"]}, "phone": "+16194908558", "display_phone": "(619) 490-8558", "distance": 12542.76837510248}, {"id": "7kzHH0WXAliEljZ3wljLDw", "alias": "beijing-city-poway", "name": "Beijing City", "image_url": "https://s3-media2.fl.yelpcdn.com/bphoto/DN9hB21qb9ZkyZYuCE4o_A/o.jpg", "is_closed": false, "url": "https://www.yelp.com/biz/beijing-city-poway?adjust_creative=oncXGL2aPIKrtJdnWeFSnA&utm_campaign=yelp_api_v3&utm_medium=api_v3_business_search&utm_source=oncXGL2aPIKrtJdnWeFSnA", "review_count": 170, "categories": [{"alias": "chinese", "title": "Chinese"}], "rating": 4.0, "coordinates": {"latitude": 32.952574, "longitude": -117.065176}, "transactions": [], "price": "$$", "location": {"address1": "12334 Poway Rd", "address2": null, "address3": "", "city": "Poway", "zip_code": "92064", "country": "US", "state": "CA", "display_address": ["12334 Poway Rd", "Poway, CA 92064"]}, "phone": "+18584861483", "display_phone": "(858) 486-1483", "distance": 20409.576900761236}, {"id": "2FezbtfKt1RX0UOSijpIlw", "alias": "chuns-seafood-and-grill-san-diego-6", "name": "Chun's Seafood & Grill", "image_url": "https://s3-media2.fl.yelpcdn.com/bphoto/7dx2UoeX6s_qQDvHMs0Frw/o.jpg", "is_closed": false, "url": "https://www.yelp.com/biz/chuns-seafood-and-grill-san-diego-6?adjust_creative=oncXGL2aPIKrtJdnWeFSnA&utm_campaign=yelp_api_v3&utm_medium=api_v3_business_search&utm_source=oncXGL2aPIKrtJdnWeFSnA", "review_count": 120, "categories": [{"alias": "seafood", "title": "Seafood"}, {"alias": "chinese", "title": "Chinese"}], "rating": 3.0, "coordinates": {"latitude": 32.89243, "longitude": -117.1179}, "transactions": [], "price": "$$", "location": {"address1": "9355 Kearny Mesa Rd", "address2": null, "address3": "", "city": "San Diego", "zip_code": "92126", "country": "US", "state": "CA", "display_address": ["9355 Kearny Mesa Rd", "San Diego, CA 92126"]}, "phone": "+18585362300", "display_phone": "(858) 536-2300", "distance": 21172.871708873598}, {"id": "1C7uSqIAgMO7p2cFzZvfGA", "alias": "chopsticks-chinese-cuisine-poway", "name": "Chopsticks Chinese Cuisine", "image_url": "https://s3-media1.fl.yelpcdn.com/bphoto/YDW8jxzzbgMCEc4av-1JrA/o.jpg", "is_closed": false, "url": "https://www.yelp.com/biz/chopsticks-chinese-cuisine-poway?adjust_creative=oncXGL2aPIKrtJdnWeFSnA&utm_campaign=yelp_api_v3&utm_medium=api_v3_business_search&utm_source=oncXGL2aPIKrtJdnWeFSnA", "review_count": 224, "categories": [{"alias": "chinese", "title": "Chinese"}], "rating": 4.0, "coordinates": {"latitude": 32.9822686, "longitude": -117.0620243}, "transactions": [], "price": "$", "location": {"address1": "14885 Pomerado Rd", "address2": "", "address3": "", "city": "Poway", "zip_code": "92064", "country": "US", "state": "CA", "display_address": ["14885 Pomerado Rd", "Poway, CA 92064"]}, "phone": "+18587482488", "display_phone": "(858) 748-2488", "distance": 19332.94532802026}, {"id": "FtAUSJQnRK3jujCqDMaBbg", "alias": "bt-chinese-kitchen-san-diego-5", "name": "BT Chinese Kitchen", "image_url": "https://s3-media1.fl.yelpcdn.com/bphoto/nDRgzbPGWtFQEGiEZMKTyw/o.jpg", "is_closed": false, "url": "https://www.yelp.com/biz/bt-chinese-kitchen-san-diego-5?adjust_creative=oncXGL2aPIKrtJdnWeFSnA&utm_campaign=yelp_api_v3&utm_medium=api_v3_business_search&utm_source=oncXGL2aPIKrtJdnWeFSnA", "review_count": 14, "categories": [{"alias": "chinese", "title": "Chinese"}], "rating": 4.0, "coordinates": {"latitude": 32.878323, "longitude": -117.1685865}, "transactions": ["pickup", "delivery"], "location": {"address1": "6780 Miramar Rd", "address2": "Ste 104", "address3": "", "city": "San Diego", "zip_code": "92121", "country": "US", "state": "CA", "display_address": ["6780 Miramar Rd", "Ste 104", "San Diego, CA 92121"]}, "phone": "+18582002016", "display_phone": "(858) 200-2016", "distance": 20108.246549857457}, {"id": "PVwxsEs-DwYuvznyQcKAGg", "alias": "seaside-buffet-san-diego", "name": "Seaside Buffet", "image_url": "https://s3-media1.fl.yelpcdn.com/bphoto/nbSI8gk1kajna1qBmhAyUA/o.jpg", "is_closed": false, "url": "https://www.yelp.com/biz/seaside-buffet-san-diego?adjust_creative=oncXGL2aPIKrtJdnWeFSnA&utm_campaign=yelp_api_v3&utm_medium=api_v3_business_search&utm_source=oncXGL2aPIKrtJdnWeFSnA", "review_count": 428, "categories": [{"alias": "buffets", "title": "Buffets"}, {"alias": "chinese", "title": "Chinese"}, {"alias": "seafood", "title": "Seafood"}], "rating": 3.5, "coordinates": {"latitude": 32.8945113449462, "longitude": -117.131427973509}, "transactions": [], "price": "$$", "location": {"address1": "8998 Miramar Rd", "address2": "", "address3": "", "city": "San Diego", "zip_code": "92126", "country": "US", "state": "CA", "display_address": ["8998 Miramar Rd", "San Diego, CA 92126"]}, "phone": "+18585661888", "display_phone": "(858) 566-1888", "distance": 20274.663155965067}, {"id": "YvUXMzn9vGyrtk29YNB0lw", "alias": "panda-express-carlsbad", "name": "Panda Express", "image_url": "https://s3-media2.fl.yelpcdn.com/bphoto/k0ndYAA2R6dft9Um9Q_W9g/o.jpg", "is_closed": false, "url": "https://www.yelp.com/biz/panda-express-carlsbad?adjust_creative=oncXGL2aPIKrtJdnWeFSnA&utm_campaign=yelp_api_v3&utm_medium=api_v3_business_search&utm_source=oncXGL2aPIKrtJdnWeFSnA", "review_count": 27, "categories": [{"alias": "chinese", "title": "Chinese"}, {"alias": "hotdogs", "title": "Fast Food"}], "rating": 3.0, "coordinates": {"latitude": 33.1034164428711, "longitude": -117.268577575684}, "transactions": [], "price": "$", "location": {"address1": "6951 El Camino Real", "address2": "", "address3": "", "city": "Carlsbad", "zip_code": "92009", "country": "US", "state": "CA", "display_address": ["6951 El Camino Real", "Carlsbad, CA 92009"]}, "phone": "+17604311061", "display_phone": "(760) 431-1061", "distance": 6651.293378811179}, {"id": "DXRYScpMT3uzD_sA5OfTIA", "alias": "the-mandarin-oceanside", "name": "The Mandarin", "image_url": "https://s3-media2.fl.yelpcdn.com/bphoto/-DiMbAL30nVwquB8SI46TA/o.jpg", "is_closed": false, "url": "https://www.yelp.com/biz/the-mandarin-oceanside?adjust_creative=oncXGL2aPIKrtJdnWeFSnA&utm_campaign=yelp_api_v3&utm_medium=api_v3_business_search&utm_source=oncXGL2aPIKrtJdnWeFSnA", "review_count": 240, "categories": [{"alias": "chinese", "title": "Chinese"}], "rating": 3.5, "coordinates": {"latitude": 33.1999772279184, "longitude": -117.374549718524}, "transactions": [], "price": "$", "location": {"address1": "1058 Mission Ave", "address2": "", "address3": "", "city": "Oceanside", "zip_code": "92054", "country": "US", "state": "CA", "display_address": ["1058 Mission Ave", "Oceanside, CA 92054"]}, "phone": "+17604390288", "display_phone": "(760) 439-0288", "distance": 20560.17298806451}, {"id": "R7Ix-QjXDbS31JWvTVvjYg", "alias": "luong-hai-ky-san-diego-3", "name": "Luong Hai Ky", "image_url": "https://s3-media2.fl.yelpcdn.com/bphoto/ThOqlxrrZdCm4RmY3Cevww/o.jpg", "is_closed": false, "url": "https://www.yelp.com/biz/luong-hai-ky-san-diego-3?adjust_creative=oncXGL2aPIKrtJdnWeFSnA&utm_campaign=yelp_api_v3&utm_medium=api_v3_business_search&utm_source=oncXGL2aPIKrtJdnWeFSnA", "review_count": 367, "categories": [{"alias": "chinese", "title": "Chinese"}, {"alias": "vietnamese", "title": "Vietnamese"}], "rating": 3.5, "coordinates": {"latitude": 32.909942, "longitude": -117.144949}, "transactions": ["delivery"], "price": "$", "location": {"address1": "10606 Camino Ruiz", "address2": "Ste 2", "address3": "", "city": "San Diego", "zip_code": "92126", "country": "US", "state": "CA", "display_address": ["10606 Camino Ruiz", "Ste 2", "San Diego, CA 92126"]}, "phone": "+18585784888", "display_phone": "(858) 578-4888", "distance": 18145.894973044076}, {"id": "qhv03eb9At04AjAuNqXPkQ", "alias": "mr-holy-gao-san-diego-5", "name": "Mr Holy Gao", "image_url": "https://s3-media2.fl.yelpcdn.com/bphoto/FBa_BBABxUL-fV2BJJIZSQ/o.jpg", "is_closed": false, "url": "https://www.yelp.com/biz/mr-holy-gao-san-diego-5?adjust_creative=oncXGL2aPIKrtJdnWeFSnA&utm_campaign=yelp_api_v3&utm_medium=api_v3_business_search&utm_source=oncXGL2aPIKrtJdnWeFSnA", "review_count": 114, "categories": [{"alias": "szechuan", "title": "Szechuan"}], "rating": 3.5, "coordinates": {"latitude": 32.9011638078006, "longitude": -117.192797595656}, "transactions": ["pickup"], "price": "$$", "location": {"address1": "10066 Pacific Hts Blvd", "address2": "", "address3": null, "city": "San  Diego", "zip_code": "92121", "country": "US", "state": "CA", "display_address": ["10066 Pacific Hts Blvd", "San  Diego, CA 92121"]}, "phone": "+18585873916", "display_phone": "(858) 587-3916", "distance": 16981.249925874643}], "total": 100, "region": {"center": {"longitude": -117.25433349609375, "latitude": 33.04488992556048}}}