{"businesses": [{"id": "SqtnbJ2awhAYYZP0a2gYIw", "alias": "the-sandwich-spot-encinitas-2", "name": "The Sandwich Spot", "image_url": "https://s3-media3.fl.yelpcdn.com/bphoto/PpW-N3v4h3jqzMZ-SHh0Ag/o.jpg", "is_closed": false, "url": "https://www.yelp.com/biz/the-sandwich-spot-encinitas-2?adjust_creative=oncXGL2aPIKrtJdnWeFSnA&utm_campaign=yelp_api_v3&utm_medium=api_v3_business_search&utm_source=oncXGL2aPIKrtJdnWeFSnA", "review_count": 290, "categories": [{"alias": "sandwiches", "title": "Sandwiches"}, {"alias": "delis", "title": "Delis"}, {"alias": "cafes", "title": "Cafes"}], "rating": 4.0, "coordinates": {"latitude": 33.0490435418675, "longitude": -117.29460910975}, "transactions": ["pickup"], "price": "$$", "location": {"address1": "90 N Coast Hwy", "address2": "Ste 103", "address3": "", "city": "Encinitas", "zip_code": "92024", "country": "US", "state": "CA", "display_address": ["90 N Coast Hwy", "Ste 103", "Encinitas, CA 92024"]}, "phone": "+17602302147", "display_phone": "(760) 230-2147", "distance": 3782.2397252961296}, {"id": "W2faQfnZ5bJBsChMvFbMOw", "alias": "jorges-mexicatessen-encinitas", "name": "Jorge's Mexicatessen", "image_url": "https://s3-media4.fl.yelpcdn.com/bphoto/xSftnqCSghmm7n-g4DsNPQ/o.jpg", "is_closed": false, "url": "https://www.yelp.com/biz/jorges-mexicatessen-encinitas?adjust_creative=oncXGL2aPIKrtJdnWeFSnA&utm_campaign=yelp_api_v3&utm_medium=api_v3_business_search&utm_source=oncXGL2aPIKrtJdnWeFSnA", "review_count": 346, "categories": [{"alias": "delis", "title": "Delis"}, {"alias": "mexican", "title": "Mexican"}], "rating": 4.0, "coordinates": {"latitude": 33.05312, "longitude": -117.260166}, "transactions": [], "price": "$", "location": {"address1": "267 N El Camino Real", "address2": "Ste E", "address3": "", "city": "Encinitas", "zip_code": "92024", "country": "US", "state": "CA", "display_address": ["267 N El Camino Real", "Ste E", "Encinitas, CA 92024"]}, "phone": "+17609426809", "display_phone": "(760) 942-6809", "distance": 1064.4240672709752}, {"id": "X9o5yDQvuMicYH50Lrvr8g", "alias": "tip-top-meats-and-european-delicatessen-carlsbad", "name": "Tip Top Meats & European Delicatessen", "image_url": "https://s3-media3.fl.yelpcdn.com/bphoto/w0tz89Qs5mwmXSGy_IYrjg/o.jpg", "is_closed": false, "url": "https://www.yelp.com/biz/tip-top-meats-and-european-delicatessen-carlsbad?adjust_creative=oncXGL2aPIKrtJdnWeFSnA&utm_campaign=yelp_api_v3&utm_medium=api_v3_business_search&utm_source=oncXGL2aPIKrtJdnWeFSnA", "review_count": 1514, "categories": [{"alias": "meats", "title": "Meat Shops"}, {"alias": "delis", "title": "Delis"}], "rating": 4.0, "coordinates": {"latitude": 33.1197299, "longitude": -117.31853}, "transactions": [], "price": "$", "location": {"address1": "6118 Paseo Del Norte", "address2": "", "address3": "", "city": "Carlsbad", "zip_code": "92011", "country": "US", "state": "CA", "display_address": ["6118 Paseo Del Norte", "Carlsbad, CA 92011"]}, "phone": "+17604382620", "display_phone": "(760) 438-2620", "distance": 10253.396603287694}, {"id": "H7SoH3GJ2gj3nX7ap3xGDQ", "alias": "deliluv-encinitas", "name": "DeliLuv", "image_url": "https://s3-media4.fl.yelpcdn.com/bphoto/9b2K3Ci6Ke_evADiUTIHGQ/o.jpg", "is_closed": false, "url": "https://www.yelp.com/biz/deliluv-encinitas?adjust_creative=oncXGL2aPIKrtJdnWeFSnA&utm_campaign=yelp_api_v3&utm_medium=api_v3_business_search&utm_source=oncXGL2aPIKrtJdnWeFSnA", "review_count": 26, "categories": [{"alias": "delis", "title": "Delis"}, {"alias": "bakeries", "title": "Bakeries"}], "rating": 4.0, "coordinates": {"latitude": 33.0486120281515, "longitude": -117.284023068123}, "transactions": ["pickup"], "price": "$", "location": {"address1": "350 Encinitas Blvd", "address2": null, "address3": "", "city": "Encinitas", "zip_code": "92024", "country": "US", "state": "CA", "display_address": ["350 Encinitas Blvd", "Encinitas, CA 92024"]}, "phone": "+17609426802", "display_phone": "(760) 942-6802", "distance": 2798.03622344538}, {"id": "lPFKybOVx2gRLClTzIujdg", "alias": "bologna-gourmet-carlsbad", "name": "Bologna Gourmet", "image_url": "https://s3-media3.fl.yelpcdn.com/bphoto/MdIdPh2bo_Dme675CPztRw/o.jpg", "is_closed": false, "url": "https://www.yelp.com/biz/bologna-gourmet-carlsbad?adjust_creative=oncXGL2aPIKrtJdnWeFSnA&utm_campaign=yelp_api_v3&utm_medium=api_v3_business_search&utm_source=oncXGL2aPIKrtJdnWeFSnA", "review_count": 150, "categories": [{"alias": "delis", "title": "Delis"}, {"alias": "italian", "title": "Italian"}, {"alias": "pastashops", "title": "Pasta Shops"}], "rating": 4.5, "coordinates": {"latitude": 33.12392, "longitude": -117.27351}, "transactions": ["pickup"], "price": "$", "location": {"address1": "6150 Yarrow Dr", "address2": null, "address3": "", "city": "Carlsbad", "zip_code": "92011", "country": "US", "state": "CA", "display_address": ["6150 Yarrow Dr", "Carlsbad, CA 92011"]}, "phone": "+17609290877", "display_phone": "(760) 929-0877", "distance": 8971.650862346343}, {"id": "JW2WD8O8hRf98BahFtXUYA", "alias": "jersey-mikes-subs-encinitas-3", "name": "Jersey Mike's Subs", "image_url": "https://s3-media2.fl.yelpcdn.com/bphoto/EEucukFSA0-WklLjwFaQ5Q/o.jpg", "is_closed": false, "url": "https://www.yelp.com/biz/jersey-mikes-subs-encinitas-3?adjust_creative=oncXGL2aPIKrtJdnWeFSnA&utm_campaign=yelp_api_v3&utm_medium=api_v3_business_search&utm_source=oncXGL2aPIKrtJdnWeFSnA", "review_count": 18, "categories": [{"alias": "hotdogs", "title": "Fast Food"}, {"alias": "delis", "title": "Delis"}, {"alias": "sandwiches", "title": "Sandwiches"}], "rating": 3.5, "coordinates": {"latitude": 33.0487655, "longitude": -117.2897189}, "transactions": [], "price": "$", "location": {"address1": "138 Encinitas Blvd", "address2": null, "address3": null, "city": "Encinitas", "zip_code": "92024", "country": "US", "state": "CA", "display_address": ["138 Encinitas Blvd", "Encinitas, CA 92024"]}, "phone": "+17602742222", "display_phone": "(760) 274-2222", "distance": 3282.859770165998}, {"id": "j_te1-9iaR9wKninc321ZA", "alias": "jimbos-naturally-carlsbad-2", "name": "Jimbo's Naturally", "image_url": "https://s3-media1.fl.yelpcdn.com/bphoto/K3ygk02bWaDy5LYckJr-YA/o.jpg", "is_closed": false, "url": "https://www.yelp.com/biz/jimbos-naturally-carlsbad-2?adjust_creative=oncXGL2aPIKrtJdnWeFSnA&utm_campaign=yelp_api_v3&utm_medium=api_v3_business_search&utm_source=oncXGL2aPIKrtJdnWeFSnA", "review_count": 183, "categories": [{"alias": "grocery", "title": "Grocery"}, {"alias": "delis", "title": "Delis"}, {"alias": "healthmarkets", "title": "Health Markets"}], "rating": 4.0, "coordinates": {"latitude": 33.0723073917475, "longitude": -117.265005342293}, "transactions": [], "price": "$$", "location": {"address1": "1923 Calle Barcelona", "address2": "Ste 149", "address3": "", "city": "Carlsbad", "zip_code": "92009", "country": "US", "state": "CA", "display_address": ["1923 Calle Barcelona", "Ste 149", "Carlsbad, CA 92009"]}, "phone": "+17603347755", "display_phone": "(760) 334-7755", "distance": 3206.801865718974}, {"id": "TSSfmgrpOfGomSz9fTQUmA", "alias": "yoshino-japanese-deli-carlsbad", "name": "Yoshino Japanese Deli", "image_url": "https://s3-media1.fl.yelpcdn.com/bphoto/8P632tFx8oym5M-7pqfemA/o.jpg", "is_closed": false, "url": "https://www.yelp.com/biz/yoshino-japanese-deli-carlsbad?adjust_creative=oncXGL2aPIKrtJdnWeFSnA&utm_campaign=yelp_api_v3&utm_medium=api_v3_business_search&utm_source=oncXGL2aPIKrtJdnWeFSnA", "review_count": 726, "categories": [{"alias": "japanese", "title": "Japanese"}, {"alias": "sushi", "title": "Sushi Bars"}, {"alias": "delis", "title": "Delis"}], "rating": 4.5, "coordinates": {"latitude": 33.1603163, "longitude": -117.3495182}, "transactions": [], "price": "$", "location": {"address1": "2913 State St", "address2": "", "address3": "", "city": "Carlsbad", "zip_code": "92008", "country": "US", "state": "CA", "display_address": ["2913 State St", "Carlsbad, CA 92008"]}, "phone": "+17608890309", "display_phone": "(760) 889-0309", "distance": 15607.586188578984}, {"id": "Qnz5GJi5W0yW3Wd0968HQQ", "alias": "cedar-grill-and-cafe-san-diego", "name": "Cedar Grill & Cafe", "image_url": "https://s3-media1.fl.yelpcdn.com/bphoto/UJCtqcaRH0WpRVO3jkkQmQ/o.jpg", "is_closed": false, "url": "https://www.yelp.com/biz/cedar-grill-and-cafe-san-diego?adjust_creative=oncXGL2aPIKrtJdnWeFSnA&utm_campaign=yelp_api_v3&utm_medium=api_v3_business_search&utm_source=oncXGL2aPIKrtJdnWeFSnA", "review_count": 141, "categories": [{"alias": "mediterranean", "title": "Mediterranean"}, {"alias": "delis", "title": "Delis"}], "rating": 4.5, "coordinates": {"latitude": 32.9373283596466, "longitude": -117.231014370918}, "transactions": ["delivery", "pickup"], "price": "$", "location": {"address1": "3861 Valley Ctr Dr", "address2": null, "address3": "", "city": "San Diego", "zip_code": "92130", "country": "US", "state": "CA", "display_address": ["3861 Valley Ctr Dr", "San Diego, CA 92130"]}, "phone": "+18583506717", "display_phone": "(858) 350-6717", "distance": 12156.417851906828}, {"id": "NQ4QOOTbYW9MfseqwRFZcQ", "alias": "2051-cafe-carlsbad", "name": "2051 Cafe", "image_url": "https://s3-media3.fl.yelpcdn.com/bphoto/2FSNyrghNITP3L21VkbrPw/o.jpg", "is_closed": false, "url": "https://www.yelp.com/biz/2051-cafe-carlsbad?adjust_creative=oncXGL2aPIKrtJdnWeFSnA&utm_campaign=yelp_api_v3&utm_medium=api_v3_business_search&utm_source=oncXGL2aPIKrtJdnWeFSnA", "review_count": 82, "categories": [{"alias": "cafes", "title": "Cafes"}, {"alias": "delis", "title": "Delis"}, {"alias": "italian", "title": "Italian"}], "rating": 5.0, "coordinates": {"latitude": 33.1224971661327, "longitude": -117.276416666667}, "transactions": [], "price": "$$", "location": {"address1": "2051 Palomar Airport Rd", "address2": "Ste 175", "address3": null, "city": "Carlsbad", "zip_code": "92011", "country": "US", "state": "CA", "display_address": ["2051 Palomar Airport Rd", "Ste 175", "Carlsbad, CA 92011"]}, "phone": "+17608142831", "display_phone": "(760) 814-2831", "distance": 8871.39541755152}, {"id": "YOgU8se3_Ah4eLgIAA4VOg", "alias": "miltons-del-mar", "name": "Milton's", "image_url": "https://s3-media3.fl.yelpcdn.com/bphoto/9tnddk_w9Rx562bQcy1BRQ/o.jpg", "is_closed": false, "url": "https://www.yelp.com/biz/miltons-del-mar?adjust_creative=oncXGL2aPIKrtJdnWeFSnA&utm_campaign=yelp_api_v3&utm_medium=api_v3_business_search&utm_source=oncXGL2aPIKrtJdnWeFSnA", "review_count": 793, "categories": [{"alias": "delis", "title": "Delis"}, {"alias": "sandwiches", "title": "Sandwiches"}, {"alias": "bakeries", "title": "Bakeries"}], "rating": 3.5, "coordinates": {"latitude": 32.9806995, "longitude": -117.2509631}, "transactions": ["delivery", "pickup"], "price": "$$", "location": {"address1": "2660 Via De La Valle", "address2": "", "address3": "", "city": "Del Mar", "zip_code": "92014", "country": "US", "state": "CA", "display_address": ["2660 Via De La Valle", "Del Mar, CA 92014"]}, "phone": "+18587922225", "display_phone": "(858) 792-2225", "distance": 7144.556750320721}, {"id": "639xnlt3WMRMF4l-eyTeSg", "alias": "jersey-mikes-subs-encinitas-2", "name": "Jersey Mike's Subs", "image_url": "https://s3-media3.fl.yelpcdn.com/bphoto/YROl5a3knt3bzr7wo_1I-A/o.jpg", "is_closed": false, "url": "https://www.yelp.com/biz/jersey-mikes-subs-encinitas-2?adjust_creative=oncXGL2aPIKrtJdnWeFSnA&utm_campaign=yelp_api_v3&utm_medium=api_v3_business_search&utm_source=oncXGL2aPIKrtJdnWeFSnA", "review_count": 89, "categories": [{"alias": "sandwiches", "title": "Sandwiches"}, {"alias": "hotdogs", "title": "Fast Food"}, {"alias": "delis", "title": "Delis"}], "rating": 3.5, "coordinates": {"latitude": 33.066994, "longitude": -117.26326}, "transactions": [], "price": "$", "location": {"address1": "1070 N El Camino Real", "address2": "", "address3": "", "city": "Encinitas", "zip_code": "92024", "country": "US", "state": "CA", "display_address": ["1070 N El Camino Real", "Encinitas, CA 92024"]}, "phone": "+17606346800", "display_phone": "(760) 634-6800", "distance": 2594.832951608864}, {"id": "vNiijPbS2EX77YXgdwdMDA", "alias": "garden-state-bagels-carlsbad-5", "name": "Garden State Bagels", "image_url": "https://s3-media1.fl.yelpcdn.com/bphoto/-l5C6qen71OpD3jU9rpkyQ/o.jpg", "is_closed": false, "url": "https://www.yelp.com/biz/garden-state-bagels-carlsbad-5?adjust_creative=oncXGL2aPIKrtJdnWeFSnA&utm_campaign=yelp_api_v3&utm_medium=api_v3_business_search&utm_source=oncXGL2aPIKrtJdnWeFSnA", "review_count": 2, "categories": [{"alias": "bagels", "title": "Bagels"}, {"alias": "sandwiches", "title": "Sandwiches"}, {"alias": "delis", "title": "Delis"}], "rating": 5.0, "coordinates": {"latitude": 33.12129, "longitude": -117.31881}, "transactions": [], "location": {"address1": "6020 Paseo Del Norte", "address2": "", "address3": null, "city": "Carlsbad", "zip_code": "92011", "country": "US", "state": "CA", "display_address": ["6020 Paseo Del Norte", "Carlsbad, CA 92011"]}, "phone": "+17604761000", "display_phone": "(760) 476-1000", "distance": 10399.192481548918}, {"id": "hRUt0aWmYwXzxoo8f3oEdw", "alias": "stater-bros-markets-encinitas-3", "name": "Stater Bros. Markets", "image_url": "https://s3-media2.fl.yelpcdn.com/bphoto/r-ZHiITvGXxGUIFB8ixhhg/o.jpg", "is_closed": false, "url": "https://www.yelp.com/biz/stater-bros-markets-encinitas-3?adjust_creative=oncXGL2aPIKrtJdnWeFSnA&utm_campaign=yelp_api_v3&utm_medium=api_v3_business_search&utm_source=oncXGL2aPIKrtJdnWeFSnA", "review_count": 48, "categories": [{"alias": "grocery", "title": "Grocery"}, {"alias": "delis", "title": "Delis"}, {"alias": "butcher", "title": "Butcher"}], "rating": 3.5, "coordinates": {"latitude": 33.067082, "longitude": -117.266087}, "transactions": [], "price": "$$", "location": {"address1": "1048 N El Camino Real", "address2": "", "address3": "", "city": "Encinitas", "zip_code": "92024", "country": "US", "state": "CA", "display_address": ["1048 N El Camino Real", "Encinitas, CA 92024"]}, "phone": "+17609437738", "display_phone": "(760) 943-7738", "distance": 2685.538525502625}, {"id": "zbgK2W9N6akeTIsjVXPjXg", "alias": "gelsons-market-carlsbad", "name": "Gelson's Market", "image_url": "https://s3-media1.fl.yelpcdn.com/bphoto/vtZXWaYbDjXh9bslEWSuvA/o.jpg", "is_closed": false, "url": "https://www.yelp.com/biz/gelsons-market-carlsbad?adjust_creative=oncXGL2aPIKrtJdnWeFSnA&utm_campaign=yelp_api_v3&utm_medium=api_v3_business_search&utm_source=oncXGL2aPIKrtJdnWeFSnA", "review_count": 113, "categories": [{"alias": "delis", "title": "Delis"}, {"alias": "grocery", "title": "Grocery"}, {"alias": "wine_bars", "title": "Wine Bars"}], "rating": 3.5, "coordinates": {"latitude": 33.08707, "longitude": -117.26757}, "transactions": [], "price": "$$", "location": {"address1": "7660 El Camino Real", "address2": "", "address3": "", "city": "Carlsbad", "zip_code": "92009", "country": "US", "state": "CA", "display_address": ["7660 El Camino Real", "Carlsbad, CA 92009"]}, "phone": "+17606327511", "display_phone": "(760) 632-7511", "distance": 4868.423087246606}, {"id": "lENUpZIYiGYyj3MQz66yXw", "alias": "ranch-market-vista-2", "name": "Ranch Market", "image_url": "", "is_closed": false, "url": "https://www.yelp.com/biz/ranch-market-vista-2?adjust_creative=oncXGL2aPIKrtJdnWeFSnA&utm_campaign=yelp_api_v3&utm_medium=api_v3_business_search&utm_source=oncXGL2aPIKrtJdnWeFSnA", "review_count": 1, "categories": [{"alias": "delis", "title": "Delis"}, {"alias": "grocery", "title": "Grocery"}, {"alias": "juicebars", "title": "Juice Bars & Smoothies"}], "rating": 4.0, "coordinates": {"latitude": 33.13312, "longitude": -117.22957}, "transactions": [], "location": {"address1": "3225 Business Park Dr", "address2": "", "address3": null, "city": "Vista", "zip_code": "92081", "country": "US", "state": "CA", "display_address": ["3225 Business Park Dr", "Vista, CA 92081"]}, "phone": "+17605997043", "display_phone": "(760) 599-7043", "distance": 10084.772971487871}, {"id": "vg2qCNbyoSPh720vJXyqtA", "alias": "lolas-7-up-market-and-deli-carlsbad", "name": "Lola's 7 Up Market & Deli", "image_url": "https://s3-media3.fl.yelpcdn.com/bphoto/h5kxWvohZgtuEqxAhi6WSA/o.jpg", "is_closed": false, "url": "https://www.yelp.com/biz/lolas-7-up-market-and-deli-carlsbad?adjust_creative=oncXGL2aPIKrtJdnWeFSnA&utm_campaign=yelp_api_v3&utm_medium=api_v3_business_search&utm_source=oncXGL2aPIKrtJdnWeFSnA", "review_count": 247, "categories": [{"alias": "delis", "title": "Delis"}, {"alias": "mexican", "title": "Mexican"}], "rating": 4.5, "coordinates": {"latitude": 33.1571353, "longitude": -117.3450053}, "transactions": [], "price": "$", "location": {"address1": "3292 Roosevelt St", "address2": "", "address3": "", "city": "Carlsbad", "zip_code": "92008", "country": "US", "state": "CA", "display_address": ["3292 Roosevelt St", "Carlsbad, CA 92008"]}, "phone": "+17604342191", "display_phone": "(760) 434-2191", "distance": 15063.451173009253}, {"id": "ttoAoTbH3NP-KA7JBjXL5w", "alias": "firehouse-subs-encinitas", "name": "Firehouse Subs", "image_url": "https://s3-media3.fl.yelpcdn.com/bphoto/V7XBCH-Kp1vsqnitRbOdAw/o.jpg", "is_closed": false, "url": "https://www.yelp.com/biz/firehouse-subs-encinitas?adjust_creative=oncXGL2aPIKrtJdnWeFSnA&utm_campaign=yelp_api_v3&utm_medium=api_v3_business_search&utm_source=oncXGL2aPIKrtJdnWeFSnA", "review_count": 108, "categories": [{"alias": "hotdogs", "title": "Fast Food"}, {"alias": "delis", "title": "Delis"}, {"alias": "sandwiches", "title": "Sandwiches"}], "rating": 3.5, "coordinates": {"latitude": 33.0475846760947, "longitude": -117.260470590407}, "transactions": ["delivery", "pickup"], "price": "$", "location": {"address1": "132 North El Camino Real", "address2": "", "address3": "", "city": "Encinitas", "zip_code": "92024", "country": "US", "state": "CA", "display_address": ["132 North El Camino Real", "Encinitas, CA 92024"]}, "phone": "+17604790925", "display_phone": "(760) 479-0925", "distance": 645.7490796388925}, {"id": "KUmFz3jMQwWAMfgD20MKQA", "alias": "rubicon-deli-san-diego-4", "name": "Rubicon Deli", "image_url": "https://s3-media1.fl.yelpcdn.com/bphoto/l6ERSgveyU020HNMXnKQNw/o.jpg", "is_closed": false, "url": "https://www.yelp.com/biz/rubicon-deli-san-diego-4?adjust_creative=oncXGL2aPIKrtJdnWeFSnA&utm_campaign=yelp_api_v3&utm_medium=api_v3_business_search&utm_source=oncXGL2aPIKrtJdnWeFSnA", "review_count": 212, "categories": [{"alias": "delis", "title": "Delis"}, {"alias": "sandwiches", "title": "Sandwiches"}], "rating": 4.0, "coordinates": {"latitude": 32.8725503052485, "longitude": -117.217779256415}, "transactions": [], "price": "$$", "location": {"address1": "4130 La Jolla Village Dr", "address2": "Ste 104", "address3": "", "city": "San Diego", "zip_code": "92037", "country": "US", "state": "CA", "display_address": ["4130 La Jolla Village Dr", "Ste 104", "San Diego, CA 92037"]}, "phone": "+18588779911", "display_phone": "(858) 877-9911", "distance": 19464.386483013826}, {"id": "3uB95QdjNeKLqgacUi5zZA", "alias": "hungry-bear-deli-vista-3", "name": "Hungry Bear Deli", "image_url": "https://s3-media4.fl.yelpcdn.com/bphoto/D-Zx1rFya6pEneGjl0tQpw/o.jpg", "is_closed": false, "url": "https://www.yelp.com/biz/hungry-bear-deli-vista-3?adjust_creative=oncXGL2aPIKrtJdnWeFSnA&utm_campaign=yelp_api_v3&utm_medium=api_v3_business_search&utm_source=oncXGL2aPIKrtJdnWeFSnA", "review_count": 578, "categories": [{"alias": "delis", "title": "Delis"}, {"alias": "sandwiches", "title": "Sandwiches"}, {"alias": "salad", "title": "Salad"}], "rating": 4.5, "coordinates": {"latitude": 33.14637, "longitude": -117.24163}, "transactions": [], "price": "$", "location": {"address1": "2205 S Melrose Dr", "address2": "Ste 103", "address3": "", "city": "Vista", "zip_code": "92081", "country": "US", "state": "CA", "display_address": ["2205 S Melrose Dr", "Ste 103", "Vista, CA 92081"]}, "phone": "+17602952295", "display_phone": "(760) 295-2295", "distance": 11341.3018207971}, {"id": "WaTVEVh7ki_h-wdw0-aatg", "alias": "qwik-korner-deli-grocery-solana-beach", "name": "Qwik Korner Deli Grocery", "image_url": "https://s3-media1.fl.yelpcdn.com/bphoto/MitE_ZcRz1puWfXhJxDwUw/o.jpg", "is_closed": false, "url": "https://www.yelp.com/biz/qwik-korner-deli-grocery-solana-beach?adjust_creative=oncXGL2aPIKrtJdnWeFSnA&utm_campaign=yelp_api_v3&utm_medium=api_v3_business_search&utm_source=oncXGL2aPIKrtJdnWeFSnA", "review_count": 46, "categories": [{"alias": "grocery", "title": "Grocery"}, {"alias": "delis", "title": "Delis"}], "rating": 4.5, "coordinates": {"latitude": 32.982157, "longitude": -117.270037}, "transactions": [], "price": "$", "location": {"address1": "731 S Hwy 101", "address2": "", "address3": "", "city": "Solana Beach", "zip_code": "92075", "country": "US", "state": "CA", "display_address": ["731 S Hwy 101", "Solana Beach, CA 92075"]}, "phone": "+18587553491", "display_phone": "(858) 755-3491", "distance": 7127.593297400516}, {"id": "T7clD90oNlDnp9qlvziAOw", "alias": "on-a-roll-carlsbad", "name": "On A Roll", "image_url": "https://s3-media2.fl.yelpcdn.com/bphoto/hfliA0C0D5yL6SCzJG4wUA/o.jpg", "is_closed": false, "url": "https://www.yelp.com/biz/on-a-roll-carlsbad?adjust_creative=oncXGL2aPIKrtJdnWeFSnA&utm_campaign=yelp_api_v3&utm_medium=api_v3_business_search&utm_source=oncXGL2aPIKrtJdnWeFSnA", "review_count": 78, "categories": [{"alias": "sandwiches", "title": "Sandwiches"}, {"alias": "delis", "title": "Delis"}], "rating": 4.5, "coordinates": {"latitude": 33.131852, "longitude": -117.253401}, "transactions": [], "price": "$", "location": {"address1": "2794 Loker Ave W", "address2": "Ste 110", "address3": "", "city": "Carlsbad", "zip_code": "92008", "country": "US", "state": "CA", "display_address": ["2794 Loker Ave W", "Ste 110", "Carlsbad, CA 92008"]}, "phone": "+17604318148", "display_phone": "(760) 431-8148", "distance": 9670.120993784756}, {"id": "M2aeSgtn2AFINhLm0AFEDQ", "alias": "chez-nous-san-diego-2", "name": "Chez Nous", "image_url": "https://s3-media1.fl.yelpcdn.com/bphoto/7ECxzpv60PW17fhQ7gPNMw/o.jpg", "is_closed": false, "url": "https://www.yelp.com/biz/chez-nous-san-diego-2?adjust_creative=oncXGL2aPIKrtJdnWeFSnA&utm_campaign=yelp_api_v3&utm_medium=api_v3_business_search&utm_source=oncXGL2aPIKrtJdnWeFSnA", "review_count": 617, "categories": [{"alias": "sandwiches", "title": "Sandwiches"}, {"alias": "delis", "title": "Delis"}], "rating": 4.5, "coordinates": {"latitude": 32.9029661713707, "longitude": -117.114812023938}, "transactions": [], "price": "$", "location": {"address1": "9821 Carroll Canyon Rd", "address2": "Ste E", "address3": "", "city": "San Diego", "zip_code": "92131", "country": "US", "state": "CA", "display_address": ["9821 Carroll Canyon Rd", "Ste E", "San Diego, CA 92131"]}, "phone": "+18585664766", "display_phone": "(858) 566-4766", "distance": 20455.72255162641}, {"id": "_gY_KZSw0g-YtM72f_Jsbg", "alias": "gourmet-artisan-fine-sandwiches-san-diego", "name": "Gourmet Artisan Fine Sandwiches", "image_url": "https://s3-media4.fl.yelpcdn.com/bphoto/80VyIzuLDhcul4Hx19ta-A/o.jpg", "is_closed": false, "url": "https://www.yelp.com/biz/gourmet-artisan-fine-sandwiches-san-diego?adjust_creative=oncXGL2aPIKrtJdnWeFSnA&utm_campaign=yelp_api_v3&utm_medium=api_v3_business_search&utm_source=oncXGL2aPIKrtJdnWeFSnA", "review_count": 132, "categories": [{"alias": "delis", "title": "Delis"}, {"alias": "sandwiches", "title": "Sandwiches"}, {"alias": "desserts", "title": "Desserts"}], "rating": 4.5, "coordinates": {"latitude": 32.880046, "longitude": -117.162368}, "transactions": ["delivery"], "price": "$$", "location": {"address1": "7094 Miramar Rd", "address2": "Ste 105", "address3": "", "city": "San Diego", "zip_code": "92121", "country": "US", "state": "CA", "display_address": ["7094 Miramar Rd", "Ste 105", "San Diego, CA 92121"]}, "phone": "+18588605814", "display_phone": "(858) 860-5814", "distance": 20238.49731357506}, {"id": "Kq3ZmMu-fY4bvKnqvyAXAw", "alias": "tropical-juices-and-deli-vista", "name": "Tropical Juices & Deli", "image_url": "https://s3-media1.fl.yelpcdn.com/bphoto/66XThM4WCVg5pJwWo0kAww/o.jpg", "is_closed": false, "url": "https://www.yelp.com/biz/tropical-juices-and-deli-vista?adjust_creative=oncXGL2aPIKrtJdnWeFSnA&utm_campaign=yelp_api_v3&utm_medium=api_v3_business_search&utm_source=oncXGL2aPIKrtJdnWeFSnA", "review_count": 192, "categories": [{"alias": "juicebars", "title": "Juice Bars & Smoothies"}, {"alias": "delis", "title": "Delis"}, {"alias": "sandwiches", "title": "Sandwiches"}], "rating": 4.5, "coordinates": {"latitude": 33.1564714, "longitude": -117.2237797}, "transactions": ["pickup"], "price": "$", "location": {"address1": "1116 Sycamore Ave", "address2": "", "address3": "", "city": "Vista", "zip_code": "92081", "country": "US", "state": "CA", "display_address": ["1116 Sycamore Ave", "Vista, CA 92081"]}, "phone": "+17605987039", "display_phone": "(760) 598-7039", "distance": 12739.556220601562}, {"id": "UD9eUP6gYJGlJRon30s89A", "alias": "honey-baked-ham-company-encinitas", "name": "Honey Baked Ham Company", "image_url": "https://s3-media1.fl.yelpcdn.com/bphoto/1EEBC2rPomMfWgRIIgZHPw/o.jpg", "is_closed": false, "url": "https://www.yelp.com/biz/honey-baked-ham-company-encinitas?adjust_creative=oncXGL2aPIKrtJdnWeFSnA&utm_campaign=yelp_api_v3&utm_medium=api_v3_business_search&utm_source=oncXGL2aPIKrtJdnWeFSnA", "review_count": 39, "categories": [{"alias": "meats", "title": "Meat Shops"}, {"alias": "delis", "title": "Delis"}, {"alias": "sandwiches", "title": "Sandwiches"}], "rating": 3.0, "coordinates": {"latitude": 33.0462608337402, "longitude": -117.282867431641}, "transactions": ["delivery", "pickup"], "price": "$", "location": {"address1": "459 Encinitas Blvd", "address2": "", "address3": "", "city": "Encinitas", "zip_code": "92024", "country": "US", "state": "CA", "display_address": ["459 Encinitas Blvd", "Encinitas, CA 92024"]}, "phone": "+17604365222", "display_phone": "(760) 436-5222", "distance": 2669.1782155598758}, {"id": "x6SlqaQibFRR3vLapp-9ng", "alias": "yogurt-giant-vista", "name": "Yogurt Giant", "image_url": "https://s3-media1.fl.yelpcdn.com/bphoto/W6nlfCN1HE_ifJb0BnotJg/o.jpg", "is_closed": false, "url": "https://www.yelp.com/biz/yogurt-giant-vista?adjust_creative=oncXGL2aPIKrtJdnWeFSnA&utm_campaign=yelp_api_v3&utm_medium=api_v3_business_search&utm_source=oncXGL2aPIKrtJdnWeFSnA", "review_count": 31, "categories": [{"alias": "icecream", "title": "Ice Cream & Frozen Yogurt"}, {"alias": "delis", "title": "Delis"}], "rating": 4.5, "coordinates": {"latitude": 33.1889187544584, "longitude": -117.280108854175}, "transactions": [], "price": "$", "location": {"address1": "1817 W Vista Way", "address2": "Ste E", "address3": "", "city": "Vista", "zip_code": "92083", "country": "US", "state": "CA", "display_address": ["1817 W Vista Way", "Ste E", "Vista, CA 92083"]}, "phone": "+17607582361", "display_phone": "(760) 758-2361", "distance": 16264.282015993334}, {"id": "Olss58qmOcJS4It9rx6CXQ", "alias": "jersey-mikes-subs-solana-beach-2", "name": "Jersey Mike's Subs", "image_url": "https://s3-media1.fl.yelpcdn.com/bphoto/ny2I6MaZGt8vqIdYaL_tGg/o.jpg", "is_closed": false, "url": "https://www.yelp.com/biz/jersey-mikes-subs-solana-beach-2?adjust_creative=oncXGL2aPIKrtJdnWeFSnA&utm_campaign=yelp_api_v3&utm_medium=api_v3_business_search&utm_source=oncXGL2aPIKrtJdnWeFSnA", "review_count": 163, "categories": [{"alias": "sandwiches", "title": "Sandwiches"}, {"alias": "hotdogs", "title": "Fast Food"}, {"alias": "delis", "title": "Delis"}], "rating": 4.0, "coordinates": {"latitude": 32.9955485, "longitude": -117.2544327}, "transactions": [], "price": "$", "location": {"address1": "915 Lomas Santa Fe Dr", "address2": "", "address3": "", "city": "Solana Beach", "zip_code": "92075", "country": "US", "state": "CA", "display_address": ["915 Lomas Santa Fe Dr", "Solana Beach, CA 92075"]}, "phone": "+18582599111", "display_phone": "(858) 259-9111", "distance": 5641.285822214092}, {"id": "-ZJVaXutyni9O9dou0sJTA", "alias": "campus-cafe-carlsbad", "name": "Campus Cafe", "image_url": "https://s3-media1.fl.yelpcdn.com/bphoto/cyjsjGYNkARnS83MdlvveA/o.jpg", "is_closed": false, "url": "https://www.yelp.com/biz/campus-cafe-carlsbad?adjust_creative=oncXGL2aPIKrtJdnWeFSnA&utm_campaign=yelp_api_v3&utm_medium=api_v3_business_search&utm_source=oncXGL2aPIKrtJdnWeFSnA", "review_count": 121, "categories": [{"alias": "delis", "title": "Delis"}, {"alias": "cafes", "title": "Cafes"}, {"alias": "sandwiches", "title": "Sandwiches"}], "rating": 4.5, "coordinates": {"latitude": 33.131802, "longitude": -117.270076}, "transactions": [], "price": "$", "location": {"address1": "5966 La Place Ct", "address2": "Ste 150", "address3": "", "city": "Carlsbad", "zip_code": "92008", "country": "US", "state": "CA", "display_address": ["5966 La Place Ct", "Ste 150", "Carlsbad, CA 92008"]}, "phone": "+17604319210", "display_phone": "(760) 431-9210", "distance": 9774.821741226626}, {"id": "7i-PPdA1TPfs4DSz-fmw3Q", "alias": "hello-deli-vista", "name": "Hello Deli", "image_url": "https://s3-media4.fl.yelpcdn.com/bphoto/8vXC_DipoXMNwYKKDMpQJA/o.jpg", "is_closed": false, "url": "https://www.yelp.com/biz/hello-deli-vista?adjust_creative=oncXGL2aPIKrtJdnWeFSnA&utm_campaign=yelp_api_v3&utm_medium=api_v3_business_search&utm_source=oncXGL2aPIKrtJdnWeFSnA", "review_count": 86, "categories": [{"alias": "delis", "title": "Delis"}, {"alias": "sandwiches", "title": "Sandwiches"}], "rating": 4.5, "coordinates": {"latitude": 33.147847, "longitude": -117.216487}, "transactions": ["delivery", "pickup"], "price": "$", "location": {"address1": "2820 La Mirada Dr", "address2": "Ste A", "address3": "", "city": "Vista", "zip_code": "92081", "country": "US", "state": "CA", "display_address": ["2820 La Mirada Dr", "Ste A", "Vista, CA 92081"]}, "phone": "+17605981055", "display_phone": "(760) 598-1055", "distance": 11978.849913274893}, {"id": "1KBXJLNi417KlRttTm_vzw", "alias": "tds-place-san-diego", "name": "TD's Place", "image_url": "https://s3-media1.fl.yelpcdn.com/bphoto/1dJ703MHvn_kVLzdjJlhOw/o.jpg", "is_closed": false, "url": "https://www.yelp.com/biz/tds-place-san-diego?adjust_creative=oncXGL2aPIKrtJdnWeFSnA&utm_campaign=yelp_api_v3&utm_medium=api_v3_business_search&utm_source=oncXGL2aPIKrtJdnWeFSnA", "review_count": 54, "categories": [{"alias": "delis", "title": "Delis"}], "rating": 4.5, "coordinates": {"latitude": 32.9048299, "longitude": -117.11099}, "transactions": [], "price": "$", "location": {"address1": "9965 Businesspark Ave", "address2": "", "address3": "", "city": "San Diego", "zip_code": "92131", "country": "US", "state": "CA", "display_address": ["9965 Businesspark Ave", "San Diego, CA 92131"]}, "phone": "+18585667713", "display_phone": "(858) 566-7713", "distance": 20541.26967936485}, {"id": "67Ka_iWECfjXxuBs_lc6Jg", "alias": "patron-meat-market-and-deli-san-marcos", "name": "Patron Meat Market & Deli", "image_url": "https://s3-media3.fl.yelpcdn.com/bphoto/-c1Lp7jOh6OmmVfSpyKxlg/o.jpg", "is_closed": false, "url": "https://www.yelp.com/biz/patron-meat-market-and-deli-san-marcos?adjust_creative=oncXGL2aPIKrtJdnWeFSnA&utm_campaign=yelp_api_v3&utm_medium=api_v3_business_search&utm_source=oncXGL2aPIKrtJdnWeFSnA", "review_count": 20, "categories": [{"alias": "grocery", "title": "Grocery"}, {"alias": "meats", "title": "Meat Shops"}, {"alias": "delis", "title": "Delis"}], "rating": 4.5, "coordinates": {"latitude": 33.14114, "longitude": -117.16572}, "transactions": [], "price": "$", "location": {"address1": "204 W San Marcos Blvd", "address2": "Ste 101", "address3": "", "city": "San Marcos", "zip_code": "92069", "country": "US", "state": "CA", "display_address": ["204 W San Marcos Blvd", "Ste 101", "San Marcos, CA 92069"]}, "phone": "+17607360086", "display_phone": "(760) 736-0086", "distance": 13516.451292446336}, {"id": "8lBNf29OKaJAPpaXk0DpVw", "alias": "green-light-cafe-and-deli-san-diego", "name": "Green Light Cafe & Deli", "image_url": "https://s3-media1.fl.yelpcdn.com/bphoto/WXbhjjG1Nk00r8fyeedQFA/o.jpg", "is_closed": false, "url": "https://www.yelp.com/biz/green-light-cafe-and-deli-san-diego?adjust_creative=oncXGL2aPIKrtJdnWeFSnA&utm_campaign=yelp_api_v3&utm_medium=api_v3_business_search&utm_source=oncXGL2aPIKrtJdnWeFSnA", "review_count": 59, "categories": [{"alias": "delis", "title": "Delis"}], "rating": 4.5, "coordinates": {"latitude": 32.8759, "longitude": -117.21324}, "transactions": [], "price": "$", "location": {"address1": "9333 Genesee Ave", "address2": "Ste P15", "address3": "", "city": "San Diego", "zip_code": "92121", "country": "US", "state": "CA", "display_address": ["9333 Genesee Ave", "Ste P15", "San Diego, CA 92121"]}, "phone": "+18584539673", "display_phone": "(858) 453-9673", "distance": 19201.438615361036}, {"id": "xNnb2MRcynF_r80UZk9Xhw", "alias": "annies-cafe-deli-solana-beach", "name": "Annie's Cafe Deli", "image_url": "https://s3-media2.fl.yelpcdn.com/bphoto/YRYd7dJLchIHguZdKv3BWQ/o.jpg", "is_closed": false, "url": "https://www.yelp.com/biz/annies-cafe-deli-solana-beach?adjust_creative=oncXGL2aPIKrtJdnWeFSnA&utm_campaign=yelp_api_v3&utm_medium=api_v3_business_search&utm_source=oncXGL2aPIKrtJdnWeFSnA", "review_count": 35, "categories": [{"alias": "delis", "title": "Delis"}, {"alias": "cafes", "title": "Cafes"}, {"alias": "breakfast_brunch", "title": "Breakfast & Brunch"}], "rating": 4.0, "coordinates": {"latitude": 32.99051, "longitude": -117.2606}, "transactions": [], "price": "$", "location": {"address1": "524 Stevens Ave", "address2": "Ste 12", "address3": "", "city": "Solana Beach", "zip_code": "92075", "country": "US", "state": "CA", "display_address": ["524 Stevens Ave", "Ste 12", "Solana Beach, CA 92075"]}, "phone": "+18584812221", "display_phone": "(858) 481-2221", "distance": 6087.476638471088}, {"id": "_6fliuyeJ5-mI-8p1sElQA", "alias": "cafe-seven-san-diego", "name": "Cafe Seven", "image_url": "https://s3-media3.fl.yelpcdn.com/bphoto/yLC5ie6aSn0W0jaF_giFSQ/o.jpg", "is_closed": false, "url": "https://www.yelp.com/biz/cafe-seven-san-diego?adjust_creative=oncXGL2aPIKrtJdnWeFSnA&utm_campaign=yelp_api_v3&utm_medium=api_v3_business_search&utm_source=oncXGL2aPIKrtJdnWeFSnA", "review_count": 49, "categories": [{"alias": "delis", "title": "Delis"}], "rating": 4.0, "coordinates": {"latitude": 32.89993, "longitude": -117.18821}, "transactions": [], "price": "$", "location": {"address1": "5955 Mira Mesa Blvd", "address2": "Ste K", "address3": "", "city": "San Diego", "zip_code": "92121", "country": "US", "state": "CA", "display_address": ["5955 Mira Mesa Blvd", "Ste K", "San Diego, CA 92121"]}, "phone": "+18584535740", "display_phone": "(858) 453-5740", "distance": 17213.514670213313}, {"id": "M7vvS9iX0v1DCP6gy8NS2w", "alias": "thyme-for-lunch-cafe-and-grill-san-diego", "name": "Thyme for Lunch Cafe & Grill", "image_url": "https://s3-media2.fl.yelpcdn.com/bphoto/zTE-n_mr1pJPaNx06dzTbw/o.jpg", "is_closed": false, "url": "https://www.yelp.com/biz/thyme-for-lunch-cafe-and-grill-san-diego?adjust_creative=oncXGL2aPIKrtJdnWeFSnA&utm_campaign=yelp_api_v3&utm_medium=api_v3_business_search&utm_source=oncXGL2aPIKrtJdnWeFSnA", "review_count": 79, "categories": [{"alias": "coffee", "title": "Coffee & Tea"}, {"alias": "delis", "title": "Delis"}], "rating": 4.5, "coordinates": {"latitude": 32.8852997, "longitude": -117.1565475}, "transactions": [], "price": "$", "location": {"address1": "8860 Kenamar Dr", "address2": "Ste 310", "address3": "", "city": "San Diego", "zip_code": "92121", "country": "US", "state": "CA", "display_address": ["8860 Kenamar Dr", "Ste 310", "San Diego, CA 92121"]}, "phone": "+18585470247", "display_phone": "(858) 547-0247", "distance": 19886.087702883116}, {"id": "QoJO1cPX-SiQZBuI7NtzBg", "alias": "judys-deli-carlsbad", "name": "Judy's Deli", "image_url": "https://s3-media1.fl.yelpcdn.com/bphoto/0LG0xZjWEJwIsXG2o5J6Mg/o.jpg", "is_closed": false, "url": "https://www.yelp.com/biz/judys-deli-carlsbad?adjust_creative=oncXGL2aPIKrtJdnWeFSnA&utm_campaign=yelp_api_v3&utm_medium=api_v3_business_search&utm_source=oncXGL2aPIKrtJdnWeFSnA", "review_count": 42, "categories": [{"alias": "delis", "title": "Delis"}], "rating": 4.5, "coordinates": {"latitude": 33.1183369553985, "longitude": -117.278504349074}, "transactions": [], "price": "$", "location": {"address1": "2035 Corte Del Nogal", "address2": "", "address3": "", "city": "Carlsbad", "zip_code": "92009", "country": "US", "state": "CA", "display_address": ["2035 Corte Del Nogal", "Carlsbad, CA 92009"]}, "phone": "+17604317108", "display_phone": "(760) 431-7108", "distance": 8471.726431274865}, {"id": "R0YWx2EHVeGIhJWK_JPCjg", "alias": "grater-grilled-cheese-san-diego-13", "name": "Grater Grilled Cheese", "image_url": "https://s3-media1.fl.yelpcdn.com/bphoto/ni-BN4YIJsT__rskvQDHmg/o.jpg", "is_closed": false, "url": "https://www.yelp.com/biz/grater-grilled-cheese-san-diego-13?adjust_creative=oncXGL2aPIKrtJdnWeFSnA&utm_campaign=yelp_api_v3&utm_medium=api_v3_business_search&utm_source=oncXGL2aPIKrtJdnWeFSnA", "review_count": 145, "categories": [{"alias": "tradamerican", "title": "American (Traditional)"}, {"alias": "delis", "title": "Delis"}, {"alias": "sandwiches", "title": "Sandwiches"}], "rating": 3.5, "coordinates": {"latitude": 32.95413, "longitude": -117.23044}, "transactions": ["delivery", "pickup"], "price": "$", "location": {"address1": "3545 Del Mar Heights Rd", "address2": "C6", "address3": null, "city": "San Diego", "zip_code": "92130", "country": "US", "state": "CA", "display_address": ["3545 Del Mar Heights Rd", "C6", "San Diego, CA 92130"]}, "phone": "+18588472992", "display_phone": "(858) 847-2992", "distance": 10338.55537323504}, {"id": "UkRTgZnlewR-uaUR-1_LYg", "alias": "forum-deli-carlsbad", "name": "Forum Deli", "image_url": "https://s3-media3.fl.yelpcdn.com/bphoto/QDU6WceoP5yGZE9v-ZeEQw/o.jpg", "is_closed": false, "url": "https://www.yelp.com/biz/forum-deli-carlsbad?adjust_creative=oncXGL2aPIKrtJdnWeFSnA&utm_campaign=yelp_api_v3&utm_medium=api_v3_business_search&utm_source=oncXGL2aPIKrtJdnWeFSnA", "review_count": 19, "categories": [{"alias": "salad", "title": "Salad"}, {"alias": "delis", "title": "Delis"}, {"alias": "sandwiches", "title": "Sandwiches"}], "rating": 4.5, "coordinates": {"latitude": 33.13083, "longitude": -117.24115}, "transactions": ["delivery", "pickup"], "price": "$", "location": {"address1": "3132 Tiger Run Ct", "address2": "Ste 107", "address3": "", "city": "Carlsbad", "zip_code": "92010", "country": "US", "state": "CA", "display_address": ["3132 Tiger Run Ct", "Ste 107", "Carlsbad, CA 92010"]}, "phone": "+17605970228", "display_phone": "(760) 597-0228", "distance": 9645.788934400362}, {"id": "N1zMgpIajvq6i2RRl9Q7kQ", "alias": "beach-hut-deli-oceanside", "name": "Beach Hut Deli", "image_url": "https://s3-media1.fl.yelpcdn.com/bphoto/lFLWdIYjGrVfjSs0MNU40g/o.jpg", "is_closed": false, "url": "https://www.yelp.com/biz/beach-hut-deli-oceanside?adjust_creative=oncXGL2aPIKrtJdnWeFSnA&utm_campaign=yelp_api_v3&utm_medium=api_v3_business_search&utm_source=oncXGL2aPIKrtJdnWeFSnA", "review_count": 152, "categories": [{"alias": "delis", "title": "Delis"}, {"alias": "sportsbars", "title": "Sports Bars"}, {"alias": "sandwiches", "title": "Sandwiches"}], "rating": 4.5, "coordinates": {"latitude": 33.1951368649827, "longitude": -117.381613614535}, "transactions": [], "price": "$$", "location": {"address1": "280 Mission Ave", "address2": null, "address3": "", "city": "Oceanside", "zip_code": "92054", "country": "US", "state": "CA", "display_address": ["280 Mission Ave", "Oceanside, CA 92054"]}, "phone": "+17605299767", "display_phone": "(760) 529-9767", "distance": 20484.553285151604}, {"id": "FEDQlBz5lkhmZyAOnnxmYA", "alias": "crossroads-deli-san-diego-3", "name": "Crossroads Deli", "image_url": "https://s3-media2.fl.yelpcdn.com/bphoto/DkaG08fjTvJ0OxNjkEnLDA/o.jpg", "is_closed": false, "url": "https://www.yelp.com/biz/crossroads-deli-san-diego-3?adjust_creative=oncXGL2aPIKrtJdnWeFSnA&utm_campaign=yelp_api_v3&utm_medium=api_v3_business_search&utm_source=oncXGL2aPIKrtJdnWeFSnA", "review_count": 455, "categories": [{"alias": "delis", "title": "Delis"}, {"alias": "sandwiches", "title": "Sandwiches"}, {"alias": "cafes", "title": "Cafes"}], "rating": 4.5, "coordinates": {"latitude": 32.8726055298119, "longitude": -117.202275789935}, "transactions": ["delivery", "pickup"], "price": "$", "location": {"address1": "9085 Judicial Dr", "address2": "Ste 100", "address3": "", "city": "San Diego", "zip_code": "92122", "country": "US", "state": "CA", "display_address": ["9085 Judicial Dr", "Ste 100", "San Diego, CA 92122"]}, "phone": "+18584580921", "display_phone": "(858) 458-0921", "distance": 19763.237434750394}, {"id": "TCd7jmYxGaS7cE7WQ_BeOw", "alias": "gelsons-market-del-mar", "name": "Gelson's Market", "image_url": "https://s3-media4.fl.yelpcdn.com/bphoto/lqGDd-xzTN7qe4LZq15Eyw/o.jpg", "is_closed": false, "url": "https://www.yelp.com/biz/gelsons-market-del-mar?adjust_creative=oncXGL2aPIKrtJdnWeFSnA&utm_campaign=yelp_api_v3&utm_medium=api_v3_business_search&utm_source=oncXGL2aPIKrtJdnWeFSnA", "review_count": 76, "categories": [{"alias": "grocery", "title": "Grocery"}, {"alias": "delis", "title": "Delis"}, {"alias": "newamerican", "title": "American (New)"}], "rating": 3.5, "coordinates": {"latitude": 32.97888, "longitude": -117.24911}, "transactions": [], "price": "$$", "location": {"address1": "2707 Via De La Valle", "address2": "", "address3": "", "city": "Del Mar", "zip_code": "92014", "country": "US", "state": "CA", "display_address": ["2707 Via De La Valle", "Del Mar, CA 92014"]}, "phone": "+18584819300", "display_phone": "(858) 481-9300", "distance": 7356.102646482432}, {"id": "RRFqbqeohgYA3EgLp5HT9g", "alias": "sorrento-deli-mart-san-diego", "name": "Sorrento Deli Mart", "image_url": "https://s3-media3.fl.yelpcdn.com/bphoto/8BtGILMPgsr8ZYIK-uH4bw/o.jpg", "is_closed": false, "url": "https://www.yelp.com/biz/sorrento-deli-mart-san-diego?adjust_creative=oncXGL2aPIKrtJdnWeFSnA&utm_campaign=yelp_api_v3&utm_medium=api_v3_business_search&utm_source=oncXGL2aPIKrtJdnWeFSnA", "review_count": 98, "categories": [{"alias": "delis", "title": "Delis"}, {"alias": "breakfast_brunch", "title": "Breakfast & Brunch"}, {"alias": "beer_and_wine", "title": "Beer, Wine & Spirits"}], "rating": 4.0, "coordinates": {"latitude": 32.9020004272461, "longitude": -117.225563049316}, "transactions": ["delivery", "pickup"], "price": "$", "location": {"address1": "10920 Roselle St", "address2": "Ste 109", "address3": "", "city": "San Diego", "zip_code": "92121", "country": "US", "state": "CA", "display_address": ["10920 Roselle St", "Ste 109", "San Diego, CA 92121"]}, "phone": "+18585350660", "display_phone": "(858) 535-0660", "distance": 16090.670986835203}, {"id": "a3_fv4zg36jZ3UwiTBDc3Q", "alias": "papa-dukes-deli-and-grill-poway", "name": "Papa Duke's Deli & Grill", "image_url": "https://s3-media4.fl.yelpcdn.com/bphoto/Y-v1o-SQYF0a0AKQq3hrFA/o.jpg", "is_closed": false, "url": "https://www.yelp.com/biz/papa-dukes-deli-and-grill-poway?adjust_creative=oncXGL2aPIKrtJdnWeFSnA&utm_campaign=yelp_api_v3&utm_medium=api_v3_business_search&utm_source=oncXGL2aPIKrtJdnWeFSnA", "review_count": 117, "categories": [{"alias": "delis", "title": "Delis"}, {"alias": "tradamerican", "title": "American (Traditional)"}, {"alias": "hotdog", "title": "Hot Dogs"}], "rating": 4.5, "coordinates": {"latitude": 32.93765, "longitude": -117.04963}, "transactions": [], "price": "$", "location": {"address1": "12169 Kirkham Rd", "address2": "Ste A", "address3": "", "city": "Poway", "zip_code": "92064", "country": "US", "state": "CA", "display_address": ["12169 Kirkham Rd", "Ste A", "Poway, CA 92064"]}, "phone": "+18586797955", "display_phone": "(858) 679-7955", "distance": 22501.357524256768}, {"id": "Ksjbky6X6v1Ieef-3lsncA", "alias": "jersey-mikes-subs-carlsbad-5", "name": "Jersey Mike's Subs", "image_url": "https://s3-media4.fl.yelpcdn.com/bphoto/uEbFYv5xl2bETmgePU1a9g/o.jpg", "is_closed": false, "url": "https://www.yelp.com/biz/jersey-mikes-subs-carlsbad-5?adjust_creative=oncXGL2aPIKrtJdnWeFSnA&utm_campaign=yelp_api_v3&utm_medium=api_v3_business_search&utm_source=oncXGL2aPIKrtJdnWeFSnA", "review_count": 14, "categories": [{"alias": "hotdogs", "title": "Fast Food"}, {"alias": "delis", "title": "Delis"}, {"alias": "sandwiches", "title": "Sandwiches"}], "rating": 3.0, "coordinates": {"latitude": 33.0822313863486, "longitude": -117.233294383222}, "transactions": [], "location": {"address1": "7625 Via Campanile", "address2": "Ste 122", "address3": null, "city": "Carlsbad", "zip_code": "92009", "country": "US", "state": "CA", "display_address": ["7625 Via Campanile", "Ste 122", "Carlsbad, CA 92009"]}, "phone": "+17606525295", "display_phone": "(760) 652-5295", "distance": 4681.670189059951}, {"id": "lvFmosWSQ6XzVkfaHfAaWw", "alias": "beachn-town-liquor-and-deli-encinitas", "name": "Beach'n Town Liquor & Deli", "image_url": "", "is_closed": false, "url": "https://www.yelp.com/biz/beachn-town-liquor-and-deli-encinitas?adjust_creative=oncXGL2aPIKrtJdnWeFSnA&utm_campaign=yelp_api_v3&utm_medium=api_v3_business_search&utm_source=oncXGL2aPIKrtJdnWeFSnA", "review_count": 2, "categories": [{"alias": "beer_and_wine", "title": "Beer, Wine & Spirits"}, {"alias": "delis", "title": "Delis"}], "rating": 4.0, "coordinates": {"latitude": 33.0449371, "longitude": -117.2938766}, "transactions": [], "location": {"address1": "578 S Coast Hwy 101", "address2": "", "address3": "", "city": "Encinitas", "zip_code": "92024", "country": "US", "state": "CA", "display_address": ["578 S Coast Hwy 101", "Encinitas, CA 92024"]}, "phone": "+17607532929", "display_phone": "(760) 753-2929", "distance": 3698.9093881055765}, {"id": "5OUhPyJmMZlBIlucNJ6ikw", "alias": "harbor-pelican-deli-and-mart-oceanside", "name": "Harbor Pelican Deli and Mart", "image_url": "https://s3-media1.fl.yelpcdn.com/bphoto/aRdOELUef6ywW309pySApQ/o.jpg", "is_closed": false, "url": "https://www.yelp.com/biz/harbor-pelican-deli-and-mart-oceanside?adjust_creative=oncXGL2aPIKrtJdnWeFSnA&utm_campaign=yelp_api_v3&utm_medium=api_v3_business_search&utm_source=oncXGL2aPIKrtJdnWeFSnA", "review_count": 27, "categories": [{"alias": "delis", "title": "Delis"}], "rating": 4.0, "coordinates": {"latitude": 33.205327, "longitude": -117.393629}, "transactions": [], "price": "$", "location": {"address1": "1380 N Pacific St", "address2": "", "address3": "", "city": "Oceanside", "zip_code": "92054", "country": "US", "state": "CA", "display_address": ["1380 N Pacific St", "Oceanside, CA 92054"]}, "phone": "+17607225853", "display_phone": "(760) 722-5853", "distance": 22057.224225392005}, {"id": "y-OtqUqHaAIJTzwEvLPqyw", "alias": "california-donuts-and-deli-san-diego", "name": "California Donuts and Deli", "image_url": "https://s3-media4.fl.yelpcdn.com/bphoto/zsz_OHONV4VsCX0NbY6f_Q/o.jpg", "is_closed": false, "url": "https://www.yelp.com/biz/california-donuts-and-deli-san-diego?adjust_creative=oncXGL2aPIKrtJdnWeFSnA&utm_campaign=yelp_api_v3&utm_medium=api_v3_business_search&utm_source=oncXGL2aPIKrtJdnWeFSnA", "review_count": 107, "categories": [{"alias": "donuts", "title": "Donuts"}, {"alias": "delis", "title": "Delis"}], "rating": 4.0, "coordinates": {"latitude": 32.9262267, "longitude": -117.1439906}, "transactions": [], "price": "$", "location": {"address1": "11255 Camino Ruiz", "address2": "", "address3": "", "city": "San Diego", "zip_code": "92126", "country": "US", "state": "CA", "display_address": ["11255 Camino Ruiz", "San Diego, CA 92126"]}, "phone": "+18585787230", "display_phone": "(858) 578-7230", "distance": 16733.859654670643}, {"id": "5MfunkTmm9lCZz0rJkGvEw", "alias": "pickles-cafe-deli-carlsbad", "name": "Pickle's Cafe Deli", "image_url": "https://s3-media4.fl.yelpcdn.com/bphoto/sZhuLgYuBGaS-5TMlphR4A/o.jpg", "is_closed": false, "url": "https://www.yelp.com/biz/pickles-cafe-deli-carlsbad?adjust_creative=oncXGL2aPIKrtJdnWeFSnA&utm_campaign=yelp_api_v3&utm_medium=api_v3_business_search&utm_source=oncXGL2aPIKrtJdnWeFSnA", "review_count": 47, "categories": [{"alias": "delis", "title": "Delis"}], "rating": 3.0, "coordinates": {"latitude": 33.1391731649637, "longitude": -117.274861782789}, "transactions": [], "price": "$", "location": {"address1": "5670 El Camino Real", "address2": "", "address3": "", "city": "Carlsbad", "zip_code": "92008", "country": "US", "state": "CA", "display_address": ["5670 El Camino Real", "Carlsbad, CA 92008"]}, "phone": "+17604311333", "display_phone": "(760) 431-1333", "distance": 10617.630760976355}, {"id": "ifX08kFZ4I2madZUxzf1sA", "alias": "off-the-vine-gardens-deli-and-catering-carlsbad", "name": "Off the Vine Gardens Deli & Catering", "image_url": "https://s3-media3.fl.yelpcdn.com/bphoto/OfutisH7Zfj2KuAgqnRS-w/o.jpg", "is_closed": false, "url": "https://www.yelp.com/biz/off-the-vine-gardens-deli-and-catering-carlsbad?adjust_creative=oncXGL2aPIKrtJdnWeFSnA&utm_campaign=yelp_api_v3&utm_medium=api_v3_business_search&utm_source=oncXGL2aPIKrtJdnWeFSnA", "review_count": 41, "categories": [{"alias": "delis", "title": "Delis"}], "rating": 4.5, "coordinates": {"latitude": 33.1203511, "longitude": -117.2678072}, "transactions": [], "price": "$", "location": {"address1": "2382 Camino Vida Roble", "address2": "", "address3": "", "city": "Carlsbad", "zip_code": "92011", "country": "US", "state": "CA", "display_address": ["2382 Camino Vida Roble", "Carlsbad, CA 92011"]}, "phone": "+17604387701", "display_phone": "(760) 438-7701", "distance": 8484.272412651791}], "total": 133, "region": {"center": {"longitude": -117.25433349609375, "latitude": 33.04488992556048}}}