{"businesses": [{"id": "plIvXi_wdAGwMouAo4zzzw", "alias": "irinas-bar-and-grill-oceanside", "name": "Irinas Bar and Grill", "image_url": "https://s3-media1.fl.yelpcdn.com/bphoto/w1DHL7iFwJ_h5QSVmQ2x5A/o.jpg", "is_closed": false, "url": "https://www.yelp.com/biz/irinas-bar-and-grill-oceanside?adjust_creative=oncXGL2aPIKrtJdnWeFSnA&utm_campaign=yelp_api_v3&utm_medium=api_v3_business_search&utm_source=oncXGL2aPIKrtJdnWeFSnA", "review_count": 239, "categories": [{"alias": "tradamerican", "title": "American (Traditional)"}, {"alias": "german", "title": "German"}, {"alias": "sportsbars", "title": "Sports Bars"}], "rating": 4.5, "coordinates": {"latitude": 33.21814, "longitude": -117.34013}, "transactions": [], "price": "$$", "location": {"address1": "3375 Mission Ave", "address2": "Ste J", "address3": "", "city": "Oceanside", "zip_code": "92058", "country": "US", "state": "CA", "display_address": ["3375 Mission Ave", "Ste J", "Oceanside, CA 92058"]}, "phone": "+17604335086", "display_phone": "(760) 433-5086", "distance": 20859.51314660148}, {"id": "Y_jnwQNgAYym7y0nwmlMlg", "alias": "kaiserhof-german-american-restaurant-san-diego-2", "name": "Kaiserhof German American Restaurant", "image_url": "https://s3-media3.fl.yelpcdn.com/bphoto/GJx6iH43QZ9Bgz-EPzGVsQ/o.jpg", "is_closed": false, "url": "https://www.yelp.com/biz/kaiserhof-german-american-restaurant-san-diego-2?adjust_creative=oncXGL2aPIKrtJdnWeFSnA&utm_campaign=yelp_api_v3&utm_medium=api_v3_business_search&utm_source=oncXGL2aPIKrtJdnWeFSnA", "review_count": 532, "categories": [{"alias": "german", "title": "German"}, {"alias": "beerbar", "title": "Beer Bar"}], "rating": 3.5, "coordinates": {"latitude": 32.75052, "longitude": -117.24234}, "transactions": [], "price": "$$", "location": {"address1": "2253 Sunset Cliffs Blvd", "address2": "", "address3": "", "city": "San Diego", "zip_code": "92107", "country": "US", "state": "CA", "display_address": ["2253 Sunset Cliffs Blvd", "San Diego, CA 92107"]}, "phone": "+16192240606", "display_phone": "(619) 224-0606", "distance": 32746.511157186233}, {"id": "Ps4vN6-Mu4QiIkEyGzRZmQ", "alias": "biersal-food-truck-san-diego", "name": "Biersal Food Truck", "image_url": "https://s3-media2.fl.yelpcdn.com/bphoto/9tjNw6I7-Egklfimd0oj-A/o.jpg", "is_closed": false, "url": "https://www.yelp.com/biz/biersal-food-truck-san-diego?adjust_creative=oncXGL2aPIKrtJdnWeFSnA&utm_campaign=yelp_api_v3&utm_medium=api_v3_business_search&utm_source=oncXGL2aPIKrtJdnWeFSnA", "review_count": 13, "categories": [{"alias": "german", "title": "German"}, {"alias": "belgian", "title": "Belgian"}, {"alias": "foodtrucks", "title": "Food Trucks"}], "rating": 5.0, "coordinates": {"latitude": 32.71385, "longitude": -117.1393}, "transactions": [], "price": "$$", "location": {"address1": "", "address2": "", "address3": null, "city": "San Diego", "zip_code": "92102", "country": "US", "state": "CA", "display_address": ["San Diego, CA 92102"]}, "phone": "+16198411692", "display_phone": "(619) 841-1692", "distance": 38279.99550084421}, {"id": "KN_Y9KqmDrtdxsfmonJiKA", "alias": "wolfegarten-san-diego", "name": "Wolfegarten", "image_url": "https://s3-media4.fl.yelpcdn.com/bphoto/Z8M2r1fQDfQp7mWcC1y3Qg/o.jpg", "is_closed": false, "url": "https://www.yelp.com/biz/wolfegarten-san-diego?adjust_creative=oncXGL2aPIKrtJdnWeFSnA&utm_campaign=yelp_api_v3&utm_medium=api_v3_business_search&utm_source=oncXGL2aPIKrtJdnWeFSnA", "review_count": 4, "categories": [{"alias": "foodtrucks", "title": "Food Trucks"}, {"alias": "german", "title": "German"}], "rating": 4.5, "coordinates": {"latitude": 32.7138557434082, "longitude": -117.139297485352}, "transactions": [], "location": {"address1": null, "address2": "", "address3": null, "city": "San Diego", "zip_code": "92102", "country": "US", "state": "CA", "display_address": ["San Diego, CA 92102"]}, "phone": "+16195609732", "display_phone": "(619) 560-9732", "distance": 38279.99550084421}, {"id": "3mJL5Rz6fQwLkytJB4raPA", "alias": "flamin-salmon-san-diego", "name": "Flamin Salmon", "image_url": "https://s3-media2.fl.yelpcdn.com/bphoto/oP0jqZHJlt9DYENEPu_FeA/o.jpg", "is_closed": false, "url": "https://www.yelp.com/biz/flamin-salmon-san-diego?adjust_creative=oncXGL2aPIKrtJdnWeFSnA&utm_campaign=yelp_api_v3&utm_medium=api_v3_business_search&utm_source=oncXGL2aPIKrtJdnWeFSnA", "review_count": 7, "categories": [{"alias": "german", "title": "German"}, {"alias": "seafood", "title": "Seafood"}, {"alias": "foodstands", "title": "Food Stands"}], "rating": 4.5, "coordinates": {"latitude": 32.7468, "longitude": -117.16129}, "transactions": [], "price": "$$", "location": {"address1": "", "address2": "", "address3": null, "city": "San Diego", "zip_code": "92103", "country": "US", "state": "CA", "display_address": ["San Diego, CA 92103"]}, "phone": "+19514730662", "display_phone": "(951) 473-0662", "distance": 33796.989892145204}, {"id": "91YhX65IEdaNfJW285XSaQ", "alias": "currywurst-frankfurt-san-diego", "name": "Currywurst Frankfurt", "image_url": "https://s3-media1.fl.yelpcdn.com/bphoto/VpwWa1qjB4t4ze5kYYQFlg/o.jpg", "is_closed": false, "url": "https://www.yelp.com/biz/currywurst-frankfurt-san-diego?adjust_creative=oncXGL2aPIKrtJdnWeFSnA&utm_campaign=yelp_api_v3&utm_medium=api_v3_business_search&utm_source=oncXGL2aPIKrtJdnWeFSnA", "review_count": 13, "categories": [{"alias": "foodtrucks", "title": "Food Trucks"}, {"alias": "german", "title": "German"}], "rating": 4.0, "coordinates": {"latitude": 32.71385, "longitude": -117.1393}, "transactions": [], "price": "$", "location": {"address1": "", "address2": "", "address3": null, "city": "San Diego", "zip_code": "92102", "country": "US", "state": "CA", "display_address": ["San Diego, CA 92102"]}, "phone": "+16198669406", "display_phone": "(619) 866-9406", "distance": 38279.99550084421}, {"id": "LutrSAi5t3kl13sDadFIUg", "alias": "heidelberg-cafe-and-bistro-laguna-beach", "name": "Heidelberg Cafe & Bistro", "image_url": "https://s3-media3.fl.yelpcdn.com/bphoto/6nx4L64vFQy2A1NdjWxRDA/o.jpg", "is_closed": false, "url": "https://www.yelp.com/biz/heidelberg-cafe-and-bistro-laguna-beach?adjust_creative=oncXGL2aPIKrtJdnWeFSnA&utm_campaign=yelp_api_v3&utm_medium=api_v3_business_search&utm_source=oncXGL2aPIKrtJdnWeFSnA", "review_count": 341, "categories": [{"alias": "breakfast_brunch", "title": "Breakfast & Brunch"}, {"alias": "german", "title": "German"}, {"alias": "cafes", "title": "Cafes"}], "rating": 4.0, "coordinates": {"latitude": 33.5335265724879, "longitude": -117.77631518821}, "transactions": ["pickup"], "price": "$$", "location": {"address1": "1100 S Coast Hwy", "address2": "Ste 116", "address3": "", "city": "Laguna Beach", "zip_code": "92651", "country": "US", "state": "CA", "display_address": ["1100 S Coast Hwy", "Ste 116", "Laguna Beach, CA 92651"]}, "phone": "+19494974594", "display_phone": "(949) 497-4594", "distance": 72842.92511658442}], "total": 7, "region": {"center": {"longitude": -117.25433349609375, "latitude": 33.04488992556048}}}