{"businesses": [{"id": "3HwX_pwXzqht0kynuu8iow", "alias": "the-lanai-encinitas", "name": "The Lanai", "image_url": "https://s3-media3.fl.yelpcdn.com/bphoto/xnbKqP0CtSaOV7P3_k_AGw/o.jpg", "is_closed": false, "url": "https://www.yelp.com/biz/the-lanai-encinitas?adjust_creative=oncXGL2aPIKrtJdnWeFSnA&utm_campaign=yelp_api_v3&utm_medium=api_v3_business_search&utm_source=oncXGL2aPIKrtJdnWeFSnA", "review_count": 159, "categories": [{"alias": "hawaiian", "title": "Hawaiian"}, {"alias": "poke", "title": "Poke"}], "rating": 4.0, "coordinates": {"latitude": 33.0681218639126, "longitude": -117.303886455267}, "transactions": [], "price": "$$", "location": {"address1": "1114 N Coast Hwy 101", "address2": "", "address3": "", "city": "Encinitas", "zip_code": "92024", "country": "US", "state": "CA", "display_address": ["1114 N Coast Hwy 101", "Encinitas, CA 92024"]}, "phone": "+17606134564", "display_phone": "(760) 613-4564", "distance": 5291.549762888955}, {"id": "MLlI6Qiuyr9WXbzJhCzU9A", "alias": "beach-bowls-san-elijo-encinitas", "name": "Beach Bowls San Elijo", "image_url": "https://s3-media1.fl.yelpcdn.com/bphoto/3u2uB0FEUr_aB7S4UfQgWg/o.jpg", "is_closed": false, "url": "https://www.yelp.com/biz/beach-bowls-san-elijo-encinitas?adjust_creative=oncXGL2aPIKrtJdnWeFSnA&utm_campaign=yelp_api_v3&utm_medium=api_v3_business_search&utm_source=oncXGL2aPIKrtJdnWeFSnA", "review_count": 1, "categories": [{"alias": "japanese", "title": "Japanese"}, {"alias": "hawaiian", "title": "Hawaiian"}], "rating": 5.0, "coordinates": {"latitude": 33.0211109133061, "longitude": -117.284618653357}, "transactions": [], "location": {"address1": "2050 S Coast Hwy 101", "address2": "", "address3": null, "city": "Encinitas", "zip_code": "92007", "country": "US", "state": "CA", "display_address": ["2050 S Coast Hwy 101", "Encinitas, CA 92007"]}, "phone": "+17609943667", "display_phone": "(760) 994-3667", "distance": 3868.0476777833924}, {"id": "UPSzxiR8sXSQ1NsjjwbbaA", "alias": "surf-brothers-teriyaki-encinitas", "name": "Surf Brothers Teriyaki", "image_url": "https://s3-media1.fl.yelpcdn.com/bphoto/UroBNTNJn37No37dTCVuhA/o.jpg", "is_closed": false, "url": "https://www.yelp.com/biz/surf-brothers-teriyaki-encinitas?adjust_creative=oncXGL2aPIKrtJdnWeFSnA&utm_campaign=yelp_api_v3&utm_medium=api_v3_business_search&utm_source=oncXGL2aPIKrtJdnWeFSnA", "review_count": 133, "categories": [{"alias": "hawaiian", "title": "Hawaiian"}, {"alias": "hotdogs", "title": "Fast Food"}], "rating": 3.5, "coordinates": {"latitude": 33.052474, "longitude": -117.262128}, "transactions": [], "price": "$", "location": {"address1": "274 N El Camino Real", "address2": "", "address3": "", "city": "Encinitas", "zip_code": "92024", "country": "US", "state": "CA", "display_address": ["274 N El Camino Real", "Encinitas, CA 92024"]}, "phone": "+17604597973", "display_phone": "(760) 459-7973", "distance": 1113.079716285129}, {"id": "A0mWHoOmHUJJdbTDVN1MMA", "alias": "homestyle-hawaiian-oceanside", "name": "Homestyle Hawaiian", "image_url": "https://s3-media1.fl.yelpcdn.com/bphoto/qZ-WDlPUKeU__VQOsxBEJg/o.jpg", "is_closed": false, "url": "https://www.yelp.com/biz/homestyle-hawaiian-oceanside?adjust_creative=oncXGL2aPIKrtJdnWeFSnA&utm_campaign=yelp_api_v3&utm_medium=api_v3_business_search&utm_source=oncXGL2aPIKrtJdnWeFSnA", "review_count": 17, "categories": [{"alias": "hawaiian", "title": "Hawaiian"}], "rating": 4.0, "coordinates": {"latitude": 33.19498, "longitude": -117.35455}, "transactions": [], "location": {"address1": "1950 Oceanside Blvd", "address2": null, "address3": "", "city": "Oceanside", "zip_code": "92054", "country": "US", "state": "CA", "display_address": ["1950 Oceanside Blvd", "Oceanside, CA 92054"]}, "phone": "+17606963030", "display_phone": "(760) 696-3030", "distance": 19136.925573530978}, {"id": "nRKvaT9vmo_XwTRw6QK16Q", "alias": "surf-brothers-teriyaki-carlsbad", "name": "Surf Brothers Teriyaki", "image_url": "https://s3-media4.fl.yelpcdn.com/bphoto/Qw6in2aB9moeBBHhMa4LYQ/o.jpg", "is_closed": false, "url": "https://www.yelp.com/biz/surf-brothers-teriyaki-carlsbad?adjust_creative=oncXGL2aPIKrtJdnWeFSnA&utm_campaign=yelp_api_v3&utm_medium=api_v3_business_search&utm_source=oncXGL2aPIKrtJdnWeFSnA", "review_count": 251, "categories": [{"alias": "hawaiian", "title": "Hawaiian"}, {"alias": "bbq", "title": "Barbeque"}, {"alias": "hotdogs", "title": "Fast Food"}], "rating": 4.0, "coordinates": {"latitude": 33.13106, "longitude": -117.260566}, "transactions": [], "price": "$", "location": {"address1": "2708 Loker Ave W", "address2": "Ste 103", "address3": "", "city": "Carlsbad", "zip_code": "92010", "country": "US", "state": "CA", "display_address": ["2708 Loker Ave W", "Ste 103", "Carlsbad, CA 92010"]}, "phone": "+17604597973", "display_phone": "(760) 459-7973", "distance": 9599.241288906673}, {"id": "vQMLjyMTQMJ8IJS3rdl3nA", "alias": "pokewan-san-diego", "name": "Pokewan", "image_url": "https://s3-media2.fl.yelpcdn.com/bphoto/hxZOt9PNeT2Nq2n0wrTnSA/o.jpg", "is_closed": false, "url": "https://www.yelp.com/biz/pokewan-san-diego?adjust_creative=oncXGL2aPIKrtJdnWeFSnA&utm_campaign=yelp_api_v3&utm_medium=api_v3_business_search&utm_source=oncXGL2aPIKrtJdnWeFSnA", "review_count": 166, "categories": [{"alias": "poke", "title": "Poke"}, {"alias": "seafood", "title": "Seafood"}, {"alias": "hawaiian", "title": "Hawaiian"}], "rating": 4.0, "coordinates": {"latitude": 32.95193, "longitude": -117.23254}, "transactions": [], "price": "$$", "location": {"address1": "12925 El Camino Real", "address2": "Ste AA4", "address3": null, "city": "San Diego", "zip_code": "92130", "country": "US", "state": "CA", "display_address": ["12925 El Camino Real", "Ste AA4", "San Diego, CA 92130"]}, "phone": "+18588472881", "display_phone": "(858) 847-2881", "distance": 10521.939200734063}, {"id": "5hUz-PhMBWjmUgUWwQd3Uw", "alias": "darunee-thai-cuisine-san-marcos", "name": "Darunee Thai Cuisine", "image_url": "https://s3-media1.fl.yelpcdn.com/bphoto/nieK4Dxj_DvS0AbQ3RDrYQ/o.jpg", "is_closed": false, "url": "https://www.yelp.com/biz/darunee-thai-cuisine-san-marcos?adjust_creative=oncXGL2aPIKrtJdnWeFSnA&utm_campaign=yelp_api_v3&utm_medium=api_v3_business_search&utm_source=oncXGL2aPIKrtJdnWeFSnA", "review_count": 227, "categories": [{"alias": "thai", "title": "Thai"}, {"alias": "hawaiian", "title": "Hawaiian"}], "rating": 4.5, "coordinates": {"latitude": 33.13407, "longitude": -117.18837}, "transactions": ["pickup", "delivery"], "price": "$", "location": {"address1": "1001 W San Marcos Blvd", "address2": "Ste 130", "address3": "", "city": "San Marcos", "zip_code": "92078", "country": "US", "state": "CA", "display_address": ["1001 W San Marcos Blvd", "Ste 130", "San Marcos, CA 92078"]}, "phone": "+17607520091", "display_phone": "(760) 752-0091", "distance": 11633.325573318409}, {"id": "GQugDjO_6bwtVr1kva4kRg", "alias": "pokewan-carlsbad", "name": "Pokewan", "image_url": "https://s3-media1.fl.yelpcdn.com/bphoto/iYkT1m_mC1XTXStViwX2Sw/o.jpg", "is_closed": false, "url": "https://www.yelp.com/biz/pokewan-carlsbad?adjust_creative=oncXGL2aPIKrtJdnWeFSnA&utm_campaign=yelp_api_v3&utm_medium=api_v3_business_search&utm_source=oncXGL2aPIKrtJdnWeFSnA", "review_count": 255, "categories": [{"alias": "poke", "title": "Poke"}, {"alias": "hawaiian", "title": "Hawaiian"}, {"alias": "seafood", "title": "Seafood"}], "rating": 4.5, "coordinates": {"latitude": 33.16156, "longitude": -117.34686}, "transactions": [], "price": "$$", "location": {"address1": "2958 Madison St", "address2": "Ste 101", "address3": null, "city": "Carlsbad", "zip_code": "92008", "country": "US", "state": "CA", "display_address": ["2958 Madison St", "Ste 101", "Carlsbad, CA 92008"]}, "phone": "+17607202300", "display_phone": "(760) 720-2300", "distance": 15563.087310628805}, {"id": "YK1Xrn9MBg4PxrgIIsjheQ", "alias": "wicked-poke-oceanside", "name": "Wicked Poke", "image_url": "https://s3-media1.fl.yelpcdn.com/bphoto/BggOhgd5QUIJSNZlVJamnw/o.jpg", "is_closed": false, "url": "https://www.yelp.com/biz/wicked-poke-oceanside?adjust_creative=oncXGL2aPIKrtJdnWeFSnA&utm_campaign=yelp_api_v3&utm_medium=api_v3_business_search&utm_source=oncXGL2aPIKrtJdnWeFSnA", "review_count": 306, "categories": [{"alias": "poke", "title": "Poke"}, {"alias": "shavedice", "title": "Shaved Ice"}, {"alias": "hawaiian", "title": "Hawaiian"}], "rating": 4.5, "coordinates": {"latitude": 33.1827333308032, "longitude": -117.335424575336}, "transactions": [], "price": "$", "location": {"address1": "2401 Vista Way", "address2": "Ste E", "address3": null, "city": "Oceanside", "zip_code": "92054", "country": "US", "state": "CA", "display_address": ["2401 Vista Way", "Ste E", "Oceanside, CA 92054"]}, "phone": "+17605290774", "display_phone": "(760) 529-0774", "distance": 17087.149991876766}, {"id": "AvVRl5stlkb3YQ8yLPGc8w", "alias": "pokewaii-san-marcos-5", "name": "Pokewaii", "image_url": "https://s3-media2.fl.yelpcdn.com/bphoto/aelHZq1OBgeLDOON_pXaFQ/o.jpg", "is_closed": false, "url": "https://www.yelp.com/biz/pokewaii-san-marcos-5?adjust_creative=oncXGL2aPIKrtJdnWeFSnA&utm_campaign=yelp_api_v3&utm_medium=api_v3_business_search&utm_source=oncXGL2aPIKrtJdnWeFSnA", "review_count": 201, "categories": [{"alias": "asianfusion", "title": "Asian Fusion"}, {"alias": "hawaiian", "title": "Hawaiian"}, {"alias": "poke", "title": "Poke"}], "rating": 4.0, "coordinates": {"latitude": 33.13391, "longitude": -117.19256}, "transactions": [], "price": "$", "location": {"address1": "1158 W San Marcos Blvd", "address2": "Ste 104", "address3": "", "city": "San Marcos", "zip_code": "92078", "country": "US", "state": "CA", "display_address": ["1158 W San Marcos Blvd", "Ste 104", "San Marcos, CA 92078"]}, "phone": "+17607369388", "display_phone": "(760) 736-9388", "distance": 11451.911549444323}, {"id": "tSwwA5Vy0Iv3RtIw0uJlXg", "alias": "mikko-sushi-carlsbad-2", "name": "Mikko Sushi", "image_url": "https://s3-media2.fl.yelpcdn.com/bphoto/y-bWjcckWwxsJDar3gWOtg/o.jpg", "is_closed": false, "url": "https://www.yelp.com/biz/mikko-sushi-carlsbad-2?adjust_creative=oncXGL2aPIKrtJdnWeFSnA&utm_campaign=yelp_api_v3&utm_medium=api_v3_business_search&utm_source=oncXGL2aPIKrtJdnWeFSnA", "review_count": 420, "categories": [{"alias": "sushi", "title": "Sushi Bars"}, {"alias": "japanese", "title": "Japanese"}, {"alias": "hawaiian", "title": "Hawaiian"}], "rating": 4.5, "coordinates": {"latitude": 33.1624882511995, "longitude": -117.343036971947}, "transactions": ["pickup", "delivery"], "price": "$$", "location": {"address1": "1025 Carlsbad Village Dr", "address2": "", "address3": "", "city": "Carlsbad", "zip_code": "92008", "country": "US", "state": "CA", "display_address": ["1025 Carlsbad Village Dr", "Carlsbad, CA 92008"]}, "phone": "+17607300088", "display_phone": "(760) 730-0088", "distance": 15467.936672565927}, {"id": "tyAK08taAaH7TJRDYmDNoA", "alias": "teri-cafe-oceanside-2", "name": "Teri Cafe", "image_url": "https://s3-media3.fl.yelpcdn.com/bphoto/EqgDweHE3dVyAl4oVYCk8Q/o.jpg", "is_closed": false, "url": "https://www.yelp.com/biz/teri-cafe-oceanside-2?adjust_creative=oncXGL2aPIKrtJdnWeFSnA&utm_campaign=yelp_api_v3&utm_medium=api_v3_business_search&utm_source=oncXGL2aPIKrtJdnWeFSnA", "review_count": 608, "categories": [{"alias": "sushi", "title": "Sushi Bars"}, {"alias": "hawaiian", "title": "Hawaiian"}, {"alias": "ramen", "title": "Ramen"}], "rating": 4.0, "coordinates": {"latitude": 33.181676135002, "longitude": -117.29310357791}, "transactions": [], "price": "$", "location": {"address1": "3809 Plaza Dr", "address2": "Ste101", "address3": "", "city": "Oceanside", "zip_code": "92056", "country": "US", "state": "CA", "display_address": ["3809 Plaza Dr", "Ste101", "Oceanside, CA 92056"]}, "phone": "+17609458888", "display_phone": "(760) 945-8888", "distance": 15632.658686418948}, {"id": "CvgmuACGX2tfkXzkh_gomA", "alias": "poki-poki-oceanside-oceanside-3", "name": "Poki Poki - Oceanside", "image_url": "https://s3-media3.fl.yelpcdn.com/bphoto/ajV769xWBlhiCdiiSbgJBQ/o.jpg", "is_closed": false, "url": "https://www.yelp.com/biz/poki-poki-oceanside-oceanside-3?adjust_creative=oncXGL2aPIKrtJdnWeFSnA&utm_campaign=yelp_api_v3&utm_medium=api_v3_business_search&utm_source=oncXGL2aPIKrtJdnWeFSnA", "review_count": 285, "categories": [{"alias": "asianfusion", "title": "Asian Fusion"}, {"alias": "hawaiian", "title": "Hawaiian"}, {"alias": "poke", "title": "Poke"}], "rating": 4.0, "coordinates": {"latitude": 33.1784354, "longitude": -117.2953997}, "transactions": [], "price": "$$", "location": {"address1": "3480 Marron Rd", "address2": "Ste 3B-101", "address3": "", "city": "Oceanside", "zip_code": "92056", "country": "US", "state": "CA", "display_address": ["3480 Marron Rd", "Ste 3B-101", "Oceanside, CA 92056"]}, "phone": "+17602959086", "display_phone": "(760) 295-9086", "distance": 15416.891720589156}, {"id": "iTkh5PmsoaLL-Dwjsbda1A", "alias": "ohana-hawaiian-bbq-vista", "name": "Ohana Hawaiian BBQ", "image_url": "https://s3-media2.fl.yelpcdn.com/bphoto/NLqFvenrfLGzyGim88sC8A/o.jpg", "is_closed": false, "url": "https://www.yelp.com/biz/ohana-hawaiian-bbq-vista?adjust_creative=oncXGL2aPIKrtJdnWeFSnA&utm_campaign=yelp_api_v3&utm_medium=api_v3_business_search&utm_source=oncXGL2aPIKrtJdnWeFSnA", "review_count": 117, "categories": [{"alias": "hawaiian", "title": "Hawaiian"}, {"alias": "bbq", "title": "Barbeque"}], "rating": 4.0, "coordinates": {"latitude": 33.1886176834493, "longitude": -117.254448160529}, "transactions": [], "price": "$", "location": {"address1": "485 S Melrose Dr", "address2": "", "address3": "", "city": "Vista", "zip_code": "92081", "country": "US", "state": "CA", "display_address": ["485 S Melrose Dr", "Vista, CA 92081"]}, "phone": "+17606431226", "display_phone": "(760) 643-1226", "distance": 15981.783337624614}, {"id": "kWg1LK_ZyRGrRIWpHFv4qg", "alias": "fish-district-san-diego", "name": "Fish District", "image_url": "https://s3-media3.fl.yelpcdn.com/bphoto/1x1tbuz0Hfmk_woYCtjKng/o.jpg", "is_closed": false, "url": "https://www.yelp.com/biz/fish-district-san-diego?adjust_creative=oncXGL2aPIKrtJdnWeFSnA&utm_campaign=yelp_api_v3&utm_medium=api_v3_business_search&utm_source=oncXGL2aPIKrtJdnWeFSnA", "review_count": 784, "categories": [{"alias": "seafood", "title": "Seafood"}, {"alias": "fishnchips", "title": "Fish & Chips"}, {"alias": "hawaiian", "title": "Hawaiian"}], "rating": 4.0, "coordinates": {"latitude": 32.9835979081114, "longitude": -117.076650499726}, "transactions": [], "price": "$$", "location": {"address1": "12002 Carmel Mountain Rd", "address2": "", "address3": "", "city": "San Diego", "zip_code": "92128", "country": "US", "state": "CA", "display_address": ["12002 Carmel Mountain Rd", "San Diego, CA 92128"]}, "phone": "+18584851577", "display_phone": "(858) 485-1577", "distance": 17914.35783041216}, {"id": "qM5NeJk4A8tSfdosbgUAdQ", "alias": "l-and-l-hawaiian-barbecue-oceanside-2", "name": "L&L Hawaiian Barbecue", "image_url": "https://s3-media2.fl.yelpcdn.com/bphoto/jWipNNKBB4ZCetHL1Qaalw/o.jpg", "is_closed": false, "url": "https://www.yelp.com/biz/l-and-l-hawaiian-barbecue-oceanside-2?adjust_creative=oncXGL2aPIKrtJdnWeFSnA&utm_campaign=yelp_api_v3&utm_medium=api_v3_business_search&utm_source=oncXGL2aPIKrtJdnWeFSnA", "review_count": 131, "categories": [{"alias": "bbq", "title": "Barbeque"}, {"alias": "hawaiian", "title": "Hawaiian"}], "rating": 4.0, "coordinates": {"latitude": 33.2065510147543, "longitude": -117.283936571967}, "transactions": [], "price": "$", "location": {"address1": "4225 Oceanside Blvd", "address2": "Ste E", "address3": null, "city": "Oceanside", "zip_code": "92056", "country": "US", "state": "CA", "display_address": ["4225 Oceanside Blvd", "Ste E", "Oceanside, CA 92056"]}, "phone": "+17607260888", "display_phone": "(760) 726-0888", "distance": 18186.024721071393}, {"id": "Cqv7t8x899fSQLVx7JNWwg", "alias": "matuas-da-food-truck-san-diego", "name": "Matua's Da Food Truck", "image_url": "https://s3-media1.fl.yelpcdn.com/bphoto/oe7g5kzUL5us_QW1N1O-Kw/o.jpg", "is_closed": false, "url": "https://www.yelp.com/biz/matuas-da-food-truck-san-diego?adjust_creative=oncXGL2aPIKrtJdnWeFSnA&utm_campaign=yelp_api_v3&utm_medium=api_v3_business_search&utm_source=oncXGL2aPIKrtJdnWeFSnA", "review_count": 2, "categories": [{"alias": "hawaiian", "title": "Hawaiian"}, {"alias": "guamanian", "title": "Guamanian"}, {"alias": "foodtrucks", "title": "Food Trucks"}], "rating": 5.0, "coordinates": {"latitude": 32.9309153450243, "longitude": -117.147004567087}, "transactions": [], "location": {"address1": "10724 Treena St", "address2": "", "address3": null, "city": "San Diego", "zip_code": "92131", "country": "US", "state": "CA", "display_address": ["10724 Treena St", "San Diego, CA 92131"]}, "phone": "+16193278709", "display_phone": "(619) 327-8709", "distance": 16150.014793102055}, {"id": "ACvedwCO6bqwEBSPRU8xYQ", "alias": "l-and-l-hawaiian-barbecue-san-marcos", "name": "L&L Hawaiian Barbecue", "image_url": "https://s3-media2.fl.yelpcdn.com/bphoto/TqnybThRajAuC52rtwQfnw/o.jpg", "is_closed": false, "url": "https://www.yelp.com/biz/l-and-l-hawaiian-barbecue-san-marcos?adjust_creative=oncXGL2aPIKrtJdnWeFSnA&utm_campaign=yelp_api_v3&utm_medium=api_v3_business_search&utm_source=oncXGL2aPIKrtJdnWeFSnA", "review_count": 216, "categories": [{"alias": "hawaiian", "title": "Hawaiian"}, {"alias": "bbq", "title": "Barbeque"}], "rating": 3.0, "coordinates": {"latitude": 33.140768, "longitude": -117.191111}, "transactions": ["pickup", "delivery"], "price": "$", "location": {"address1": "137 S Las Posas Rd", "address2": "Ste 152", "address3": "", "city": "San Marcos", "zip_code": "92078", "country": "US", "state": "CA", "display_address": ["137 S Las Posas Rd", "Ste 152", "San Marcos, CA 92078"]}, "phone": "+17602903036", "display_phone": "(760) 290-3036", "distance": 12251.210767366445}, {"id": "PiXZpdefGX-8qzr-aFNUow", "alias": "surf-brothers-teriyaki-escondido", "name": "Surf Brothers Teriyaki", "image_url": "https://s3-media3.fl.yelpcdn.com/bphoto/3tLFT4xWXPw00bh70zgC_Q/o.jpg", "is_closed": false, "url": "https://www.yelp.com/biz/surf-brothers-teriyaki-escondido?adjust_creative=oncXGL2aPIKrtJdnWeFSnA&utm_campaign=yelp_api_v3&utm_medium=api_v3_business_search&utm_source=oncXGL2aPIKrtJdnWeFSnA", "review_count": 171, "categories": [{"alias": "hawaiian", "title": "Hawaiian"}], "rating": 4.0, "coordinates": {"latitude": 33.117352, "longitude": -117.0962762}, "transactions": [], "price": "$", "location": {"address1": "1032 W Valley Pkwy", "address2": "", "address3": "", "city": "Escondido", "zip_code": "92025", "country": "US", "state": "CA", "display_address": ["1032 W Valley Pkwy", "Escondido, CA 92025"]}, "phone": "+17604597973", "display_phone": "(760) 459-7973", "distance": 16746.56081676245}, {"id": "SminN3P9lIhb8JoS6mFrBw", "alias": "poki-poki-vista-vista", "name": "Poki Poki-Vista", "image_url": "https://s3-media4.fl.yelpcdn.com/bphoto/n53btfN_a7h8HxGrv9QRpg/o.jpg", "is_closed": false, "url": "https://www.yelp.com/biz/poki-poki-vista-vista?adjust_creative=oncXGL2aPIKrtJdnWeFSnA&utm_campaign=yelp_api_v3&utm_medium=api_v3_business_search&utm_source=oncXGL2aPIKrtJdnWeFSnA", "review_count": 96, "categories": [{"alias": "poke", "title": "Poke"}, {"alias": "hawaiian", "title": "Hawaiian"}], "rating": 4.5, "coordinates": {"latitude": 33.2004047, "longitude": -117.2449455}, "transactions": [], "price": "$$", "location": {"address1": "20 Main St", "address2": "Ste 150", "address3": null, "city": "Vista", "zip_code": "92084", "country": "US", "state": "CA", "display_address": ["20 Main St", "Ste 150", "Vista, CA 92084"]}, "phone": "+17602955665", "display_phone": "(760) 295-5665", "distance": 17310.630763523135}, {"id": "yA7LGc448WLX1YVYqBr4-w", "alias": "sushi-hana-san-diego", "name": "Sushi Hana", "image_url": "https://s3-media4.fl.yelpcdn.com/bphoto/TXuAoFMGzzijmkfqHyItgg/o.jpg", "is_closed": false, "url": "https://www.yelp.com/biz/sushi-hana-san-diego?adjust_creative=oncXGL2aPIKrtJdnWeFSnA&utm_campaign=yelp_api_v3&utm_medium=api_v3_business_search&utm_source=oncXGL2aPIKrtJdnWeFSnA", "review_count": 358, "categories": [{"alias": "japanese", "title": "Japanese"}, {"alias": "sushi", "title": "Sushi Bars"}, {"alias": "hawaiian", "title": "Hawaiian"}], "rating": 3.5, "coordinates": {"latitude": 32.959265065474, "longitude": -117.114555790128}, "transactions": [], "price": "$$", "location": {"address1": "9869 Carmel Mountain Rd", "address2": "", "address3": "", "city": "San Diego", "zip_code": "92129", "country": "US", "state": "CA", "display_address": ["9869 Carmel Mountain Rd", "San Diego, CA 92129"]}, "phone": "+18584845300", "display_phone": "(858) 484-5300", "distance": 16141.731122822992}, {"id": "crl2aOL0NiFcPT7spXXVrA", "alias": "maui-hawaiian-bbq-oceanside", "name": "Maui Hawaiian BBQ", "image_url": "https://s3-media2.fl.yelpcdn.com/bphoto/SXP21OoXVeEdvMb_IGTsFQ/o.jpg", "is_closed": false, "url": "https://www.yelp.com/biz/maui-hawaiian-bbq-oceanside?adjust_creative=oncXGL2aPIKrtJdnWeFSnA&utm_campaign=yelp_api_v3&utm_medium=api_v3_business_search&utm_source=oncXGL2aPIKrtJdnWeFSnA", "review_count": 181, "categories": [{"alias": "hawaiian", "title": "Hawaiian"}, {"alias": "bbq", "title": "Barbeque"}], "rating": 3.0, "coordinates": {"latitude": 33.1826324462891, "longitude": -117.333488464355}, "transactions": [], "price": "$", "location": {"address1": "2455 Vista Way", "address2": "Ste D", "address3": "", "city": "Oceanside", "zip_code": "92054", "country": "US", "state": "CA", "display_address": ["2455 Vista Way", "Ste D", "Oceanside, CA 92054"]}, "phone": "+17607228383", "display_phone": "(760) 722-8383", "distance": 17003.95371464965}, {"id": "RBbx3nSEiVvi0K7eDjpNPw", "alias": "pokeland-san-diego-3", "name": "Pokeland", "image_url": "https://s3-media3.fl.yelpcdn.com/bphoto/1pLvMsW2tpcQ_aigQenEoA/o.jpg", "is_closed": false, "url": "https://www.yelp.com/biz/pokeland-san-diego-3?adjust_creative=oncXGL2aPIKrtJdnWeFSnA&utm_campaign=yelp_api_v3&utm_medium=api_v3_business_search&utm_source=oncXGL2aPIKrtJdnWeFSnA", "review_count": 325, "categories": [{"alias": "hawaiian", "title": "Hawaiian"}, {"alias": "seafood", "title": "Seafood"}, {"alias": "poke", "title": "Poke"}], "rating": 4.5, "coordinates": {"latitude": 32.91349, "longitude": -117.14666}, "transactions": ["pickup"], "price": "$$", "location": {"address1": "8270 Mira Mesa Blvd", "address2": "Ste B", "address3": "", "city": "San Diego", "zip_code": "92126", "country": "US", "state": "CA", "display_address": ["8270 Mira Mesa Blvd", "Ste B", "San Diego, CA 92126"]}, "phone": "+18588605435", "display_phone": "(858) 860-5435", "distance": 17660.93719652479}, {"id": "10ak0eU0ow341jXK06yO4g", "alias": "pacific-poke-san-diego-4", "name": "Pacific Poke", "image_url": "https://s3-media1.fl.yelpcdn.com/bphoto/jrF0luBGQJNSYSWOPghyGQ/o.jpg", "is_closed": false, "url": "https://www.yelp.com/biz/pacific-poke-san-diego-4?adjust_creative=oncXGL2aPIKrtJdnWeFSnA&utm_campaign=yelp_api_v3&utm_medium=api_v3_business_search&utm_source=oncXGL2aPIKrtJdnWeFSnA", "review_count": 267, "categories": [{"alias": "poke", "title": "Poke"}, {"alias": "japanese", "title": "Japanese"}, {"alias": "hawaiian", "title": "Hawaiian"}], "rating": 4.0, "coordinates": {"latitude": 32.9172300299489, "longitude": -117.1272957923}, "transactions": ["pickup"], "price": "$$", "location": {"address1": "9168 Mira Mesa Blvd", "address2": null, "address3": "", "city": "San Diego", "zip_code": "92126", "country": "US", "state": "CA", "display_address": ["9168 Mira Mesa Blvd", "San Diego, CA 92126"]}, "phone": "+18587572027", "display_phone": "(858) 757-2027", "distance": 18451.62356425177}, {"id": "BKlN_RDN6vzQQ_bg4n4R6Q", "alias": "l-and-l-hawaiian-barbecue-la-jolla", "name": "L&L Hawaiian Barbecue", "image_url": "https://s3-media3.fl.yelpcdn.com/bphoto/p17Tdkl7PKo9ClzKlSGFHQ/o.jpg", "is_closed": false, "url": "https://www.yelp.com/biz/l-and-l-hawaiian-barbecue-la-jolla?adjust_creative=oncXGL2aPIKrtJdnWeFSnA&utm_campaign=yelp_api_v3&utm_medium=api_v3_business_search&utm_source=oncXGL2aPIKrtJdnWeFSnA", "review_count": 217, "categories": [{"alias": "hawaiian", "title": "Hawaiian"}, {"alias": "bbq", "title": "Barbeque"}], "rating": 2.5, "coordinates": {"latitude": 32.8728587937212, "longitude": -117.217259907421}, "transactions": ["delivery"], "price": "$", "location": {"address1": "4150 Regents Park Row", "address2": "Ste 187", "address3": "", "city": "La Jolla", "zip_code": "92037", "country": "US", "state": "CA", "display_address": ["4150 Regents Park Row", "Ste 187", "La Jolla, CA 92037"]}, "phone": "+18585540888", "display_phone": "(858) 554-0888", "distance": 19439.178084232422}, {"id": "DnobBO7FPizg1jfODt_SOg", "alias": "l-and-l-hawaiian-barbecue-san-diego", "name": "L&L Hawaiian Barbecue", "image_url": "https://s3-media1.fl.yelpcdn.com/bphoto/VpT8F3CVP2VETf0oZwhYfA/o.jpg", "is_closed": false, "url": "https://www.yelp.com/biz/l-and-l-hawaiian-barbecue-san-diego?adjust_creative=oncXGL2aPIKrtJdnWeFSnA&utm_campaign=yelp_api_v3&utm_medium=api_v3_business_search&utm_source=oncXGL2aPIKrtJdnWeFSnA", "review_count": 280, "categories": [{"alias": "hawaiian", "title": "Hawaiian"}, {"alias": "bbq", "title": "Barbeque"}], "rating": 3.0, "coordinates": {"latitude": 32.914745, "longitude": -117.146077}, "transactions": ["pickup", "delivery"], "price": "$", "location": {"address1": "8280-A Mira Mesa Blvd", "address2": "", "address3": "Mira Mesa Mall", "city": "San Diego", "zip_code": "92126", "country": "US", "state": "CA", "display_address": ["8280-A Mira Mesa Blvd", "Mira Mesa Mall", "San Diego, CA 92126"]}, "phone": "+18586935888", "display_phone": "(858) 693-5888", "distance": 17646.22179442415}, {"id": "1YkRlakrlOYMMxxdPXF9Ag", "alias": "aiga-island-grill-55-oceanside-3", "name": "Aiga Island Grill 55", "image_url": "https://s3-media4.fl.yelpcdn.com/bphoto/uDsZmo-lHKarWeT_ip9Jlg/o.jpg", "is_closed": false, "url": "https://www.yelp.com/biz/aiga-island-grill-55-oceanside-3?adjust_creative=oncXGL2aPIKrtJdnWeFSnA&utm_campaign=yelp_api_v3&utm_medium=api_v3_business_search&utm_source=oncXGL2aPIKrtJdnWeFSnA", "review_count": 113, "categories": [{"alias": "hawaiian", "title": "Hawaiian"}, {"alias": "polynesian", "title": "Polynesian"}], "rating": 4.5, "coordinates": {"latitude": 33.1955389637417, "longitude": -117.3803008707}, "transactions": [], "price": "$$", "location": {"address1": "400 Mission Ave", "address2": "", "address3": null, "city": "Oceanside", "zip_code": "92054", "country": "US", "state": "CA", "display_address": ["400 Mission Ave", "Oceanside, CA 92054"]}, "phone": "+17604537537", "display_phone": "(760) 453-7537", "distance": 20450.646228102512}, {"id": "wC3CqwTy_-rgANl-W9XG-Q", "alias": "l-and-l-hawaiian-barbecue-san-diego-18", "name": "L&L Hawaiian Barbecue", "image_url": "https://s3-media2.fl.yelpcdn.com/bphoto/nwxK6lEOnKx0EAjBx31SEQ/o.jpg", "is_closed": false, "url": "https://www.yelp.com/biz/l-and-l-hawaiian-barbecue-san-diego-18?adjust_creative=oncXGL2aPIKrtJdnWeFSnA&utm_campaign=yelp_api_v3&utm_medium=api_v3_business_search&utm_source=oncXGL2aPIKrtJdnWeFSnA", "review_count": 221, "categories": [{"alias": "hawaiian", "title": "Hawaiian"}, {"alias": "bbq", "title": "Barbeque"}], "rating": 2.5, "coordinates": {"latitude": 32.98216805569, "longitude": -117.07484663457}, "transactions": ["pickup", "delivery"], "price": "$", "location": {"address1": "11975 Carmel Mountain Rd", "address2": "", "address3": "", "city": "San Diego", "zip_code": "92128", "country": "US", "state": "CA", "display_address": ["11975 Carmel Mountain Rd", "San Diego, CA 92128"]}, "phone": "+18584516888", "display_phone": "(858) 451-6888", "distance": 18130.706698949394}, {"id": "JWN3E43aSDiSERpuMmrQZQ", "alias": "ipo-bbq-poway", "name": "Ipo BBQ", "image_url": "https://s3-media4.fl.yelpcdn.com/bphoto/YJHLjOOGTrb_Oqgf1NbHQg/o.jpg", "is_closed": false, "url": "https://www.yelp.com/biz/ipo-bbq-poway?adjust_creative=oncXGL2aPIKrtJdnWeFSnA&utm_campaign=yelp_api_v3&utm_medium=api_v3_business_search&utm_source=oncXGL2aPIKrtJdnWeFSnA", "review_count": 141, "categories": [{"alias": "hawaiian", "title": "Hawaiian"}, {"alias": "bbq", "title": "Barbeque"}, {"alias": "seafood", "title": "Seafood"}], "rating": 3.5, "coordinates": {"latitude": 32.9520251, "longitude": -117.0629365}, "transactions": [], "price": "$", "location": {"address1": "12370 Poway Rd", "address2": "", "address3": "", "city": "Poway", "zip_code": "92064", "country": "US", "state": "CA", "display_address": ["12370 Poway Rd", "Poway, CA 92064"]}, "phone": "+18586683032", "display_phone": "(858) 668-3032", "distance": 20558.787854906368}], "total": 29, "region": {"center": {"longitude": -117.25433349609375, "latitude": 33.04488992556048}}}