{"businesses": [{"id": "G-KmG-jaBAscQZTK2rKiSg", "alias": "duffs-doggz-san-diego", "name": "Duffs Doggz", "image_url": "https://s3-media1.fl.yelpcdn.com/bphoto/wZB3_D5KaBnAMcswo2AjPQ/o.jpg", "is_closed": false, "url": "https://www.yelp.com/biz/duffs-doggz-san-diego?adjust_creative=oncXGL2aPIKrtJdnWeFSnA&utm_campaign=yelp_api_v3&utm_medium=api_v3_business_search&utm_source=oncXGL2aPIKrtJdnWeFSnA", "review_count": 304, "categories": [{"alias": "hotdog", "title": "Hot Dogs"}], "rating": 4.5, "coordinates": {"latitude": 32.9834862788371, "longitude": -117.074250409718}, "transactions": ["delivery", "pickup"], "price": "$", "location": {"address1": "12047 Carmel Mountain Rd", "address2": "", "address3": "", "city": "San Diego", "zip_code": "92128", "country": "US", "state": "CA", "display_address": ["12047 Carmel Mountain Rd", "San Diego, CA 92128"]}, "phone": "+18584851717", "display_phone": "(858) 485-1717", "distance": 18126.198137066327}, {"id": "_wiNZz2Ngu0TzUmiZJ6Alg", "alias": "dog-haus-vista-3", "name": "Dog Haus", "image_url": "https://s3-media3.fl.yelpcdn.com/bphoto/3gCZV2g3US0jzHcV8HtMxg/o.jpg", "is_closed": false, "url": "https://www.yelp.com/biz/dog-haus-vista-3?adjust_creative=oncXGL2aPIKrtJdnWeFSnA&utm_campaign=yelp_api_v3&utm_medium=api_v3_business_search&utm_source=oncXGL2aPIKrtJdnWeFSnA", "review_count": 32, "categories": [{"alias": "burgers", "title": "Burgers"}, {"alias": "icecream", "title": "Ice Cream & Frozen Yogurt"}, {"alias": "hotdog", "title": "Hot Dogs"}], "rating": 4.5, "coordinates": {"latitude": 33.2013620637667, "longitude": -117.241241395701}, "transactions": [], "location": {"address1": "227 East Broadway", "address2": null, "address3": null, "city": "Vista", "zip_code": "92084", "country": "US", "state": "CA", "display_address": ["227 East Broadway", "Vista, CA 92084"]}, "phone": "+17605363544", "display_phone": "(760) 536-3544", "distance": 17441.553574248424}, {"id": "YbndgsuVYcoQviv1eIW9kw", "alias": "freddys-frozen-custard-and-steakburgers-san-marcos-5", "name": "Freddy's Frozen Custard & Steakburgers", "image_url": "https://s3-media1.fl.yelpcdn.com/bphoto/4kYenQTJDm3xW5qG4vB0bA/o.jpg", "is_closed": false, "url": "https://www.yelp.com/biz/freddys-frozen-custard-and-steakburgers-san-marcos-5?adjust_creative=oncXGL2aPIKrtJdnWeFSnA&utm_campaign=yelp_api_v3&utm_medium=api_v3_business_search&utm_source=oncXGL2aPIKrtJdnWeFSnA", "review_count": 198, "categories": [{"alias": "hotdog", "title": "Hot Dogs"}, {"alias": "hotdogs", "title": "Fast Food"}, {"alias": "burgers", "title": "Burgers"}], "rating": 3.5, "coordinates": {"latitude": 33.1349034888627, "longitude": -117.120317447047}, "transactions": [], "price": "$", "location": {"address1": "767 Center Dr", "address2": "", "address3": null, "city": "San Marcos", "zip_code": "92069", "country": "US", "state": "CA", "display_address": ["767 Center Dr", "San Marcos, CA 92069"]}, "phone": "+14422488636", "display_phone": "(442) 248-8636", "distance": 16001.770478069675}, {"id": "a3_fv4zg36jZ3UwiTBDc3Q", "alias": "papa-dukes-deli-and-grill-poway", "name": "Papa Duke's Deli & Grill", "image_url": "https://s3-media4.fl.yelpcdn.com/bphoto/Y-v1o-SQYF0a0AKQq3hrFA/o.jpg", "is_closed": false, "url": "https://www.yelp.com/biz/papa-dukes-deli-and-grill-poway?adjust_creative=oncXGL2aPIKrtJdnWeFSnA&utm_campaign=yelp_api_v3&utm_medium=api_v3_business_search&utm_source=oncXGL2aPIKrtJdnWeFSnA", "review_count": 117, "categories": [{"alias": "delis", "title": "Delis"}, {"alias": "tradamerican", "title": "American (Traditional)"}, {"alias": "hotdog", "title": "Hot Dogs"}], "rating": 4.5, "coordinates": {"latitude": 32.93765, "longitude": -117.04963}, "transactions": [], "price": "$", "location": {"address1": "12169 Kirkham Rd", "address2": "Ste A", "address3": "", "city": "Poway", "zip_code": "92064", "country": "US", "state": "CA", "display_address": ["12169 Kirkham Rd", "Ste A", "Poway, CA 92064"]}, "phone": "+18586797955", "display_phone": "(858) 679-7955", "distance": 22501.357524256768}, {"id": "SmzQdOEBu3gpT_ZwmBIIlg", "alias": "ritro-vending-san-marcos", "name": "Ritro Vending", "image_url": "https://s3-media4.fl.yelpcdn.com/bphoto/J-m0rI0aj1z1pU8PYCzQVA/o.jpg", "is_closed": false, "url": "https://www.yelp.com/biz/ritro-vending-san-marcos?adjust_creative=oncXGL2aPIKrtJdnWeFSnA&utm_campaign=yelp_api_v3&utm_medium=api_v3_business_search&utm_source=oncXGL2aPIKrtJdnWeFSnA", "review_count": 5, "categories": [{"alias": "hotdog", "title": "Hot Dogs"}, {"alias": "catering", "title": "Caterers"}, {"alias": "foodstands", "title": "Food Stands"}], "rating": 4.0, "coordinates": {"latitude": 33.14709, "longitude": -117.19768}, "transactions": [], "location": {"address1": "139 Pawnee St", "address2": null, "address3": "", "city": "San Marcos", "zip_code": "92078", "country": "US", "state": "CA", "display_address": ["139 Pawnee St", "San Marcos, CA 92078"]}, "phone": "+19105813883", "display_phone": "(910) 581-3883", "distance": 12543.624162748785}, {"id": "M3EPqm-lydAJL71JggBZVw", "alias": "coffee-express-carlsbad", "name": "Coffee Express", "image_url": "https://s3-media1.fl.yelpcdn.com/bphoto/nXRIOTKOvhfiLcTSCwsyEw/o.jpg", "is_closed": false, "url": "https://www.yelp.com/biz/coffee-express-carlsbad?adjust_creative=oncXGL2aPIKrtJdnWeFSnA&utm_campaign=yelp_api_v3&utm_medium=api_v3_business_search&utm_source=oncXGL2aPIKrtJdnWeFSnA", "review_count": 14, "categories": [{"alias": "coffee", "title": "Coffee & Tea"}, {"alias": "donuts", "title": "Donuts"}, {"alias": "hotdog", "title": "Hot Dogs"}], "rating": 4.5, "coordinates": {"latitude": 33.1614822, "longitude": -117.3504618}, "transactions": [], "price": "$$", "location": {"address1": "2775 State St", "address2": null, "address3": "", "city": "Carlsbad", "zip_code": "92008", "country": "US", "state": "CA", "display_address": ["2775 State St", "Carlsbad, CA 92008"]}, "phone": "+17605900183", "display_phone": "(760) 590-0183", "distance": 15723.53279363208}, {"id": "FU1CQwgB-xHglYgWoZVL7w", "alias": "costco-snack-bar-vista", "name": "Costco Snack Bar", "image_url": "https://s3-media2.fl.yelpcdn.com/bphoto/QXYbDNRkBdzECVmaoqyFPg/o.jpg", "is_closed": false, "url": "https://www.yelp.com/biz/costco-snack-bar-vista?adjust_creative=oncXGL2aPIKrtJdnWeFSnA&utm_campaign=yelp_api_v3&utm_medium=api_v3_business_search&utm_source=oncXGL2aPIKrtJdnWeFSnA", "review_count": 17, "categories": [{"alias": "hotdog", "title": "Hot Dogs"}, {"alias": "pizza", "title": "Pizza"}], "rating": 3.5, "coordinates": {"latitude": 33.188043306347, "longitude": -117.277263279099}, "transactions": [], "price": "$", "location": {"address1": "1755 Hacienda Dr", "address2": "", "address3": "", "city": "Vista", "zip_code": "92081", "country": "US", "state": "CA", "display_address": ["1755 Hacienda Dr", "Vista, CA 92081"]}, "phone": "+17606317255", "display_phone": "(760) 631-7255", "distance": 16060.52033327444}, {"id": "V2exKVZgIvly83qK0fhFWw", "alias": "wienerschnitzel-oceanside-2", "name": "Wienerschnitzel", "image_url": "https://s3-media2.fl.yelpcdn.com/bphoto/iuk1qLzPuP_DyVhDEdaaNw/o.jpg", "is_closed": false, "url": "https://www.yelp.com/biz/wienerschnitzel-oceanside-2?adjust_creative=oncXGL2aPIKrtJdnWeFSnA&utm_campaign=yelp_api_v3&utm_medium=api_v3_business_search&utm_source=oncXGL2aPIKrtJdnWeFSnA", "review_count": 24, "categories": [{"alias": "hotdog", "title": "Hot Dogs"}, {"alias": "hotdogs", "title": "Fast Food"}, {"alias": "sandwiches", "title": "Sandwiches"}], "rating": 3.5, "coordinates": {"latitude": 33.1945980869188, "longitude": -117.354382569297}, "transactions": [], "price": "$", "location": {"address1": "1960 Oceanside Blvd", "address2": "", "address3": "", "city": "Oceanside", "zip_code": "92054", "country": "US", "state": "CA", "display_address": ["1960 Oceanside Blvd", "Oceanside, CA 92054"]}, "phone": "+17607541909", "display_phone": "(760) 754-1909", "distance": 19100.474981379703}, {"id": "nTHKUO_2PpzgtysG83ttZQ", "alias": "wienerschnitzel-escondido-2", "name": "Wienerschnitzel", "image_url": "https://s3-media2.fl.yelpcdn.com/bphoto/SWcVvBx1k_D72WBVvkZ35Q/o.jpg", "is_closed": false, "url": "https://www.yelp.com/biz/wienerschnitzel-escondido-2?adjust_creative=oncXGL2aPIKrtJdnWeFSnA&utm_campaign=yelp_api_v3&utm_medium=api_v3_business_search&utm_source=oncXGL2aPIKrtJdnWeFSnA", "review_count": 20, "categories": [{"alias": "hotdog", "title": "Hot Dogs"}, {"alias": "hotdogs", "title": "Fast Food"}, {"alias": "sandwiches", "title": "Sandwiches"}], "rating": 3.5, "coordinates": {"latitude": 33.1293485039267, "longitude": -117.0703125}, "transactions": [], "price": "$", "location": {"address1": "960 East Valley Pkwy", "address2": "", "address3": "", "city": "Escondido", "zip_code": "92025", "country": "US", "state": "CA", "display_address": ["960 East Valley Pkwy", "Escondido, CA 92025"]}, "phone": "+17607468900", "display_phone": "(760) 746-8900", "distance": 19547.792733802435}, {"id": "X7PbDjO9M4RxoUKTpODVig", "alias": "wienerschnitzel-oceanside", "name": "Wienerschnitzel", "image_url": "https://s3-media1.fl.yelpcdn.com/bphoto/69960HM8Z9B9poAQgOcCvg/o.jpg", "is_closed": false, "url": "https://www.yelp.com/biz/wienerschnitzel-oceanside?adjust_creative=oncXGL2aPIKrtJdnWeFSnA&utm_campaign=yelp_api_v3&utm_medium=api_v3_business_search&utm_source=oncXGL2aPIKrtJdnWeFSnA", "review_count": 34, "categories": [{"alias": "hotdogs", "title": "Fast Food"}, {"alias": "hotdog", "title": "Hot Dogs"}, {"alias": "sandwiches", "title": "Sandwiches"}], "rating": 3.0, "coordinates": {"latitude": 33.20013, "longitude": -117.38273}, "transactions": ["delivery", "pickup"], "price": "$", "location": {"address1": "624 North Coast Hwy", "address2": "", "address3": "", "city": "Oceanside", "zip_code": "92054", "country": "US", "state": "CA", "display_address": ["624 North Coast Hwy", "Oceanside, CA 92054"]}, "phone": "+17607229059", "display_phone": "(760) 722-9059", "distance": 21008.1746186584}, {"id": "IFmqakB7ImLokfev0htBmQ", "alias": "burger-king-oceanside-4", "name": "Burger King", "image_url": "https://s3-media1.fl.yelpcdn.com/bphoto/iL6PSCEzutvDe73bNH3dDw/o.jpg", "is_closed": false, "url": "https://www.yelp.com/biz/burger-king-oceanside-4?adjust_creative=oncXGL2aPIKrtJdnWeFSnA&utm_campaign=yelp_api_v3&utm_medium=api_v3_business_search&utm_source=oncXGL2aPIKrtJdnWeFSnA", "review_count": 16, "categories": [{"alias": "hotdog", "title": "Hot Dogs"}, {"alias": "burgers", "title": "Burgers"}], "rating": 2.0, "coordinates": {"latitude": 33.19307, "longitude": -117.37853}, "transactions": [], "price": "$", "location": {"address1": "227 S Tremont St", "address2": null, "address3": null, "city": "Oceanside", "zip_code": "92054", "country": "US", "state": "CA", "display_address": ["227 S Tremont St", "Oceanside, CA 92054"]}, "phone": "+17604395207", "display_phone": "(760) 439-5207", "distance": 20151.548228495714}], "total": 11, "region": {"center": {"longitude": -117.25433349609375, "latitude": 33.04488992556048}}}