{"businesses": [{"id": "EqICbG6gnaNMQ6zy4kMU9A", "alias": "plant-power-fast-food-encinitas", "name": "Plant Power Fast Food", "image_url": "https://s3-media3.fl.yelpcdn.com/bphoto/3bLCd4TjojBiekr9K4qZHw/o.jpg", "is_closed": false, "url": "https://www.yelp.com/biz/plant-power-fast-food-encinitas?adjust_creative=oncXGL2aPIKrtJdnWeFSnA&utm_campaign=yelp_api_v3&utm_medium=api_v3_business_search&utm_source=oncXGL2aPIKrtJdnWeFSnA", "review_count": 344, "categories": [{"alias": "hotdogs", "title": "Fast Food"}, {"alias": "burgers", "title": "Burgers"}], "rating": 4.0, "coordinates": {"latitude": 33.03592, "longitude": -117.284}, "transactions": [], "price": "$$", "location": {"address1": "411 Santa Fe Dr", "address2": "", "address3": null, "city": "Encinitas", "zip_code": "92024", "country": "US", "state": "CA", "display_address": ["411 Santa Fe Dr", "Encinitas, CA 92024"]}, "phone": "+17604522352", "display_phone": "(760) 452-2352", "distance": 2933.494014570825}, {"id": "PjBfyOUmJl2Om6qf8ndbRw", "alias": "grabbagreen-encinitas", "name": "Grabbagreen", "image_url": "https://s3-media2.fl.yelpcdn.com/bphoto/TbCSixihWoMctGfs-AJGYw/o.jpg", "is_closed": false, "url": "https://www.yelp.com/biz/grabbagreen-encinitas?adjust_creative=oncXGL2aPIKrtJdnWeFSnA&utm_campaign=yelp_api_v3&utm_medium=api_v3_business_search&utm_source=oncXGL2aPIKrtJdnWeFSnA", "review_count": 31, "categories": [{"alias": "hotdogs", "title": "Fast Food"}, {"alias": "salad", "title": "Salad"}, {"alias": "juicebars", "title": "Juice Bars & Smoothies"}], "rating": 4.0, "coordinates": {"latitude": 33.0459113645659, "longitude": -117.257990883537}, "transactions": ["delivery", "pickup"], "price": "$$", "location": {"address1": "1454 Encinitas Blvd", "address2": null, "address3": "", "city": "Encinitas", "zip_code": "92024", "country": "US", "state": "CA", "display_address": ["1454 Encinitas Blvd", "Encinitas, CA 92024"]}, "phone": "+17604567722", "display_phone": "(760) 456-7722", "distance": 307.7889624432454}, {"id": "QB_a4r5ldLS5tZAysQwU6A", "alias": "in-n-out-burger-encinitas", "name": "In-N-Out Burger", "image_url": "https://s3-media2.fl.yelpcdn.com/bphoto/u4mmqxtWlVoAeBpHYktpnQ/o.jpg", "is_closed": false, "url": "https://www.yelp.com/biz/in-n-out-burger-encinitas?adjust_creative=oncXGL2aPIKrtJdnWeFSnA&utm_campaign=yelp_api_v3&utm_medium=api_v3_business_search&utm_source=oncXGL2aPIKrtJdnWeFSnA", "review_count": 161, "categories": [{"alias": "burgers", "title": "Burgers"}, {"alias": "hotdogs", "title": "Fast Food"}], "rating": 4.5, "coordinates": {"latitude": 33.0472960549698, "longitude": -117.28498841468}, "transactions": [], "price": "$", "location": {"address1": "130 Calle Magdalena", "address2": "", "address3": "", "city": "Encinitas", "zip_code": "92024", "country": "US", "state": "CA", "display_address": ["130 Calle Magdalena", "Encinitas, CA 92024"]}, "phone": "+18007861000", "display_phone": "(800) 786-1000", "distance": 2869.753901342435}, {"id": "N00mMr9eRmxBJQqxdl2_SA", "alias": "blaze-fast-fired-pizza-encinitas-2", "name": "Blaze Fast-Fire'd Pizza", "image_url": "https://s3-media1.fl.yelpcdn.com/bphoto/A9Uy6N2lJXNTkME4paCE6g/o.jpg", "is_closed": false, "url": "https://www.yelp.com/biz/blaze-fast-fired-pizza-encinitas-2?adjust_creative=oncXGL2aPIKrtJdnWeFSnA&utm_campaign=yelp_api_v3&utm_medium=api_v3_business_search&utm_source=oncXGL2aPIKrtJdnWeFSnA", "review_count": 270, "categories": [{"alias": "pizza", "title": "Pizza"}, {"alias": "salad", "title": "Salad"}, {"alias": "hotdogs", "title": "Fast Food"}], "rating": 4.5, "coordinates": {"latitude": 33.0484911, "longitude": -117.259474}, "transactions": [], "price": "$", "location": {"address1": "127 North El Camino Real", "address2": "", "address3": "", "city": "Encinitas", "zip_code": "92024", "country": "US", "state": "CA", "display_address": ["127 North El Camino Real", "Encinitas, CA 92024"]}, "phone": "+17604528025", "display_phone": "(760) 452-8025", "distance": 478.66384743220135}, {"id": "9wW_HFlyOKvDA6qDlq9wgg", "alias": "chick-fil-a-encinitas-2", "name": "Chick-fil-A", "image_url": "https://s3-media2.fl.yelpcdn.com/bphoto/3NO4xWroQAtPBPbDbJZZyA/o.jpg", "is_closed": false, "url": "https://www.yelp.com/biz/chick-fil-a-encinitas-2?adjust_creative=oncXGL2aPIKrtJdnWeFSnA&utm_campaign=yelp_api_v3&utm_medium=api_v3_business_search&utm_source=oncXGL2aPIKrtJdnWeFSnA", "review_count": 129, "categories": [{"alias": "hotdogs", "title": "Fast Food"}], "rating": 3.5, "coordinates": {"latitude": 33.0485009, "longitude": -117.2599882}, "transactions": [], "price": "$", "location": {"address1": "194 N El Camino Real", "address2": "", "address3": "", "city": "Encinitas", "zip_code": "92024", "country": "US", "state": "CA", "display_address": ["194 N El Camino Real", "Encinitas, CA 92024"]}, "phone": "+17604362622", "display_phone": "(760) 436-2622", "distance": 663.6715623609292}, {"id": "UPSzxiR8sXSQ1NsjjwbbaA", "alias": "surf-brothers-teriyaki-encinitas", "name": "Surf Brothers Teriyaki", "image_url": "https://s3-media1.fl.yelpcdn.com/bphoto/UroBNTNJn37No37dTCVuhA/o.jpg", "is_closed": false, "url": "https://www.yelp.com/biz/surf-brothers-teriyaki-encinitas?adjust_creative=oncXGL2aPIKrtJdnWeFSnA&utm_campaign=yelp_api_v3&utm_medium=api_v3_business_search&utm_source=oncXGL2aPIKrtJdnWeFSnA", "review_count": 133, "categories": [{"alias": "hawaiian", "title": "Hawaiian"}, {"alias": "hotdogs", "title": "Fast Food"}], "rating": 3.5, "coordinates": {"latitude": 33.052474, "longitude": -117.262128}, "transactions": [], "price": "$", "location": {"address1": "274 N El Camino Real", "address2": "", "address3": "", "city": "Encinitas", "zip_code": "92024", "country": "US", "state": "CA", "display_address": ["274 N El Camino Real", "Encinitas, CA 92024"]}, "phone": "+17604597973", "display_phone": "(760) 459-7973", "distance": 1113.079716285129}, {"id": "Ako_u4uXUOIqQlg5x72N4Q", "alias": "raising-canes-vista-2", "name": "Raising Cane's", "image_url": "https://s3-media3.fl.yelpcdn.com/bphoto/-VXHkbxATRFYMWuK2Ev6ag/o.jpg", "is_closed": false, "url": "https://www.yelp.com/biz/raising-canes-vista-2?adjust_creative=oncXGL2aPIKrtJdnWeFSnA&utm_campaign=yelp_api_v3&utm_medium=api_v3_business_search&utm_source=oncXGL2aPIKrtJdnWeFSnA", "review_count": 154, "categories": [{"alias": "hotdogs", "title": "Fast Food"}], "rating": 3.5, "coordinates": {"latitude": 33.198175, "longitude": -117.247727}, "transactions": [], "price": "$$", "location": {"address1": "303 Vista Village Dr", "address2": "", "address3": null, "city": "Vista", "zip_code": "92083", "country": "US", "state": "CA", "display_address": ["303 Vista Village Dr", "Vista, CA 92083"]}, "phone": "+17606396086", "display_phone": "(760) 639-6086", "distance": 17055.604102173376}, {"id": "1bmpgZJcs3--ofLFHa7AUA", "alias": "rauls-shack-encinitas", "name": "Raul's Shack", "image_url": "https://s3-media3.fl.yelpcdn.com/bphoto/7dhIxS31104DTt3QGYIWeQ/o.jpg", "is_closed": false, "url": "https://www.yelp.com/biz/rauls-shack-encinitas?adjust_creative=oncXGL2aPIKrtJdnWeFSnA&utm_campaign=yelp_api_v3&utm_medium=api_v3_business_search&utm_source=oncXGL2aPIKrtJdnWeFSnA", "review_count": 171, "categories": [{"alias": "hotdogs", "title": "Fast Food"}, {"alias": "mexican", "title": "Mexican"}], "rating": 4.0, "coordinates": {"latitude": 33.04619, "longitude": -117.294039}, "transactions": [], "price": "$", "location": {"address1": "490 S Coast Hwy 101", "address2": "", "address3": "", "city": "Encinitas", "zip_code": "92024", "country": "US", "state": "CA", "display_address": ["490 S Coast Hwy 101", "Encinitas, CA 92024"]}, "phone": "+17604368589", "display_phone": "(760) 436-8589", "distance": 3716.591051400175}, {"id": "JW2WD8O8hRf98BahFtXUYA", "alias": "jersey-mikes-subs-encinitas-3", "name": "Jersey Mike's Subs", "image_url": "https://s3-media2.fl.yelpcdn.com/bphoto/EEucukFSA0-WklLjwFaQ5Q/o.jpg", "is_closed": false, "url": "https://www.yelp.com/biz/jersey-mikes-subs-encinitas-3?adjust_creative=oncXGL2aPIKrtJdnWeFSnA&utm_campaign=yelp_api_v3&utm_medium=api_v3_business_search&utm_source=oncXGL2aPIKrtJdnWeFSnA", "review_count": 18, "categories": [{"alias": "hotdogs", "title": "Fast Food"}, {"alias": "delis", "title": "Delis"}, {"alias": "sandwiches", "title": "Sandwiches"}], "rating": 3.5, "coordinates": {"latitude": 33.0487655, "longitude": -117.2897189}, "transactions": [], "price": "$", "location": {"address1": "138 Encinitas Blvd", "address2": null, "address3": null, "city": "Encinitas", "zip_code": "92024", "country": "US", "state": "CA", "display_address": ["138 Encinitas Blvd", "Encinitas, CA 92024"]}, "phone": "+17602742222", "display_phone": "(760) 274-2222", "distance": 3282.859770165998}, {"id": "hU3fuUNW_aqOOjG-xHXX9g", "alias": "chipotle-mexican-grill-encinitas", "name": "Chipotle Mexican Grill", "image_url": "https://s3-media1.fl.yelpcdn.com/bphoto/HcTyKCBUKZuW1MuQxOzIog/o.jpg", "is_closed": false, "url": "https://www.yelp.com/biz/chipotle-mexican-grill-encinitas?adjust_creative=oncXGL2aPIKrtJdnWeFSnA&utm_campaign=yelp_api_v3&utm_medium=api_v3_business_search&utm_source=oncXGL2aPIKrtJdnWeFSnA", "review_count": 124, "categories": [{"alias": "mexican", "title": "Mexican"}, {"alias": "hotdogs", "title": "Fast Food"}], "rating": 3.5, "coordinates": {"latitude": 33.052259407957, "longitude": -117.261572691785}, "transactions": [], "price": "$", "location": {"address1": "268 N El Camino Real", "address2": "", "address3": "", "city": "Encinitas", "zip_code": "92024", "country": "US", "state": "CA", "display_address": ["268 N El Camino Real", "Encinitas, CA 92024"]}, "phone": "+17606353863", "display_phone": "(760) 635-3863", "distance": 1061.4844591626256}, {"id": "udhkGC-o7midaFIvEwkbUw", "alias": "lourdes-mexican-food-san-marcos", "name": "Lourdes Mexican Food", "image_url": "", "is_closed": false, "url": "https://www.yelp.com/biz/lourdes-mexican-food-san-marcos?adjust_creative=oncXGL2aPIKrtJdnWeFSnA&utm_campaign=yelp_api_v3&utm_medium=api_v3_business_search&utm_source=oncXGL2aPIKrtJdnWeFSnA", "review_count": 1, "categories": [{"alias": "mexican", "title": "Mexican"}, {"alias": "hotdogs", "title": "Fast Food"}], "rating": 5.0, "coordinates": {"latitude": 33.0945172, "longitude": -117.2069865}, "transactions": [], "location": {"address1": "1646 San Elijo Rd", "address2": null, "address3": "", "city": "San Marcos", "zip_code": "92078", "country": "US", "state": "CA", "display_address": ["1646 San Elijo Rd", "San Marcos, CA 92078"]}, "phone": "+17602903684", "display_phone": "(760) 290-3684", "distance": 7643.481353210299}, {"id": "nRKvaT9vmo_XwTRw6QK16Q", "alias": "surf-brothers-teriyaki-carlsbad", "name": "Surf Brothers Teriyaki", "image_url": "https://s3-media4.fl.yelpcdn.com/bphoto/Qw6in2aB9moeBBHhMa4LYQ/o.jpg", "is_closed": false, "url": "https://www.yelp.com/biz/surf-brothers-teriyaki-carlsbad?adjust_creative=oncXGL2aPIKrtJdnWeFSnA&utm_campaign=yelp_api_v3&utm_medium=api_v3_business_search&utm_source=oncXGL2aPIKrtJdnWeFSnA", "review_count": 251, "categories": [{"alias": "hawaiian", "title": "Hawaiian"}, {"alias": "bbq", "title": "Barbeque"}, {"alias": "hotdogs", "title": "Fast Food"}], "rating": 4.0, "coordinates": {"latitude": 33.13106, "longitude": -117.260566}, "transactions": [], "price": "$", "location": {"address1": "2708 Loker Ave W", "address2": "Ste 103", "address3": "", "city": "Carlsbad", "zip_code": "92010", "country": "US", "state": "CA", "display_address": ["2708 Loker Ave W", "Ste 103", "Carlsbad, CA 92010"]}, "phone": "+17604597973", "display_phone": "(760) 459-7973", "distance": 9599.241288906673}, {"id": "ryc-rX3z2HumtHS9bpghMg", "alias": "mcdonalds-encinitas-3", "name": "McDonald's", "image_url": "https://s3-media2.fl.yelpcdn.com/bphoto/6jdSE2tv_gk8s6yFCDeGaA/o.jpg", "is_closed": false, "url": "https://www.yelp.com/biz/mcdonalds-encinitas-3?adjust_creative=oncXGL2aPIKrtJdnWeFSnA&utm_campaign=yelp_api_v3&utm_medium=api_v3_business_search&utm_source=oncXGL2aPIKrtJdnWeFSnA", "review_count": 43, "categories": [{"alias": "hotdogs", "title": "Fast Food"}, {"alias": "burgers", "title": "Burgers"}, {"alias": "coffee", "title": "Coffee & Tea"}], "rating": 2.5, "coordinates": {"latitude": 33.0455865063816, "longitude": -117.261494994164}, "transactions": [], "price": "$", "location": {"address1": "1271 Encinitas Blvd", "address2": "", "address3": "", "city": "Encinitas", "zip_code": "92024", "country": "US", "state": "CA", "display_address": ["1271 Encinitas Blvd", "Encinitas, CA 92024"]}, "phone": "+17607531503", "display_phone": "(760) 753-1503", "distance": 671.9875417391228}, {"id": "kj9g39Mz_q21831-2ya3SQ", "alias": "panda-express-encinitas-2", "name": "Panda Express", "image_url": "https://s3-media2.fl.yelpcdn.com/bphoto/x1VL9oYFM8mqsj6BHNHpGg/o.jpg", "is_closed": false, "url": "https://www.yelp.com/biz/panda-express-encinitas-2?adjust_creative=oncXGL2aPIKrtJdnWeFSnA&utm_campaign=yelp_api_v3&utm_medium=api_v3_business_search&utm_source=oncXGL2aPIKrtJdnWeFSnA", "review_count": 59, "categories": [{"alias": "chinese", "title": "Chinese"}, {"alias": "hotdogs", "title": "Fast Food"}], "rating": 3.0, "coordinates": {"latitude": 33.0651394414774, "longitude": -117.264642938826}, "transactions": [], "price": "$", "location": {"address1": "1084 N El Camino Real", "address2": "", "address3": "", "city": "Encinitas", "zip_code": "92024", "country": "US", "state": "CA", "display_address": ["1084 N El Camino Real", "Encinitas, CA 92024"]}, "phone": "+17609438888", "display_phone": "(760) 943-8888", "distance": 2448.0713415767145}, {"id": "639xnlt3WMRMF4l-eyTeSg", "alias": "jersey-mikes-subs-encinitas-2", "name": "Jersey Mike's Subs", "image_url": "https://s3-media3.fl.yelpcdn.com/bphoto/YROl5a3knt3bzr7wo_1I-A/o.jpg", "is_closed": false, "url": "https://www.yelp.com/biz/jersey-mikes-subs-encinitas-2?adjust_creative=oncXGL2aPIKrtJdnWeFSnA&utm_campaign=yelp_api_v3&utm_medium=api_v3_business_search&utm_source=oncXGL2aPIKrtJdnWeFSnA", "review_count": 89, "categories": [{"alias": "sandwiches", "title": "Sandwiches"}, {"alias": "hotdogs", "title": "Fast Food"}, {"alias": "delis", "title": "Delis"}], "rating": 3.5, "coordinates": {"latitude": 33.066994, "longitude": -117.26326}, "transactions": [], "price": "$", "location": {"address1": "1070 N El Camino Real", "address2": "", "address3": "", "city": "Encinitas", "zip_code": "92024", "country": "US", "state": "CA", "display_address": ["1070 N El Camino Real", "Encinitas, CA 92024"]}, "phone": "+17606346800", "display_phone": "(760) 634-6800", "distance": 2594.832951608864}, {"id": "j8vPTZfjUwBZIKHgyFXP9A", "alias": "in-n-out-burger-carlsbad", "name": "In-N-Out Burger", "image_url": "https://s3-media2.fl.yelpcdn.com/bphoto/EGpILzQjNRdYBPbvLeKing/o.jpg", "is_closed": false, "url": "https://www.yelp.com/biz/in-n-out-burger-carlsbad?adjust_creative=oncXGL2aPIKrtJdnWeFSnA&utm_campaign=yelp_api_v3&utm_medium=api_v3_business_search&utm_source=oncXGL2aPIKrtJdnWeFSnA", "review_count": 377, "categories": [{"alias": "hotdogs", "title": "Fast Food"}, {"alias": "burgers", "title": "Burgers"}], "rating": 4.5, "coordinates": {"latitude": 33.12501, "longitude": -117.32458}, "transactions": [], "price": "$", "location": {"address1": "5950 Avenida Encinas", "address2": "", "address3": "", "city": "Carlsbad", "zip_code": "92008", "country": "US", "state": "CA", "display_address": ["5950 Avenida Encinas", "Carlsbad, CA 92008"]}, "phone": "+18007861000", "display_phone": "(800) 786-1000", "distance": 11066.081521629343}, {"id": "o9AySqcX01ukFrhkJVEMuA", "alias": "five-guys-encinitas", "name": "Five Guys", "image_url": "https://s3-media1.fl.yelpcdn.com/bphoto/xA-6iSluCgTetM7V33ScPQ/o.jpg", "is_closed": false, "url": "https://www.yelp.com/biz/five-guys-encinitas?adjust_creative=oncXGL2aPIKrtJdnWeFSnA&utm_campaign=yelp_api_v3&utm_medium=api_v3_business_search&utm_source=oncXGL2aPIKrtJdnWeFSnA", "review_count": 135, "categories": [{"alias": "burgers", "title": "Burgers"}, {"alias": "hotdogs", "title": "Fast Food"}], "rating": 3.5, "coordinates": {"latitude": 33.047625880009, "longitude": -117.26036664708}, "transactions": [], "price": "$", "location": {"address1": "130 N El Camino Real", "address2": "Ste C", "address3": "", "city": "Encinitas", "zip_code": "92024", "country": "US", "state": "CA", "display_address": ["130 N El Camino Real", "Ste C", "Encinitas, CA 92024"]}, "phone": "+17604360857", "display_phone": "(760) 436-0857", "distance": 639.3501207098468}, {"id": "eTiQGScV5TbUfFeH4etwMQ", "alias": "blaze-fast-fired-pizza-carlsbad", "name": "Blaze Fast-Fire'd Pizza", "image_url": "https://s3-media4.fl.yelpcdn.com/bphoto/RdiWPOGfcK5C4bmnuL0MvA/o.jpg", "is_closed": false, "url": "https://www.yelp.com/biz/blaze-fast-fired-pizza-carlsbad?adjust_creative=oncXGL2aPIKrtJdnWeFSnA&utm_campaign=yelp_api_v3&utm_medium=api_v3_business_search&utm_source=oncXGL2aPIKrtJdnWeFSnA", "review_count": 686, "categories": [{"alias": "pizza", "title": "Pizza"}, {"alias": "salad", "title": "Salad"}, {"alias": "hotdogs", "title": "Fast Food"}], "rating": 4.5, "coordinates": {"latitude": 33.1250977336068, "longitude": -117.320182059245}, "transactions": [], "price": "$", "location": {"address1": "5620 Paseo Del Norte", "address2": "", "address3": "", "city": "Carlsbad", "zip_code": "92008", "country": "US", "state": "CA", "display_address": ["5620 Paseo Del Norte", "Carlsbad, CA 92008"]}, "phone": "+17608945029", "display_phone": "(760) 894-5029", "distance": 10824.938166583852}, {"id": "spyQJFBalfm2RenrsJw1Fw", "alias": "carls-jr-encinitas", "name": "Carl's Jr", "image_url": "https://s3-media4.fl.yelpcdn.com/bphoto/EmCa6wI3NFh2e5sOvBJZqA/o.jpg", "is_closed": false, "url": "https://www.yelp.com/biz/carls-jr-encinitas?adjust_creative=oncXGL2aPIKrtJdnWeFSnA&utm_campaign=yelp_api_v3&utm_medium=api_v3_business_search&utm_source=oncXGL2aPIKrtJdnWeFSnA", "review_count": 42, "categories": [{"alias": "burgers", "title": "Burgers"}, {"alias": "hotdogs", "title": "Fast Food"}], "rating": 2.0, "coordinates": {"latitude": 33.0373306274414, "longitude": -117.280860900879}, "transactions": [], "price": "$", "location": {"address1": "1137 Regal Rd", "address2": "", "address3": "", "city": "Encinitas", "zip_code": "92024", "country": "US", "state": "CA", "display_address": ["1137 Regal Rd", "Encinitas, CA 92024"]}, "phone": "+17604368660", "display_phone": "(760) 436-8660", "distance": 2612.28106995999}, {"id": "G4tCExEOux5t1zfyDLjxcA", "alias": "pure-burger-carlsbad", "name": "Pure Burger", "image_url": "https://s3-media4.fl.yelpcdn.com/bphoto/v0Ht-pC-UFPzuYA-Pi4z5Q/o.jpg", "is_closed": false, "url": "https://www.yelp.com/biz/pure-burger-carlsbad?adjust_creative=oncXGL2aPIKrtJdnWeFSnA&utm_campaign=yelp_api_v3&utm_medium=api_v3_business_search&utm_source=oncXGL2aPIKrtJdnWeFSnA", "review_count": 767, "categories": [{"alias": "burgers", "title": "Burgers"}, {"alias": "hotdogs", "title": "Fast Food"}, {"alias": "newamerican", "title": "American (New)"}], "rating": 4.0, "coordinates": {"latitude": 33.1268903, "longitude": -117.2541476}, "transactions": ["delivery", "pickup"], "price": "$$", "location": {"address1": "2641 Gateway Rd", "address2": null, "address3": "", "city": "Carlsbad", "zip_code": "92009", "country": "US", "state": "CA", "display_address": ["2641 Gateway Rd", "Carlsbad, CA 92009"]}, "phone": "+17606835101", "display_phone": "(760) 683-5101", "distance": 9118.031955874485}, {"id": "Dv9aFbavvTXseYuXs2hOFQ", "alias": "taco-bell-encinitas", "name": "Taco Bell", "image_url": "https://s3-media4.fl.yelpcdn.com/bphoto/DpdSav2t5lE2qMlxe8Tt3A/o.jpg", "is_closed": false, "url": "https://www.yelp.com/biz/taco-bell-encinitas?adjust_creative=oncXGL2aPIKrtJdnWeFSnA&utm_campaign=yelp_api_v3&utm_medium=api_v3_business_search&utm_source=oncXGL2aPIKrtJdnWeFSnA", "review_count": 51, "categories": [{"alias": "hotdogs", "title": "Fast Food"}, {"alias": "mexican", "title": "Mexican"}, {"alias": "tex-mex", "title": "Tex-Mex"}], "rating": 2.0, "coordinates": {"latitude": 33.046120044418, "longitude": -117.25648519217}, "transactions": ["delivery"], "price": "$", "location": {"address1": "1502 Encinitas Blvd", "address2": "", "address3": "", "city": "Encinitas", "zip_code": "92024", "country": "US", "state": "CA", "display_address": ["1502 Encinitas Blvd", "Encinitas, CA 92024"]}, "phone": "+17604368033", "display_phone": "(760) 436-8033", "distance": 242.75850008861119}, {"id": "254I8RezKN4fgS3sXd_DBg", "alias": "robertos-mexican-food-leucadia-encinitas-2", "name": "Roberto's Mexican Food - Leucadia", "image_url": "https://s3-media3.fl.yelpcdn.com/bphoto/Zdq8xDKWTEuPP1jliVgLrg/o.jpg", "is_closed": false, "url": "https://www.yelp.com/biz/robertos-mexican-food-leucadia-encinitas-2?adjust_creative=oncXGL2aPIKrtJdnWeFSnA&utm_campaign=yelp_api_v3&utm_medium=api_v3_business_search&utm_source=oncXGL2aPIKrtJdnWeFSnA", "review_count": 150, "categories": [{"alias": "mexican", "title": "Mexican"}, {"alias": "hotdogs", "title": "Fast Food"}], "rating": 3.5, "coordinates": {"latitude": 33.08062, "longitude": -117.30811}, "transactions": [], "price": "$", "location": {"address1": "1900 N Coast Hwy 101", "address2": "", "address3": "", "city": "Encinitas", "zip_code": "92024", "country": "US", "state": "CA", "display_address": ["1900 N Coast Hwy 101", "Encinitas, CA 92024"]}, "phone": "+17602301593", "display_phone": "(760) 230-1593", "distance": 6377.401320105865}, {"id": "ttoAoTbH3NP-KA7JBjXL5w", "alias": "firehouse-subs-encinitas", "name": "Firehouse Subs", "image_url": "https://s3-media3.fl.yelpcdn.com/bphoto/V7XBCH-Kp1vsqnitRbOdAw/o.jpg", "is_closed": false, "url": "https://www.yelp.com/biz/firehouse-subs-encinitas?adjust_creative=oncXGL2aPIKrtJdnWeFSnA&utm_campaign=yelp_api_v3&utm_medium=api_v3_business_search&utm_source=oncXGL2aPIKrtJdnWeFSnA", "review_count": 108, "categories": [{"alias": "hotdogs", "title": "Fast Food"}, {"alias": "delis", "title": "Delis"}, {"alias": "sandwiches", "title": "Sandwiches"}], "rating": 3.5, "coordinates": {"latitude": 33.0475846760947, "longitude": -117.260470590407}, "transactions": ["delivery", "pickup"], "price": "$", "location": {"address1": "132 North El Camino Real", "address2": "", "address3": "", "city": "Encinitas", "zip_code": "92024", "country": "US", "state": "CA", "display_address": ["132 North El Camino Real", "Encinitas, CA 92024"]}, "phone": "+17604790925", "display_phone": "(760) 479-0925", "distance": 645.7490796388925}, {"id": "Uz99f636lm-2J_CZ87XiFA", "alias": "el-pollo-loco-encinitas-2", "name": "El Pollo Loco", "image_url": "https://s3-media4.fl.yelpcdn.com/bphoto/XPzEZNYtTnyXNxR1gry-zQ/o.jpg", "is_closed": false, "url": "https://www.yelp.com/biz/el-pollo-loco-encinitas-2?adjust_creative=oncXGL2aPIKrtJdnWeFSnA&utm_campaign=yelp_api_v3&utm_medium=api_v3_business_search&utm_source=oncXGL2aPIKrtJdnWeFSnA", "review_count": 72, "categories": [{"alias": "mexican", "title": "Mexican"}, {"alias": "hotdogs", "title": "Fast Food"}], "rating": 3.0, "coordinates": {"latitude": 33.064582824707, "longitude": -117.263412475586}, "transactions": ["delivery", "pickup"], "price": "$", "location": {"address1": "1002 N El Camino Real", "address2": "", "address3": "", "city": "Encinitas", "zip_code": "92024", "country": "US", "state": "CA", "display_address": ["1002 N El Camino Real", "Encinitas, CA 92024"]}, "phone": "+17609431253", "display_phone": "(760) 943-1253", "distance": 2367.713172916769}, {"id": "KNzcCh1NBDWFaU9SwKQhKw", "alias": "sourdough-and-co-carlsbad-2", "name": "Sourdough & Co", "image_url": "https://s3-media2.fl.yelpcdn.com/bphoto/IYAo_TE38oqSGCSS06Lasg/o.jpg", "is_closed": false, "url": "https://www.yelp.com/biz/sourdough-and-co-carlsbad-2?adjust_creative=oncXGL2aPIKrtJdnWeFSnA&utm_campaign=yelp_api_v3&utm_medium=api_v3_business_search&utm_source=oncXGL2aPIKrtJdnWeFSnA", "review_count": 51, "categories": [{"alias": "hotdogs", "title": "Fast Food"}, {"alias": "sandwiches", "title": "Sandwiches"}, {"alias": "salad", "title": "Salad"}], "rating": 5.0, "coordinates": {"latitude": 33.1355195, "longitude": -117.2877662}, "transactions": [], "location": {"address1": "5814 Van Allen Way", "address2": "Ste 155", "address3": "", "city": "Carlsbad", "zip_code": "92008", "country": "US", "state": "CA", "display_address": ["5814 Van Allen Way", "Ste 155", "Carlsbad, CA 92008"]}, "phone": "+17608142488", "display_phone": "(760) 814-2488", "distance": 10450.775746453437}, {"id": "dRrbR6xMHcZj3Xreul8Ycw", "alias": "mcdonalds-encinitas", "name": "McDonald's", "image_url": "https://s3-media2.fl.yelpcdn.com/bphoto/dVG3vzL6B4LdsVTG9_P9Gw/o.jpg", "is_closed": false, "url": "https://www.yelp.com/biz/mcdonalds-encinitas?adjust_creative=oncXGL2aPIKrtJdnWeFSnA&utm_campaign=yelp_api_v3&utm_medium=api_v3_business_search&utm_source=oncXGL2aPIKrtJdnWeFSnA", "review_count": 72, "categories": [{"alias": "burgers", "title": "Burgers"}, {"alias": "hotdogs", "title": "Fast Food"}, {"alias": "coffee", "title": "Coffee & Tea"}], "rating": 2.0, "coordinates": {"latitude": 33.06722, "longitude": -117.2639459}, "transactions": [], "price": "$", "location": {"address1": "1064 N El Camino Real", "address2": "", "address3": "", "city": "Encinitas", "zip_code": "92024", "country": "US", "state": "CA", "display_address": ["1064 N El Camino Real", "Encinitas, CA 92024"]}, "phone": "+17609439498", "display_phone": "(760) 943-9498", "distance": 2639.6523282276944}, {"id": "Kc01yD005y0qYKTbwKuLYg", "alias": "the-money-pit-drive-thru-san-marcos", "name": "The Money Pit Drive Thru", "image_url": "https://s3-media1.fl.yelpcdn.com/bphoto/VGfb8hXrzFkscOcJZkDZEA/o.jpg", "is_closed": false, "url": "https://www.yelp.com/biz/the-money-pit-drive-thru-san-marcos?adjust_creative=oncXGL2aPIKrtJdnWeFSnA&utm_campaign=yelp_api_v3&utm_medium=api_v3_business_search&utm_source=oncXGL2aPIKrtJdnWeFSnA", "review_count": 625, "categories": [{"alias": "hotdogs", "title": "Fast Food"}, {"alias": "tradamerican", "title": "American (Traditional)"}, {"alias": "breakfast_brunch", "title": "Breakfast & Brunch"}], "rating": 4.0, "coordinates": {"latitude": 33.13599, "longitude": -117.12939}, "transactions": [], "price": "$", "location": {"address1": "1360 E Mission Rd", "address2": "", "address3": "", "city": "San Marcos", "zip_code": "92069", "country": "US", "state": "CA", "display_address": ["1360 E Mission Rd", "San Marcos, CA 92069"]}, "phone": "+17607437775", "display_phone": "(760) 743-7775", "distance": 15421.390254039941}, {"id": "IoRpFKnJsuUrengoF_dgrA", "alias": "chick-fil-a-oceanside", "name": "Chick-fil-A", "image_url": "https://s3-media4.fl.yelpcdn.com/bphoto/qT6GVkHvWC9GdkzjjLTh4A/o.jpg", "is_closed": false, "url": "https://www.yelp.com/biz/chick-fil-a-oceanside?adjust_creative=oncXGL2aPIKrtJdnWeFSnA&utm_campaign=yelp_api_v3&utm_medium=api_v3_business_search&utm_source=oncXGL2aPIKrtJdnWeFSnA", "review_count": 234, "categories": [{"alias": "hotdogs", "title": "Fast Food"}], "rating": 4.0, "coordinates": {"latitude": 33.1779819396667, "longitude": -117.29483058614}, "transactions": ["delivery", "pickup"], "price": "$", "location": {"address1": "3475 Marron Rd", "address2": null, "address3": "", "city": "Oceanside", "zip_code": "92056", "country": "US", "state": "CA", "display_address": ["3475 Marron Rd", "Oceanside, CA 92056"]}, "phone": "+17605763128", "display_phone": "(760) 576-3128", "distance": 15272.233090815647}, {"id": "FODZ9052FDu-eh6mbUt8-A", "alias": "burger-king-encinitas", "name": "Burger King", "image_url": "https://s3-media1.fl.yelpcdn.com/bphoto/xvRmKpjIZARCUR-fgoZ20Q/o.jpg", "is_closed": false, "url": "https://www.yelp.com/biz/burger-king-encinitas?adjust_creative=oncXGL2aPIKrtJdnWeFSnA&utm_campaign=yelp_api_v3&utm_medium=api_v3_business_search&utm_source=oncXGL2aPIKrtJdnWeFSnA", "review_count": 34, "categories": [{"alias": "hotdogs", "title": "Fast Food"}, {"alias": "burgers", "title": "Burgers"}], "rating": 3.0, "coordinates": {"latitude": 33.0512877, "longitude": -117.2609473}, "transactions": [], "price": "$", "location": {"address1": "242 N El Camino Real", "address2": "", "address3": "", "city": "Encinitas", "zip_code": "92024", "country": "US", "state": "CA", "display_address": ["242 N El Camino Real", "Encinitas, CA 92024"]}, "phone": "+17609422103", "display_phone": "(760) 942-2103", "distance": 771.4109965861223}, {"id": "FaOQxYRuVGR_e8G5zGlbWA", "alias": "jack-in-the-box-encinitas", "name": "Jack In the Box", "image_url": "https://s3-media2.fl.yelpcdn.com/bphoto/WAg_3WS9Q9eVCUzut0O3iQ/o.jpg", "is_closed": false, "url": "https://www.yelp.com/biz/jack-in-the-box-encinitas?adjust_creative=oncXGL2aPIKrtJdnWeFSnA&utm_campaign=yelp_api_v3&utm_medium=api_v3_business_search&utm_source=oncXGL2aPIKrtJdnWeFSnA", "review_count": 26, "categories": [{"alias": "burgers", "title": "Burgers"}, {"alias": "hotdogs", "title": "Fast Food"}], "rating": 3.0, "coordinates": {"latitude": 33.04553, "longitude": -117.25802}, "transactions": ["delivery"], "price": "$", "location": {"address1": "1439 Encinitas Blvd", "address2": "", "address3": "", "city": "Encinitas", "zip_code": "92024", "country": "US", "state": "CA", "display_address": ["1439 Encinitas Blvd", "Encinitas, CA 92024"]}, "phone": "+17609431134", "display_phone": "(760) 943-1134", "distance": 350.1063529954638}, {"id": "JUF1NuIshtihwYKf_PvVqA", "alias": "naan-n-curry-carlsbad", "name": "Naan N Curry", "image_url": "https://s3-media3.fl.yelpcdn.com/bphoto/6bgU7WKFUFxNbJ3A71R17g/o.jpg", "is_closed": false, "url": "https://www.yelp.com/biz/naan-n-curry-carlsbad?adjust_creative=oncXGL2aPIKrtJdnWeFSnA&utm_campaign=yelp_api_v3&utm_medium=api_v3_business_search&utm_source=oncXGL2aPIKrtJdnWeFSnA", "review_count": 154, "categories": [{"alias": "indpak", "title": "Indian"}, {"alias": "hotdogs", "title": "Fast Food"}], "rating": 4.0, "coordinates": {"latitude": 33.13105, "longitude": -117.26056}, "transactions": ["delivery", "pickup"], "price": "$$", "location": {"address1": "2708 Loker Ave W", "address2": "Ste 104", "address3": "", "city": "Carlsbad", "zip_code": "92010", "country": "US", "state": "CA", "display_address": ["2708 Loker Ave W", "Ste 104", "Carlsbad, CA 92010"]}, "phone": "+17608142996", "display_phone": "(760) 814-2996", "distance": 9613.786634878466}, {"id": "Olss58qmOcJS4It9rx6CXQ", "alias": "jersey-mikes-subs-solana-beach-2", "name": "Jersey Mike's Subs", "image_url": "https://s3-media1.fl.yelpcdn.com/bphoto/ny2I6MaZGt8vqIdYaL_tGg/o.jpg", "is_closed": false, "url": "https://www.yelp.com/biz/jersey-mikes-subs-solana-beach-2?adjust_creative=oncXGL2aPIKrtJdnWeFSnA&utm_campaign=yelp_api_v3&utm_medium=api_v3_business_search&utm_source=oncXGL2aPIKrtJdnWeFSnA", "review_count": 163, "categories": [{"alias": "sandwiches", "title": "Sandwiches"}, {"alias": "hotdogs", "title": "Fast Food"}, {"alias": "delis", "title": "Delis"}], "rating": 4.0, "coordinates": {"latitude": 32.9955485, "longitude": -117.2544327}, "transactions": [], "price": "$", "location": {"address1": "915 Lomas Santa Fe Dr", "address2": "", "address3": "", "city": "Solana Beach", "zip_code": "92075", "country": "US", "state": "CA", "display_address": ["915 Lomas Santa Fe Dr", "Solana Beach, CA 92075"]}, "phone": "+18582599111", "display_phone": "(858) 259-9111", "distance": 5641.285822214092}, {"id": "f4mbT-nxg2AJhqxB6XgnlA", "alias": "in-n-out-burger-san-marcos", "name": "In-N-Out Burger", "image_url": "https://s3-media2.fl.yelpcdn.com/bphoto/dO-aaNn_Ve4YOVxBkiBd0A/o.jpg", "is_closed": false, "url": "https://www.yelp.com/biz/in-n-out-burger-san-marcos?adjust_creative=oncXGL2aPIKrtJdnWeFSnA&utm_campaign=yelp_api_v3&utm_medium=api_v3_business_search&utm_source=oncXGL2aPIKrtJdnWeFSnA", "review_count": 187, "categories": [{"alias": "hotdogs", "title": "Fast Food"}, {"alias": "burgers", "title": "Burgers"}], "rating": 4.5, "coordinates": {"latitude": 33.1371653633395, "longitude": -117.177164218246}, "transactions": [], "price": "$", "location": {"address1": "583 Grand Ave", "address2": "", "address3": "", "city": "San Marcos", "zip_code": "92078", "country": "US", "state": "CA", "display_address": ["583 Grand Ave", "San Marcos, CA 92078"]}, "phone": "+18007861000", "display_phone": "(800) 786-1000", "distance": 12528.418643428617}, {"id": "jocNHTiVbi1-PNRVXPbY3w", "alias": "mcdonalds-del-mar", "name": "McDonald's", "image_url": "https://s3-media1.fl.yelpcdn.com/bphoto/OBozZpQ_kexZEfEzzCfPsA/o.jpg", "is_closed": false, "url": "https://www.yelp.com/biz/mcdonalds-del-mar?adjust_creative=oncXGL2aPIKrtJdnWeFSnA&utm_campaign=yelp_api_v3&utm_medium=api_v3_business_search&utm_source=oncXGL2aPIKrtJdnWeFSnA", "review_count": 91, "categories": [{"alias": "hotdogs", "title": "Fast Food"}, {"alias": "burgers", "title": "Burgers"}, {"alias": "coffee", "title": "Coffee & Tea"}], "rating": 2.5, "coordinates": {"latitude": 32.980286, "longitude": -117.249532}, "transactions": [], "price": "$", "location": {"address1": "2705 Via De La Valle", "address2": "", "address3": "", "city": "Del Mar", "zip_code": "92014", "country": "US", "state": "CA", "display_address": ["2705 Via De La Valle", "Del Mar, CA 92014"]}, "phone": "+18584818595", "display_phone": "(858) 481-8595", "distance": 7197.558344710386}, {"id": "8b2hjebFENFjY4X71cQpwg", "alias": "leap-coffee-carlsbad-3", "name": "Leap Coffee", "image_url": "https://s3-media1.fl.yelpcdn.com/bphoto/bET-Yao-fDUxJ4HBI7gEYw/o.jpg", "is_closed": false, "url": "https://www.yelp.com/biz/leap-coffee-carlsbad-3?adjust_creative=oncXGL2aPIKrtJdnWeFSnA&utm_campaign=yelp_api_v3&utm_medium=api_v3_business_search&utm_source=oncXGL2aPIKrtJdnWeFSnA", "review_count": 189, "categories": [{"alias": "coffee", "title": "Coffee & Tea"}, {"alias": "hotdogs", "title": "Fast Food"}, {"alias": "sandwiches", "title": "Sandwiches"}], "rating": 4.5, "coordinates": {"latitude": 33.140489, "longitude": -117.273316}, "transactions": ["pickup"], "price": "$", "location": {"address1": "5611 Palmer Way", "address2": "Ste D", "address3": null, "city": "Carlsbad", "zip_code": "92010", "country": "US", "state": "CA", "display_address": ["5611 Palmer Way", "Ste D", "Carlsbad, CA 92010"]}, "phone": "+17604486167", "display_phone": "(760) 448-6167", "distance": 10776.204167279853}, {"id": "Dadjxp4g0vNUxCO3m1ApSg", "alias": "panda-express-solana-beach", "name": "Panda Express", "image_url": "https://s3-media2.fl.yelpcdn.com/bphoto/_LKdep-ptUmEtzGEXq1hVg/o.jpg", "is_closed": false, "url": "https://www.yelp.com/biz/panda-express-solana-beach?adjust_creative=oncXGL2aPIKrtJdnWeFSnA&utm_campaign=yelp_api_v3&utm_medium=api_v3_business_search&utm_source=oncXGL2aPIKrtJdnWeFSnA", "review_count": 31, "categories": [{"alias": "chinese", "title": "Chinese"}, {"alias": "hotdogs", "title": "Fast Food"}], "rating": 3.0, "coordinates": {"latitude": 32.9958852, "longitude": -117.2594862}, "transactions": [], "price": "$", "location": {"address1": "689 Lomas Santa Fe Dr", "address2": "", "address3": "", "city": "Solana Beach", "zip_code": "92075", "country": "US", "state": "CA", "display_address": ["689 Lomas Santa Fe Dr", "Solana Beach, CA 92075"]}, "phone": "+18585099066", "display_phone": "(858) 509-9066", "distance": 5598.205019681849}, {"id": "YbndgsuVYcoQviv1eIW9kw", "alias": "freddys-frozen-custard-and-steakburgers-san-marcos-5", "name": "Freddy's Frozen Custard & Steakburgers", "image_url": "https://s3-media1.fl.yelpcdn.com/bphoto/4kYenQTJDm3xW5qG4vB0bA/o.jpg", "is_closed": false, "url": "https://www.yelp.com/biz/freddys-frozen-custard-and-steakburgers-san-marcos-5?adjust_creative=oncXGL2aPIKrtJdnWeFSnA&utm_campaign=yelp_api_v3&utm_medium=api_v3_business_search&utm_source=oncXGL2aPIKrtJdnWeFSnA", "review_count": 198, "categories": [{"alias": "hotdog", "title": "Hot Dogs"}, {"alias": "hotdogs", "title": "Fast Food"}, {"alias": "burgers", "title": "Burgers"}], "rating": 3.5, "coordinates": {"latitude": 33.1349034888627, "longitude": -117.120317447047}, "transactions": [], "price": "$", "location": {"address1": "767 Center Dr", "address2": "", "address3": null, "city": "San Marcos", "zip_code": "92069", "country": "US", "state": "CA", "display_address": ["767 Center Dr", "San Marcos, CA 92069"]}, "phone": "+14422488636", "display_phone": "(442) 248-8636", "distance": 16001.770478069675}, {"id": "cA5asxv-WyB0eMhCJzOfVQ", "alias": "moonlight-beach-snack-bar-encinitas", "name": "Moonlight Beach Snack Bar", "image_url": "https://s3-media4.fl.yelpcdn.com/bphoto/TdKkzfIUhK_1BtvpfC2XFQ/o.jpg", "is_closed": false, "url": "https://www.yelp.com/biz/moonlight-beach-snack-bar-encinitas?adjust_creative=oncXGL2aPIKrtJdnWeFSnA&utm_campaign=yelp_api_v3&utm_medium=api_v3_business_search&utm_source=oncXGL2aPIKrtJdnWeFSnA", "review_count": 4, "categories": [{"alias": "hotdogs", "title": "Fast Food"}], "rating": 4.5, "coordinates": {"latitude": 33.048615, "longitude": -117.297086}, "transactions": [], "location": {"address1": "400 B St", "address2": "", "address3": "", "city": "Encinitas", "zip_code": "92024", "country": "US", "state": "CA", "display_address": ["400 B St", "Encinitas, CA 92024"]}, "phone": "", "display_phone": "", "distance": 4006.2753477663096}, {"id": "7-TVGb6Zf0TBVCWEYbXaxA", "alias": "chick-fil-a-san-marcos", "name": "Chick-fil-A", "image_url": "https://s3-media1.fl.yelpcdn.com/bphoto/ra9v1bmCIaRFnQuOZ75oZw/o.jpg", "is_closed": false, "url": "https://www.yelp.com/biz/chick-fil-a-san-marcos?adjust_creative=oncXGL2aPIKrtJdnWeFSnA&utm_campaign=yelp_api_v3&utm_medium=api_v3_business_search&utm_source=oncXGL2aPIKrtJdnWeFSnA", "review_count": 270, "categories": [{"alias": "hotdogs", "title": "Fast Food"}], "rating": 4.0, "coordinates": {"latitude": 33.136937, "longitude": -117.177772}, "transactions": [], "price": "$", "location": {"address1": "587 Grand Ave", "address2": "", "address3": "", "city": "San Marcos", "zip_code": "92078", "country": "US", "state": "CA", "display_address": ["587 Grand Ave", "San Marcos, CA 92078"]}, "phone": "+17607368105", "display_phone": "(760) 736-8105", "distance": 12475.178219898222}, {"id": "BxYTSV_ooUoK16HQ0s1QYQ", "alias": "dairy-queen-san-diego-3", "name": "Dairy Queen", "image_url": "https://s3-media1.fl.yelpcdn.com/bphoto/pDHOvGRQRJpTeU8cyuscXg/o.jpg", "is_closed": false, "url": "https://www.yelp.com/biz/dairy-queen-san-diego-3?adjust_creative=oncXGL2aPIKrtJdnWeFSnA&utm_campaign=yelp_api_v3&utm_medium=api_v3_business_search&utm_source=oncXGL2aPIKrtJdnWeFSnA", "review_count": 242, "categories": [{"alias": "icecream", "title": "Ice Cream & Frozen Yogurt"}, {"alias": "hotdogs", "title": "Fast Food"}], "rating": 4.5, "coordinates": {"latitude": 32.9800129564991, "longitude": -117.077163511226}, "transactions": [], "price": "$", "location": {"address1": "11835 Carmel Mountain Rd", "address2": "Ste 1312", "address3": "", "city": "San Diego", "zip_code": "92128", "country": "US", "state": "CA", "display_address": ["11835 Carmel Mountain Rd", "Ste 1312", "San Diego, CA 92128"]}, "phone": "+18584878372", "display_phone": "(858) 487-8372", "distance": 18026.234566208772}, {"id": "57l_b53J-KZg6VqQKO-niQ", "alias": "wendys-encinitas", "name": "Wendy's", "image_url": "https://s3-media1.fl.yelpcdn.com/bphoto/bcD0aoJOe9MSdZ1fgVxMiA/o.jpg", "is_closed": false, "url": "https://www.yelp.com/biz/wendys-encinitas?adjust_creative=oncXGL2aPIKrtJdnWeFSnA&utm_campaign=yelp_api_v3&utm_medium=api_v3_business_search&utm_source=oncXGL2aPIKrtJdnWeFSnA", "review_count": 35, "categories": [{"alias": "hotdogs", "title": "Fast Food"}, {"alias": "burgers", "title": "Burgers"}], "rating": 2.5, "coordinates": {"latitude": 33.0497398376465, "longitude": -117.289260864258}, "transactions": [], "price": "$", "location": {"address1": "102 Encinitas Blvd", "address2": "", "address3": "", "city": "Encinitas", "zip_code": "92024", "country": "US", "state": "CA", "display_address": ["102 Encinitas Blvd", "Encinitas, CA 92024"]}, "phone": "+17604364088", "display_phone": "(760) 436-4088", "distance": 3316.84148098265}, {"id": "-c-BqOOxaE5owUuvfjWMJA", "alias": "vallarta-express-san-diego", "name": "Vallarta Express", "image_url": "https://s3-media2.fl.yelpcdn.com/bphoto/Ut-zOdnJFIvczbsMSkzTFg/o.jpg", "is_closed": false, "url": "https://www.yelp.com/biz/vallarta-express-san-diego?adjust_creative=oncXGL2aPIKrtJdnWeFSnA&utm_campaign=yelp_api_v3&utm_medium=api_v3_business_search&utm_source=oncXGL2aPIKrtJdnWeFSnA", "review_count": 508, "categories": [{"alias": "mexican", "title": "Mexican"}, {"alias": "hotdogs", "title": "Fast Food"}], "rating": 3.5, "coordinates": {"latitude": 32.9167467, "longitude": -117.1242603}, "transactions": [], "price": "$", "location": {"address1": "9313 Mira Mesa Blvd", "address2": "", "address3": "", "city": "San Diego", "zip_code": "92126", "country": "US", "state": "CA", "display_address": ["9313 Mira Mesa Blvd", "San Diego, CA 92126"]}, "phone": "+18585666761", "display_phone": "(858) 566-6761", "distance": 18714.505413673876}, {"id": "NgsaJsXWr8_33p5rUOOziQ", "alias": "chick-fil-a-san-diego-8", "name": "Chick-fil-A", "image_url": "https://s3-media3.fl.yelpcdn.com/bphoto/qT5F-nNQA9ooC9ao3KpggQ/o.jpg", "is_closed": false, "url": "https://www.yelp.com/biz/chick-fil-a-san-diego-8?adjust_creative=oncXGL2aPIKrtJdnWeFSnA&utm_campaign=yelp_api_v3&utm_medium=api_v3_business_search&utm_source=oncXGL2aPIKrtJdnWeFSnA", "review_count": 54, "categories": [{"alias": "hotdogs", "title": "Fast Food"}], "rating": 3.5, "coordinates": {"latitude": 33.0213617769686, "longitude": -117.126092632694}, "transactions": [], "price": "$", "location": {"address1": "17115 Camino Del Sur", "address2": "", "address3": null, "city": "San Diego", "zip_code": "92127", "country": "US", "state": "CA", "display_address": ["17115 Camino Del Sur", "San Diego, CA 92127"]}, "phone": "+18587591865", "display_phone": "(858) 759-1865", "distance": 12237.63418445943}, {"id": "v9vXPLhEsYsKc-Ik2siaOw", "alias": "chick-fil-a-san-diego-11", "name": "Chick-fil-A", "image_url": "https://s3-media1.fl.yelpcdn.com/bphoto/i2DFRUltSvDlMT4fOkE1LQ/o.jpg", "is_closed": false, "url": "https://www.yelp.com/biz/chick-fil-a-san-diego-11?adjust_creative=oncXGL2aPIKrtJdnWeFSnA&utm_campaign=yelp_api_v3&utm_medium=api_v3_business_search&utm_source=oncXGL2aPIKrtJdnWeFSnA", "review_count": 83, "categories": [{"alias": "hotdogs", "title": "Fast Food"}], "rating": 3.0, "coordinates": {"latitude": 32.89203, "longitude": -117.20195}, "transactions": [], "price": "$", "location": {"address1": "9370 Scranton Rd", "address2": null, "address3": "", "city": "San Diego", "zip_code": "92121", "country": "US", "state": "CA", "display_address": ["9370 Scranton Rd", "San Diego, CA 92121"]}, "phone": "+18584504417", "display_phone": "(858) 450-4417", "distance": 17668.34733362676}, {"id": "8elDAQNlUqCQCRZ3xLcFYg", "alias": "jack-in-the-box-vista-8", "name": "Jack In The Box", "image_url": "https://s3-media2.fl.yelpcdn.com/bphoto/bTUaXbeedtGkqMv-rbYdyw/o.jpg", "is_closed": false, "url": "https://www.yelp.com/biz/jack-in-the-box-vista-8?adjust_creative=oncXGL2aPIKrtJdnWeFSnA&utm_campaign=yelp_api_v3&utm_medium=api_v3_business_search&utm_source=oncXGL2aPIKrtJdnWeFSnA", "review_count": 5, "categories": [{"alias": "hotdogs", "title": "Fast Food"}, {"alias": "burgers", "title": "Burgers"}], "rating": 4.0, "coordinates": {"latitude": 33.1926278976162, "longitude": -117.230764086699}, "transactions": [], "location": {"address1": "1004 S Santa Fe Ave", "address2": "", "address3": null, "city": "Vista", "zip_code": "92084", "country": "US", "state": "CA", "display_address": ["1004 S Santa Fe Ave", "Vista, CA 92084"]}, "phone": "+17607583082", "display_phone": "(760) 758-3082", "distance": 16573.691979742234}, {"id": "Ksjbky6X6v1Ieef-3lsncA", "alias": "jersey-mikes-subs-carlsbad-5", "name": "Jersey Mike's Subs", "image_url": "https://s3-media4.fl.yelpcdn.com/bphoto/uEbFYv5xl2bETmgePU1a9g/o.jpg", "is_closed": false, "url": "https://www.yelp.com/biz/jersey-mikes-subs-carlsbad-5?adjust_creative=oncXGL2aPIKrtJdnWeFSnA&utm_campaign=yelp_api_v3&utm_medium=api_v3_business_search&utm_source=oncXGL2aPIKrtJdnWeFSnA", "review_count": 14, "categories": [{"alias": "hotdogs", "title": "Fast Food"}, {"alias": "delis", "title": "Delis"}, {"alias": "sandwiches", "title": "Sandwiches"}], "rating": 3.0, "coordinates": {"latitude": 33.0822313863486, "longitude": -117.233294383222}, "transactions": [], "location": {"address1": "7625 Via Campanile", "address2": "Ste 122", "address3": null, "city": "Carlsbad", "zip_code": "92009", "country": "US", "state": "CA", "display_address": ["7625 Via Campanile", "Ste 122", "Carlsbad, CA 92009"]}, "phone": "+17606525295", "display_phone": "(760) 652-5295", "distance": 4681.670189059951}, {"id": "d-fJaL4vVFU3MR5ymbJM_w", "alias": "red-sambusas-and-catering-la-jolla", "name": "RED Sambusas & Catering", "image_url": "https://s3-media3.fl.yelpcdn.com/bphoto/U5QEsdMX3tqo4lCTUV0LeA/o.jpg", "is_closed": false, "url": "https://www.yelp.com/biz/red-sambusas-and-catering-la-jolla?adjust_creative=oncXGL2aPIKrtJdnWeFSnA&utm_campaign=yelp_api_v3&utm_medium=api_v3_business_search&utm_source=oncXGL2aPIKrtJdnWeFSnA", "review_count": 123, "categories": [{"alias": "catering", "title": "Caterers"}, {"alias": "hotdogs", "title": "Fast Food"}], "rating": 5.0, "coordinates": {"latitude": 32.8791907225207, "longitude": -117.236502170563}, "transactions": [], "price": "$", "location": {"address1": "9500 Gilman Dr", "address2": "", "address3": "University Of California San Diego", "city": "La Jolla", "zip_code": "92037", "country": "US", "state": "CA", "display_address": ["9500 Gilman Dr", "University Of California San Diego", "La Jolla, CA 92037"]}, "phone": "+16192457946", "display_phone": "(619) 245-7946", "distance": 18499.840778044963}, {"id": "za8QZyF8x5ixuJOoOB_qXw", "alias": "chipotle-mexican-grill-carlsbad-2", "name": "Chipotle Mexican Grill", "image_url": "https://s3-media3.fl.yelpcdn.com/bphoto/_5bo-pfcs_WLwR7-m11P-g/o.jpg", "is_closed": false, "url": "https://www.yelp.com/biz/chipotle-mexican-grill-carlsbad-2?adjust_creative=oncXGL2aPIKrtJdnWeFSnA&utm_campaign=yelp_api_v3&utm_medium=api_v3_business_search&utm_source=oncXGL2aPIKrtJdnWeFSnA", "review_count": 57, "categories": [{"alias": "mexican", "title": "Mexican"}, {"alias": "hotdogs", "title": "Fast Food"}], "rating": 3.0, "coordinates": {"latitude": 33.082, "longitude": -117.23582}, "transactions": [], "price": "$", "location": {"address1": "3416 Via Mercato", "address2": "", "address3": "", "city": "Carlsbad", "zip_code": "92009", "country": "US", "state": "CA", "display_address": ["3416 Via Mercato", "Carlsbad, CA 92009"]}, "phone": "+17604000056", "display_phone": "(760) 400-0056", "distance": 4448.521598612083}, {"id": "qO5jdXbQEjpMfRTs5YV3FA", "alias": "chipotle-mexican-grill-del-mar", "name": "Chipotle Mexican Grill", "image_url": "https://s3-media2.fl.yelpcdn.com/bphoto/--vW9De6OD0rpO5QfjnoTg/o.jpg", "is_closed": false, "url": "https://www.yelp.com/biz/chipotle-mexican-grill-del-mar?adjust_creative=oncXGL2aPIKrtJdnWeFSnA&utm_campaign=yelp_api_v3&utm_medium=api_v3_business_search&utm_source=oncXGL2aPIKrtJdnWeFSnA", "review_count": 75, "categories": [{"alias": "mexican", "title": "Mexican"}, {"alias": "hotdogs", "title": "Fast Food"}], "rating": 3.0, "coordinates": {"latitude": 32.98136, "longitude": -117.249998}, "transactions": [], "price": "$", "location": {"address1": "2710 Via de La Valle", "address2": "Ste B290", "address3": "", "city": "Del Mar", "zip_code": "92014", "country": "US", "state": "CA", "display_address": ["2710 Via de La Valle", "Ste B290", "Del Mar, CA 92014"]}, "phone": "+18587241181", "display_phone": "(858) 724-1181", "distance": 7075.754763253067}, {"id": "mMO-7aKKO29vQ3thjrL7xQ", "alias": "pepper-tree-frosty-vista", "name": "Pepper Tree Frosty", "image_url": "https://s3-media4.fl.yelpcdn.com/bphoto/5Up_r65hEQbrISn2EEXf0Q/o.jpg", "is_closed": false, "url": "https://www.yelp.com/biz/pepper-tree-frosty-vista?adjust_creative=oncXGL2aPIKrtJdnWeFSnA&utm_campaign=yelp_api_v3&utm_medium=api_v3_business_search&utm_source=oncXGL2aPIKrtJdnWeFSnA", "review_count": 357, "categories": [{"alias": "hotdogs", "title": "Fast Food"}, {"alias": "icecream", "title": "Ice Cream & Frozen Yogurt"}], "rating": 4.0, "coordinates": {"latitude": 33.1999, "longitude": -117.24167}, "transactions": [], "price": "$", "location": {"address1": "270 S Santa Fe Ave", "address2": "", "address3": "", "city": "Vista", "zip_code": "92084", "country": "US", "state": "CA", "display_address": ["270 S Santa Fe Ave", "Vista, CA 92084"]}, "phone": "+17607260732", "display_phone": "(760) 726-0732", "distance": 17261.849871061855}], "total": 344, "region": {"center": {"longitude": -117.25433349609375, "latitude": 33.04488992556048}}}