{"businesses": [{"id": "Ve9Tl-ru_6F3WVFG4zBV-A", "alias": "maurizio-trattoria-italiana-encinitas", "name": "Maurizio Trattoria Italiana", "image_url": "https://s3-media1.fl.yelpcdn.com/bphoto/EMVM_r8h-iqGwoBhg7MbPw/o.jpg", "is_closed": false, "url": "https://www.yelp.com/biz/maurizio-trattoria-italiana-encinitas?adjust_creative=oncXGL2aPIKrtJdnWeFSnA&utm_campaign=yelp_api_v3&utm_medium=api_v3_business_search&utm_source=oncXGL2aPIKrtJdnWeFSnA", "review_count": 371, "categories": [{"alias": "italian", "title": "Italian"}], "rating": 4.5, "coordinates": {"latitude": 33.0458881253134, "longitude": -117.293677765499}, "transactions": ["pickup", "restaurant_reservation"], "price": "$$", "location": {"address1": "505 S Coast Hwy 101", "address2": "", "address3": "", "city": "Encinitas", "zip_code": "92024", "country": "US", "state": "CA", "display_address": ["505 S Coast Hwy 101", "Encinitas, CA 92024"]}, "phone": "+17609427332", "display_phone": "(760) 942-7332", "distance": 3668.872272925819}, {"id": "aRacnEURw6oTkrijdeUZXA", "alias": "buona-forchetta-encinitas", "name": "Buona Forchetta", "image_url": "https://s3-media3.fl.yelpcdn.com/bphoto/WXve-tSW9FcOXICtSENE9g/o.jpg", "is_closed": false, "url": "https://www.yelp.com/biz/buona-forchetta-encinitas?adjust_creative=oncXGL2aPIKrtJdnWeFSnA&utm_campaign=yelp_api_v3&utm_medium=api_v3_business_search&utm_source=oncXGL2aPIKrtJdnWeFSnA", "review_count": 29, "categories": [{"alias": "pizza", "title": "Pizza"}, {"alias": "italian", "title": "Italian"}, {"alias": "wine_bars", "title": "Wine Bars"}], "rating": 5.0, "coordinates": {"latitude": 33.05359, "longitude": -117.29659}, "transactions": [], "location": {"address1": "250 N Coast Hwy 101", "address2": "", "address3": null, "city": "Encinitas", "zip_code": "92024", "country": "US", "state": "CA", "display_address": ["250 N Coast Hwy 101", "Encinitas, CA 92024"]}, "phone": "+17607048070", "display_phone": "(760) 704-8070", "distance": 4058.020215047268}, {"id": "TLF_euB5yoR93G_EG_7bFA", "alias": "alices-italian-gourmet-encinitas", "name": "Alice's Italian Gourmet", "image_url": "https://s3-media2.fl.yelpcdn.com/bphoto/wdWatEjuW_afoUsUS5MEhg/o.jpg", "is_closed": false, "url": "https://www.yelp.com/biz/alices-italian-gourmet-encinitas?adjust_creative=oncXGL2aPIKrtJdnWeFSnA&utm_campaign=yelp_api_v3&utm_medium=api_v3_business_search&utm_source=oncXGL2aPIKrtJdnWeFSnA", "review_count": 143, "categories": [{"alias": "italian", "title": "Italian"}], "rating": 4.5, "coordinates": {"latitude": 33.0515732, "longitude": -117.2610449}, "transactions": [], "price": "$$", "location": {"address1": "252 N  El Camino Real", "address2": "", "address3": null, "city": "Encinitas", "zip_code": "92024", "country": "US", "state": "CA", "display_address": ["252 N  El Camino Real", "Encinitas, CA 92024"]}, "phone": "+17606326933", "display_phone": "(760) 632-6933", "distance": 861.1916317943428}, {"id": "Qlue-v1qqcBwqFWi6qq3CQ", "alias": "rosatis-encinitas-encinitas", "name": "Rosati's Encinitas", "image_url": "https://s3-media1.fl.yelpcdn.com/bphoto/Fbi8TsDEkwRyCcrcmeLdRQ/o.jpg", "is_closed": false, "url": "https://www.yelp.com/biz/rosatis-encinitas-encinitas?adjust_creative=oncXGL2aPIKrtJdnWeFSnA&utm_campaign=yelp_api_v3&utm_medium=api_v3_business_search&utm_source=oncXGL2aPIKrtJdnWeFSnA", "review_count": 257, "categories": [{"alias": "pizza", "title": "Pizza"}, {"alias": "italian", "title": "Italian"}, {"alias": "sportsbars", "title": "Sports Bars"}], "rating": 4.0, "coordinates": {"latitude": 33.0557654984971, "longitude": -117.261638827622}, "transactions": [], "price": "$$", "location": {"address1": "337 N El Camino Real", "address2": "", "address3": "", "city": "Encinitas", "zip_code": "92024", "country": "US", "state": "CA", "display_address": ["337 N El Camino Real", "Encinitas, CA 92024"]}, "phone": "+17604522007", "display_phone": "(760) 452-2007", "distance": 1387.8096546160048}, {"id": "UpKJcVLkukHRx3CoOyli2A", "alias": "trattoria-i-trulli-encinitas", "name": "Trattoria I Trulli", "image_url": "https://s3-media2.fl.yelpcdn.com/bphoto/DpQhStljt3-fWLptx3oqaw/o.jpg", "is_closed": false, "url": "https://www.yelp.com/biz/trattoria-i-trulli-encinitas?adjust_creative=oncXGL2aPIKrtJdnWeFSnA&utm_campaign=yelp_api_v3&utm_medium=api_v3_business_search&utm_source=oncXGL2aPIKrtJdnWeFSnA", "review_count": 513, "categories": [{"alias": "italian", "title": "Italian"}], "rating": 4.0, "coordinates": {"latitude": 33.0412937178634, "longitude": -117.293395252634}, "transactions": [], "price": "$$", "location": {"address1": "830 S Coast Hwy 101", "address2": "", "address3": "", "city": "Encinitas", "zip_code": "92024", "country": "US", "state": "CA", "display_address": ["830 S Coast Hwy 101", "Encinitas, CA 92024"]}, "phone": "+17609436800", "display_phone": "(760) 943-6800", "distance": 3662.8486872922044}, {"id": "hETuEEWgfk1OSJ5K31OFmg", "alias": "rosannas-pasta-shop-encinitas", "name": "Rosanna's Pasta Shop", "image_url": "https://s3-media3.fl.yelpcdn.com/bphoto/l6reGKs0wtLGaFKvFZqmbw/o.jpg", "is_closed": false, "url": "https://www.yelp.com/biz/rosannas-pasta-shop-encinitas?adjust_creative=oncXGL2aPIKrtJdnWeFSnA&utm_campaign=yelp_api_v3&utm_medium=api_v3_business_search&utm_source=oncXGL2aPIKrtJdnWeFSnA", "review_count": 406, "categories": [{"alias": "italian", "title": "Italian"}, {"alias": "pastashops", "title": "Pasta Shops"}, {"alias": "sandwiches", "title": "Sandwiches"}], "rating": 4.0, "coordinates": {"latitude": 33.0525554, "longitude": -117.2613819}, "transactions": [], "price": "$$", "location": {"address1": "270 N El Camino Real", "address2": "Ste I", "address3": "", "city": "Encinitas", "zip_code": "92024", "country": "US", "state": "CA", "display_address": ["270 N El Camino Real", "Ste I", "Encinitas, CA 92024"]}, "phone": "+17607536867", "display_phone": "(760) 753-6867", "distance": 1148.9595556078482}, {"id": "Wy6PtgzAfiPAl91AlMqm4g", "alias": "cicciottis-trattoria-italiana-cardiff-by-the-sea", "name": "Cicciotti's Trattoria Italiana", "image_url": "https://s3-media3.fl.yelpcdn.com/bphoto/L3RvLcTeSoCDBwobgcrgCg/o.jpg", "is_closed": false, "url": "https://www.yelp.com/biz/cicciottis-trattoria-italiana-cardiff-by-the-sea?adjust_creative=oncXGL2aPIKrtJdnWeFSnA&utm_campaign=yelp_api_v3&utm_medium=api_v3_business_search&utm_source=oncXGL2aPIKrtJdnWeFSnA", "review_count": 701, "categories": [{"alias": "italian", "title": "Italian"}, {"alias": "seafood", "title": "Seafood"}], "rating": 4.0, "coordinates": {"latitude": 33.02348, "longitude": -117.283503}, "transactions": ["delivery", "pickup"], "price": "$$", "location": {"address1": "1933 San Elijo Ave", "address2": null, "address3": "", "city": "Cardiff By The Sea", "zip_code": "92007", "country": "US", "state": "CA", "display_address": ["1933 San Elijo Ave", "Cardiff By The Sea, CA 92007"]}, "phone": "+17606342335", "display_phone": "(760) 634-2335", "distance": 3632.853587405939}, {"id": "PYOTvDRBT24hY5oKY93UOg", "alias": "crush-solana-beach-solana-beach", "name": "Crush Solana Beach", "image_url": "https://s3-media2.fl.yelpcdn.com/bphoto/vimBjSEGFLoPQcrDPIH02A/o.jpg", "is_closed": false, "url": "https://www.yelp.com/biz/crush-solana-beach-solana-beach?adjust_creative=oncXGL2aPIKrtJdnWeFSnA&utm_campaign=yelp_api_v3&utm_medium=api_v3_business_search&utm_source=oncXGL2aPIKrtJdnWeFSnA", "review_count": 615, "categories": [{"alias": "italian", "title": "Italian"}, {"alias": "wine_bars", "title": "Wine Bars"}, {"alias": "musicvenues", "title": "Music Venues"}], "rating": 4.0, "coordinates": {"latitude": 32.9860642395262, "longitude": -117.271179333205}, "transactions": ["delivery", "pickup"], "price": "$$", "location": {"address1": "437 S Hwy 101", "address2": "Ste 112", "address3": "", "city": "Solana Beach", "zip_code": "92075", "country": "US", "state": "CA", "display_address": ["437 S Hwy 101", "Ste 112", "Solana Beach, CA 92075"]}, "phone": "+18584812787", "display_phone": "(858) 481-2787", "distance": 6727.050974317151}, {"id": "O_2Gx9n5zp7hBrqmROjLew", "alias": "pizzaiolo-encinitas", "name": "Pizzaiolo", "image_url": "https://s3-media3.fl.yelpcdn.com/bphoto/z5im45PoO6-64sXjILS24A/o.jpg", "is_closed": false, "url": "https://www.yelp.com/biz/pizzaiolo-encinitas?adjust_creative=oncXGL2aPIKrtJdnWeFSnA&utm_campaign=yelp_api_v3&utm_medium=api_v3_business_search&utm_source=oncXGL2aPIKrtJdnWeFSnA", "review_count": 91, "categories": [{"alias": "pizza", "title": "Pizza"}, {"alias": "italian", "title": "Italian"}], "rating": 4.0, "coordinates": {"latitude": 33.0370615, "longitude": -117.280196}, "transactions": ["delivery", "pickup"], "price": "$", "location": {"address1": "554 Santa Fe Dr", "address2": "", "address3": "", "city": "Encinitas", "zip_code": "92024", "country": "US", "state": "CA", "display_address": ["554 Santa Fe Dr", "Encinitas, CA 92024"]}, "phone": "+17607532885", "display_phone": "(760) 753-2885", "distance": 2563.054573006113}, {"id": "Cj0HSg9eLUpUaDijuQh19g", "alias": "chinatown-restaurant-encinitas-2", "name": "Chinatown Restaurant", "image_url": "https://s3-media2.fl.yelpcdn.com/bphoto/PDUegLO53CDirf-txIO9fQ/o.jpg", "is_closed": false, "url": "https://www.yelp.com/biz/chinatown-restaurant-encinitas-2?adjust_creative=oncXGL2aPIKrtJdnWeFSnA&utm_campaign=yelp_api_v3&utm_medium=api_v3_business_search&utm_source=oncXGL2aPIKrtJdnWeFSnA", "review_count": 154, "categories": [{"alias": "chinese", "title": "Chinese"}, {"alias": "italian", "title": "Italian"}], "rating": 4.0, "coordinates": {"latitude": 33.064755, "longitude": -117.300905}, "transactions": ["delivery", "pickup"], "price": "$", "location": {"address1": "118 Leucadia Blvd", "address2": "", "address3": "", "city": "Encinitas", "zip_code": "92024", "country": "US", "state": "CA", "display_address": ["118 Leucadia Blvd", "Encinitas, CA 92024"]}, "phone": "+17607530565", "display_phone": "(760) 753-0565", "distance": 4917.657131445906}, {"id": "oGqdGBCABJzVS2BrBHKzyQ", "alias": "best-pizza-and-brew-cardiff", "name": "Best Pizza & Brew", "image_url": "https://s3-media3.fl.yelpcdn.com/bphoto/1QzaSg950ujmYa9vzU8Tjw/o.jpg", "is_closed": false, "url": "https://www.yelp.com/biz/best-pizza-and-brew-cardiff?adjust_creative=oncXGL2aPIKrtJdnWeFSnA&utm_campaign=yelp_api_v3&utm_medium=api_v3_business_search&utm_source=oncXGL2aPIKrtJdnWeFSnA", "review_count": 162, "categories": [{"alias": "pizza", "title": "Pizza"}, {"alias": "italian", "title": "Italian"}, {"alias": "beerbar", "title": "Beer Bar"}], "rating": 4.0, "coordinates": {"latitude": 33.02063, "longitude": -117.2819}, "transactions": [], "price": "$$", "location": {"address1": "102 Aberdeen Dr", "address2": "", "address3": "", "city": "Cardiff", "zip_code": "92007", "country": "US", "state": "CA", "display_address": ["102 Aberdeen Dr", "Cardiff, CA 92007"]}, "phone": "+17604367000", "display_phone": "(760) 436-7000", "distance": 3735.1662935527233}, {"id": "JJ3JVMuyS2bpsQUoE5kAhA", "alias": "firenze-trattoria-encinitas", "name": "Firenze Trattoria", "image_url": "https://s3-media1.fl.yelpcdn.com/bphoto/eIOmLKh6W2sYlvuSeQW6mg/o.jpg", "is_closed": false, "url": "https://www.yelp.com/biz/firenze-trattoria-encinitas?adjust_creative=oncXGL2aPIKrtJdnWeFSnA&utm_campaign=yelp_api_v3&utm_medium=api_v3_business_search&utm_source=oncXGL2aPIKrtJdnWeFSnA", "review_count": 169, "categories": [{"alias": "italian", "title": "Italian"}], "rating": 3.5, "coordinates": {"latitude": 33.0359535217285, "longitude": -117.238479614258}, "transactions": [], "price": "$$$", "location": {"address1": "162 S Rancho Santa Fe Rd", "address2": "", "address3": "", "city": "Encinitas", "zip_code": "92024", "country": "US", "state": "CA", "display_address": ["162 S Rancho Santa Fe Rd", "Encinitas, CA 92024"]}, "phone": "+17609449000", "display_phone": "(760) 944-9000", "distance": 1823.9316493031092}, {"id": "cj0-W-t1oIOrV1cQ4Y3CZw", "alias": "napizza-encinitas", "name": "Napizza", "image_url": "https://s3-media1.fl.yelpcdn.com/bphoto/EtstORP3JTH707ybTudtIg/o.jpg", "is_closed": false, "url": "https://www.yelp.com/biz/napizza-encinitas?adjust_creative=oncXGL2aPIKrtJdnWeFSnA&utm_campaign=yelp_api_v3&utm_medium=api_v3_business_search&utm_source=oncXGL2aPIKrtJdnWeFSnA", "review_count": 146, "categories": [{"alias": "pizza", "title": "Pizza"}, {"alias": "italian", "title": "Italian"}], "rating": 4.0, "coordinates": {"latitude": 33.04432, "longitude": -117.29332}, "transactions": ["delivery", "pickup"], "price": "$$", "location": {"address1": "615 S Coast Hwy 101", "address2": null, "address3": "", "city": "Encinitas", "zip_code": "92024", "country": "US", "state": "CA", "display_address": ["615 S Coast Hwy 101", "Encinitas, CA 92024"]}, "phone": "+17604522340", "display_phone": "(760) 452-2340", "distance": 3644.236770139288}, {"id": "REs-IYie1ERpX21kkYE8Pw", "alias": "cucina-enoteca-del-mar-del-mar-2", "name": "Cucina Enoteca Del Mar", "image_url": "https://s3-media4.fl.yelpcdn.com/bphoto/mO9Bw_jgW16ilsikoiWMCA/o.jpg", "is_closed": false, "url": "https://www.yelp.com/biz/cucina-enoteca-del-mar-del-mar-2?adjust_creative=oncXGL2aPIKrtJdnWeFSnA&utm_campaign=yelp_api_v3&utm_medium=api_v3_business_search&utm_source=oncXGL2aPIKrtJdnWeFSnA", "review_count": 930, "categories": [{"alias": "italian", "title": "Italian"}, {"alias": "wine_bars", "title": "Wine Bars"}, {"alias": "pizza", "title": "Pizza"}], "rating": 4.0, "coordinates": {"latitude": 32.9810134249869, "longitude": -117.248989232541}, "transactions": [], "price": "$$", "location": {"address1": "2730 Via De La Valle", "address2": "", "address3": "", "city": "Del Mar", "zip_code": "92014", "country": "US", "state": "CA", "display_address": ["2730 Via De La Valle", "Del Mar, CA 92014"]}, "phone": "+18587044500", "display_phone": "(858) 704-4500", "distance": 7120.19357577403}, {"id": "MAN8n9Jw9DhKqnPSt-Y64w", "alias": "leucadia-pizzeria-and-italian-restaurant-encinitas-6", "name": "Leucadia Pizzeria & Italian Restaurant", "image_url": "https://s3-media1.fl.yelpcdn.com/bphoto/lyf5qMjDTg-dRUWYNAW-1w/o.jpg", "is_closed": false, "url": "https://www.yelp.com/biz/leucadia-pizzeria-and-italian-restaurant-encinitas-6?adjust_creative=oncXGL2aPIKrtJdnWeFSnA&utm_campaign=yelp_api_v3&utm_medium=api_v3_business_search&utm_source=oncXGL2aPIKrtJdnWeFSnA", "review_count": 457, "categories": [{"alias": "italian", "title": "Italian"}, {"alias": "pizza", "title": "Pizza"}, {"alias": "cocktailbars", "title": "Cocktail Bars"}], "rating": 3.5, "coordinates": {"latitude": 33.04835, "longitude": -117.29369}, "transactions": ["delivery"], "price": "$$", "location": {"address1": "315 S Coast Hwy 101", "address2": "", "address3": "", "city": "Encinitas", "zip_code": "92024", "country": "US", "state": "CA", "display_address": ["315 S Coast Hwy 101", "Encinitas, CA 92024"]}, "phone": "+17609422222", "display_phone": "(760) 942-2222", "distance": 3706.5623217698426}, {"id": "uVveZbYVUsoTkLIz085CpQ", "alias": "trattoria-positano-cardiff", "name": "Trattoria Positano", "image_url": "https://s3-media2.fl.yelpcdn.com/bphoto/x0B7TkCQBf9iFYl_Y6Ay8A/o.jpg", "is_closed": false, "url": "https://www.yelp.com/biz/trattoria-positano-cardiff?adjust_creative=oncXGL2aPIKrtJdnWeFSnA&utm_campaign=yelp_api_v3&utm_medium=api_v3_business_search&utm_source=oncXGL2aPIKrtJdnWeFSnA", "review_count": 146, "categories": [{"alias": "italian", "title": "Italian"}], "rating": 4.0, "coordinates": {"latitude": 33.01995, "longitude": -117.281585}, "transactions": [], "price": "$$", "location": {"address1": "2171 San Elijo Ave", "address2": "", "address3": "", "city": "Cardiff", "zip_code": "92007", "country": "US", "state": "CA", "display_address": ["2171 San Elijo Ave", "Cardiff, CA 92007"]}, "phone": "+17606320111", "display_phone": "(760) 632-0111", "distance": 3769.1223644522856}, {"id": "zUvpU9O2jkL5ETMBxMeiIg", "alias": "pie-craft-encinitas-2", "name": "Pie Craft", "image_url": "https://s3-media1.fl.yelpcdn.com/bphoto/6J_BxnSU7VznbJG-XHr6NQ/o.jpg", "is_closed": false, "url": "https://www.yelp.com/biz/pie-craft-encinitas-2?adjust_creative=oncXGL2aPIKrtJdnWeFSnA&utm_campaign=yelp_api_v3&utm_medium=api_v3_business_search&utm_source=oncXGL2aPIKrtJdnWeFSnA", "review_count": 190, "categories": [{"alias": "pizza", "title": "Pizza"}, {"alias": "italian", "title": "Italian"}], "rating": 4.0, "coordinates": {"latitude": 33.0515732, "longitude": -117.2610449}, "transactions": ["delivery", "pickup"], "price": "$$", "location": {"address1": "252 N El Camino Real", "address2": "Suite 5", "address3": "", "city": "Encinitas", "zip_code": "92024", "country": "US", "state": "CA", "display_address": ["252 N El Camino Real", "Suite 5", "Encinitas, CA 92024"]}, "phone": "+17606352800", "display_phone": "(760) 635-2800", "distance": 861.1916317943428}, {"id": "YGQ3IUftvDAhpOT-B4NrBg", "alias": "bongiornos-new-york-pizzeria-solana-beach", "name": "Bongiorno's New York Pizzeria", "image_url": "https://s3-media2.fl.yelpcdn.com/bphoto/zNf0PbdyE_1itBokTZLB6A/o.jpg", "is_closed": false, "url": "https://www.yelp.com/biz/bongiornos-new-york-pizzeria-solana-beach?adjust_creative=oncXGL2aPIKrtJdnWeFSnA&utm_campaign=yelp_api_v3&utm_medium=api_v3_business_search&utm_source=oncXGL2aPIKrtJdnWeFSnA", "review_count": 471, "categories": [{"alias": "pizza", "title": "Pizza"}, {"alias": "italian", "title": "Italian"}], "rating": 4.5, "coordinates": {"latitude": 32.99051, "longitude": -117.2606}, "transactions": [], "price": "$", "location": {"address1": "524 Stevens Ave", "address2": "Ste 10", "address3": "", "city": "Solana Beach", "zip_code": "92075", "country": "US", "state": "CA", "display_address": ["524 Stevens Ave", "Ste 10", "Solana Beach, CA 92075"]}, "phone": "+18587552646", "display_phone": "(858) 755-2646", "distance": 6087.476638471088}, {"id": "lPFKybOVx2gRLClTzIujdg", "alias": "bologna-gourmet-carlsbad", "name": "Bologna Gourmet", "image_url": "https://s3-media3.fl.yelpcdn.com/bphoto/MdIdPh2bo_Dme675CPztRw/o.jpg", "is_closed": false, "url": "https://www.yelp.com/biz/bologna-gourmet-carlsbad?adjust_creative=oncXGL2aPIKrtJdnWeFSnA&utm_campaign=yelp_api_v3&utm_medium=api_v3_business_search&utm_source=oncXGL2aPIKrtJdnWeFSnA", "review_count": 150, "categories": [{"alias": "delis", "title": "Delis"}, {"alias": "italian", "title": "Italian"}, {"alias": "pastashops", "title": "Pasta Shops"}], "rating": 4.5, "coordinates": {"latitude": 33.12392, "longitude": -117.27351}, "transactions": ["pickup"], "price": "$", "location": {"address1": "6150 Yarrow Dr", "address2": null, "address3": "", "city": "Carlsbad", "zip_code": "92011", "country": "US", "state": "CA", "display_address": ["6150 Yarrow Dr", "Carlsbad, CA 92011"]}, "phone": "+17609290877", "display_phone": "(760) 929-0877", "distance": 8971.650862346343}, {"id": "7E9cYIKPtHcawm9WPlnx3g", "alias": "pappalecco-san-diego-7", "name": "Pappalecco", "image_url": "https://s3-media2.fl.yelpcdn.com/bphoto/mXqV_XS-gdx2VjCsYU7DOg/o.jpg", "is_closed": false, "url": "https://www.yelp.com/biz/pappalecco-san-diego-7?adjust_creative=oncXGL2aPIKrtJdnWeFSnA&utm_campaign=yelp_api_v3&utm_medium=api_v3_business_search&utm_source=oncXGL2aPIKrtJdnWeFSnA", "review_count": 123, "categories": [{"alias": "gelato", "title": "Gelato"}, {"alias": "italian", "title": "Italian"}, {"alias": "cafes", "title": "Cafes"}], "rating": 4.0, "coordinates": {"latitude": 32.95193, "longitude": -117.23254}, "transactions": [], "price": "$", "location": {"address1": "12925 El Camino Real", "address2": "Ste Aa5", "address3": null, "city": "San Diego", "zip_code": "92130", "country": "US", "state": "CA", "display_address": ["12925 El Camino Real", "Ste Aa5", "San Diego, CA 92130"]}, "phone": "+18588472910", "display_phone": "(858) 847-2910", "distance": 10521.939200734063}, {"id": "fBWosePmmKcpDfsOYk5Qng", "alias": "vigiluccis-trattoria-italiana-leucadia", "name": "Vigilucci's Trattoria Italiana", "image_url": "https://s3-media1.fl.yelpcdn.com/bphoto/JwJWzj0MEI-AAiTdOaCsYw/o.jpg", "is_closed": false, "url": "https://www.yelp.com/biz/vigiluccis-trattoria-italiana-leucadia?adjust_creative=oncXGL2aPIKrtJdnWeFSnA&utm_campaign=yelp_api_v3&utm_medium=api_v3_business_search&utm_source=oncXGL2aPIKrtJdnWeFSnA", "review_count": 226, "categories": [{"alias": "italian", "title": "Italian"}], "rating": 4.0, "coordinates": {"latitude": 33.0587981, "longitude": -117.2998368}, "transactions": ["delivery"], "price": "$$", "location": {"address1": "530 N Coast Hwy 101", "address2": "", "address3": "", "city": "Leucadia", "zip_code": "92024", "country": "US", "state": "CA", "display_address": ["530 N Coast Hwy 101", "Leucadia, CA 92024"]}, "phone": "+17606342365", "display_phone": "(760) 634-2365", "distance": 4514.132108943311}, {"id": "UPGYeMQGPyKahAsW0AMorw", "alias": "mangia-e-bevi-oceanside", "name": "Mangia e Bevi", "image_url": "https://s3-media2.fl.yelpcdn.com/bphoto/JyNc7RZ6xSYKdnkOArHM2Q/o.jpg", "is_closed": false, "url": "https://www.yelp.com/biz/mangia-e-bevi-oceanside?adjust_creative=oncXGL2aPIKrtJdnWeFSnA&utm_campaign=yelp_api_v3&utm_medium=api_v3_business_search&utm_source=oncXGL2aPIKrtJdnWeFSnA", "review_count": 16, "categories": [{"alias": "italian", "title": "Italian"}, {"alias": "pizza", "title": "Pizza"}, {"alias": "wine_bars", "title": "Wine Bars"}], "rating": 5.0, "coordinates": {"latitude": 33.21011, "longitude": -117.31162}, "transactions": [], "location": {"address1": "3613 Ocean Ranch Blvd", "address2": "Ste 100", "address3": "", "city": "Oceanside", "zip_code": "92056", "country": "US", "state": "CA", "display_address": ["3613 Ocean Ranch Blvd", "Ste 100", "Oceanside, CA 92056"]}, "phone": "+17602311225", "display_phone": "(760) 231-1225", "distance": 19124.214908026843}, {"id": "whN2OehLpeBfG0pQ-T82ug", "alias": "vigiluccis-seafood-and-steakhouse-carlsbad-2", "name": "Vigilucci's Seafood & Steakhouse", "image_url": "https://s3-media2.fl.yelpcdn.com/bphoto/8F6PoHWtXypGPSXy6vLyKg/o.jpg", "is_closed": false, "url": "https://www.yelp.com/biz/vigiluccis-seafood-and-steakhouse-carlsbad-2?adjust_creative=oncXGL2aPIKrtJdnWeFSnA&utm_campaign=yelp_api_v3&utm_medium=api_v3_business_search&utm_source=oncXGL2aPIKrtJdnWeFSnA", "review_count": 680, "categories": [{"alias": "italian", "title": "Italian"}, {"alias": "steak", "title": "Steakhouses"}], "rating": 4.0, "coordinates": {"latitude": 33.14796, "longitude": -117.34529}, "transactions": [], "price": "$$$", "location": {"address1": "3878 Carlsbad Blvd", "address2": "", "address3": "", "city": "Carlsbad", "zip_code": "92008", "country": "US", "state": "CA", "display_address": ["3878 Carlsbad Blvd", "Carlsbad, CA 92008"]}, "phone": "+17604342580", "display_phone": "(760) 434-2580", "distance": 14260.928656503087}, {"id": "yl1yhRtYLHqk-ZSDueZ1UA", "alias": "crust-pizzeria-solana-beach", "name": "Crust Pizzeria", "image_url": "https://s3-media3.fl.yelpcdn.com/bphoto/Z66G9rI_RT_mFzIoVWedvg/o.jpg", "is_closed": false, "url": "https://www.yelp.com/biz/crust-pizzeria-solana-beach?adjust_creative=oncXGL2aPIKrtJdnWeFSnA&utm_campaign=yelp_api_v3&utm_medium=api_v3_business_search&utm_source=oncXGL2aPIKrtJdnWeFSnA", "review_count": 55, "categories": [{"alias": "pizza", "title": "Pizza"}, {"alias": "italian", "title": "Italian"}, {"alias": "bars", "title": "Bars"}], "rating": 4.5, "coordinates": {"latitude": 32.9949911, "longitude": -117.2583178}, "transactions": [], "price": "$$", "location": {"address1": "124 S Solana Hills Dr", "address2": null, "address3": "", "city": "Solana Beach", "zip_code": "92075", "country": "US", "state": "CA", "display_address": ["124 S Solana Hills Dr", "Solana Beach, CA 92075"]}, "phone": "+18583569925", "display_phone": "(858) 356-9925", "distance": 5508.001173366027}, {"id": "QYLURXZN1y6AduSfzvarKw", "alias": "vivace-carlsbad", "name": "Vivace", "image_url": "https://s3-media2.fl.yelpcdn.com/bphoto/wTPMzuM2JtnNTkQ9h30Q0A/o.jpg", "is_closed": false, "url": "https://www.yelp.com/biz/vivace-carlsbad?adjust_creative=oncXGL2aPIKrtJdnWeFSnA&utm_campaign=yelp_api_v3&utm_medium=api_v3_business_search&utm_source=oncXGL2aPIKrtJdnWeFSnA", "review_count": 139, "categories": [{"alias": "italian", "title": "Italian"}], "rating": 4.0, "coordinates": {"latitude": 33.0991034437941, "longitude": -117.285724486508}, "transactions": [], "price": "$$$$", "location": {"address1": "7100 Aviara Resort Dr", "address2": "", "address3": "Park Hyatt Aviara Resort", "city": "Carlsbad", "zip_code": "92011", "country": "US", "state": "CA", "display_address": ["7100 Aviara Resort Dr", "Park Hyatt Aviara Resort", "Carlsbad, CA 92011"]}, "phone": "+17606033773", "display_phone": "(760) 603-3773", "distance": 6700.415381083064}, {"id": "qS8q7YHMfgzO0H9HpqxgQQ", "alias": "veladora-rancho-santa-fe-2", "name": "Veladora", "image_url": "https://s3-media4.fl.yelpcdn.com/bphoto/KhMKemWizKZsFiwM_HQwWg/o.jpg", "is_closed": false, "url": "https://www.yelp.com/biz/veladora-rancho-santa-fe-2?adjust_creative=oncXGL2aPIKrtJdnWeFSnA&utm_campaign=yelp_api_v3&utm_medium=api_v3_business_search&utm_source=oncXGL2aPIKrtJdnWeFSnA", "review_count": 95, "categories": [{"alias": "newamerican", "title": "American (New)"}, {"alias": "italian", "title": "Italian"}], "rating": 4.0, "coordinates": {"latitude": 32.9913057, "longitude": -117.1853272}, "transactions": [], "price": "$$$", "location": {"address1": "5921 Valencia Cir", "address2": "", "address3": "", "city": "Rancho Santa Fe", "zip_code": "92067", "country": "US", "state": "CA", "display_address": ["5921 Valencia Cir", "Rancho Santa Fe, CA 92067"]}, "phone": "+18587596216", "display_phone": "(858) 759-6216", "distance": 8747.178420591872}, {"id": "GqsoLyxkqh_ZJ7AbSY7cdg", "alias": "borrellis-pizza-and-italian-restaurant-encinitas", "name": "Borrelli's Pizza & Italian Restaurant", "image_url": "https://s3-media4.fl.yelpcdn.com/bphoto/kW1j_sjvgjoFxam_NMjzxg/o.jpg", "is_closed": false, "url": "https://www.yelp.com/biz/borrellis-pizza-and-italian-restaurant-encinitas?adjust_creative=oncXGL2aPIKrtJdnWeFSnA&utm_campaign=yelp_api_v3&utm_medium=api_v3_business_search&utm_source=oncXGL2aPIKrtJdnWeFSnA", "review_count": 195, "categories": [{"alias": "pizza", "title": "Pizza"}, {"alias": "italian", "title": "Italian"}], "rating": 3.0, "coordinates": {"latitude": 33.053208, "longitude": -117.261107}, "transactions": ["delivery", "pickup"], "price": "$$", "location": {"address1": "285 N El Camino Real", "address2": "Ste 106", "address3": "", "city": "Encinitas", "zip_code": "92024", "country": "US", "state": "CA", "display_address": ["285 N El Camino Real", "Ste 106", "Encinitas, CA 92024"]}, "phone": "+17604361501", "display_phone": "(760) 436-1501", "distance": 1119.8440512627014}, {"id": "l34qfz5oRfpLVuEcvBp4Pw", "alias": "buca-di-beppo-italian-restaurant-carlsbad-3", "name": "Buca di Beppo Italian Restaurant", "image_url": "https://s3-media2.fl.yelpcdn.com/bphoto/HjX10vYwJxrqs55wBLNWpQ/o.jpg", "is_closed": false, "url": "https://www.yelp.com/biz/buca-di-beppo-italian-restaurant-carlsbad-3?adjust_creative=oncXGL2aPIKrtJdnWeFSnA&utm_campaign=yelp_api_v3&utm_medium=api_v3_business_search&utm_source=oncXGL2aPIKrtJdnWeFSnA", "review_count": 391, "categories": [{"alias": "italian", "title": "Italian"}], "rating": 3.0, "coordinates": {"latitude": 33.0722341387192, "longitude": -117.267009615898}, "transactions": ["delivery", "pickup"], "price": "$$", "location": {"address1": "1921 Calle Barcelona", "address2": "", "address3": "", "city": "Carlsbad", "zip_code": "92009", "country": "US", "state": "CA", "display_address": ["1921 Calle Barcelona", "Carlsbad, CA 92009"]}, "phone": "+17604792533", "display_phone": "(760) 479-2533", "distance": 3261.963431598995}, {"id": "IFb5NTkbljP-JdlfX92fTw", "alias": "rosinas-italian-restaurant-san-diego-4", "name": "Rosina's Italian Restaurant", "image_url": "https://s3-media3.fl.yelpcdn.com/bphoto/JaOieo7B62Inu0LLLYT5GA/o.jpg", "is_closed": false, "url": "https://www.yelp.com/biz/rosinas-italian-restaurant-san-diego-4?adjust_creative=oncXGL2aPIKrtJdnWeFSnA&utm_campaign=yelp_api_v3&utm_medium=api_v3_business_search&utm_source=oncXGL2aPIKrtJdnWeFSnA", "review_count": 202, "categories": [{"alias": "italian", "title": "Italian"}, {"alias": "wine_bars", "title": "Wine Bars"}], "rating": 4.5, "coordinates": {"latitude": 32.990623, "longitude": -117.159621}, "transactions": [], "price": "$$", "location": {"address1": "14701 Via Bettona", "address2": "", "address3": "", "city": "San Diego", "zip_code": "92127", "country": "US", "state": "CA", "display_address": ["14701 Via Bettona", "San Diego, CA 92127"]}, "phone": "+18587594300", "display_phone": "(858) 759-4300", "distance": 10695.467924910368}, {"id": "NPbVSI0ueJcxnJPZh5xv4Q", "alias": "264-fresco-carlsbad-2", "name": "264 Fresco", "image_url": "https://s3-media3.fl.yelpcdn.com/bphoto/LaU5r_2QJ74WuljDJUsA4A/o.jpg", "is_closed": false, "url": "https://www.yelp.com/biz/264-fresco-carlsbad-2?adjust_creative=oncXGL2aPIKrtJdnWeFSnA&utm_campaign=yelp_api_v3&utm_medium=api_v3_business_search&utm_source=oncXGL2aPIKrtJdnWeFSnA", "review_count": 738, "categories": [{"alias": "italian", "title": "Italian"}, {"alias": "venues", "title": "Venues & Event Spaces"}, {"alias": "wine_bars", "title": "Wine Bars"}], "rating": 4.0, "coordinates": {"latitude": 33.15805, "longitude": -117.35183}, "transactions": ["delivery"], "price": "$$", "location": {"address1": "264 Carlsbad Village Dr", "address2": "", "address3": "", "city": "Carlsbad", "zip_code": "92008", "country": "US", "state": "CA", "display_address": ["264 Carlsbad Village Dr", "Carlsbad, CA 92008"]}, "phone": "+17607203737", "display_phone": "(760) 720-3737", "distance": 15520.108200754541}, {"id": "iDqjGpLfBOUNBD0bZUPHTA", "alias": "pizza-hut-carlsbad-4", "name": "Pizza Hut", "image_url": "https://s3-media2.fl.yelpcdn.com/bphoto/rMVZqWULh1ri3noZ5FjIAw/o.jpg", "is_closed": false, "url": "https://www.yelp.com/biz/pizza-hut-carlsbad-4?adjust_creative=oncXGL2aPIKrtJdnWeFSnA&utm_campaign=yelp_api_v3&utm_medium=api_v3_business_search&utm_source=oncXGL2aPIKrtJdnWeFSnA", "review_count": 34, "categories": [{"alias": "pizza", "title": "Pizza"}, {"alias": "italian", "title": "Italian"}, {"alias": "chicken_wings", "title": "Chicken Wings"}], "rating": 4.0, "coordinates": {"latitude": 33.0825253, "longitude": -117.266711}, "transactions": [], "price": "$", "location": {"address1": "7750 El Camino Real", "address2": "Ste E", "address3": "", "city": "Carlsbad", "zip_code": "92009", "country": "US", "state": "CA", "display_address": ["7750 El Camino Real", "Ste E", "Carlsbad, CA 92009"]}, "phone": "+17609444222", "display_phone": "(760) 944-4222", "distance": 4340.905500914886}, {"id": "t93BSZqSbW7e6MpPXVhz2g", "alias": "primo-pizza-and-pasta-carlsbad-2", "name": "Primo Pizza & Pasta", "image_url": "https://s3-media2.fl.yelpcdn.com/bphoto/E7_2a5JKHkvutKdrriCcew/o.jpg", "is_closed": false, "url": "https://www.yelp.com/biz/primo-pizza-and-pasta-carlsbad-2?adjust_creative=oncXGL2aPIKrtJdnWeFSnA&utm_campaign=yelp_api_v3&utm_medium=api_v3_business_search&utm_source=oncXGL2aPIKrtJdnWeFSnA", "review_count": 316, "categories": [{"alias": "pizza", "title": "Pizza"}, {"alias": "italian", "title": "Italian"}, {"alias": "salad", "title": "Salad"}], "rating": 4.0, "coordinates": {"latitude": 33.10132, "longitude": -117.31131}, "transactions": ["delivery", "pickup"], "price": "$", "location": {"address1": "7110 Avenida Encinas", "address2": "Ste 103", "address3": "", "city": "Carlsbad", "zip_code": "92011", "country": "US", "state": "CA", "display_address": ["7110 Avenida Encinas", "Ste 103", "Carlsbad, CA 92011"]}, "phone": "+17604317155", "display_phone": "(760) 431-7155", "distance": 8241.570361603795}, {"id": "gp-i76Ne4Q2f2tBNr4SZvQ", "alias": "vigiluccis-cucina-italiana-carlsbad-3", "name": "Vigilucci's Cucina Italiana", "image_url": "https://s3-media2.fl.yelpcdn.com/bphoto/llU4w5f5eT1sq1plhgn0XQ/o.jpg", "is_closed": false, "url": "https://www.yelp.com/biz/vigiluccis-cucina-italiana-carlsbad-3?adjust_creative=oncXGL2aPIKrtJdnWeFSnA&utm_campaign=yelp_api_v3&utm_medium=api_v3_business_search&utm_source=oncXGL2aPIKrtJdnWeFSnA", "review_count": 646, "categories": [{"alias": "italian", "title": "Italian"}], "rating": 4.0, "coordinates": {"latitude": 33.1601104736328, "longitude": -117.349487304688}, "transactions": ["delivery"], "price": "$$", "location": {"address1": "2943 State St", "address2": "", "address3": "", "city": "Carlsbad", "zip_code": "92008", "country": "US", "state": "CA", "display_address": ["2943 State St", "Carlsbad, CA 92008"]}, "phone": "+17604342500", "display_phone": "(760) 434-2500", "distance": 15578.861301745623}, {"id": "NQ4QOOTbYW9MfseqwRFZcQ", "alias": "2051-cafe-carlsbad", "name": "2051 Cafe", "image_url": "https://s3-media3.fl.yelpcdn.com/bphoto/2FSNyrghNITP3L21VkbrPw/o.jpg", "is_closed": false, "url": "https://www.yelp.com/biz/2051-cafe-carlsbad?adjust_creative=oncXGL2aPIKrtJdnWeFSnA&utm_campaign=yelp_api_v3&utm_medium=api_v3_business_search&utm_source=oncXGL2aPIKrtJdnWeFSnA", "review_count": 82, "categories": [{"alias": "cafes", "title": "Cafes"}, {"alias": "delis", "title": "Delis"}, {"alias": "italian", "title": "Italian"}], "rating": 5.0, "coordinates": {"latitude": 33.1224971661327, "longitude": -117.276416666667}, "transactions": [], "price": "$$", "location": {"address1": "2051 Palomar Airport Rd", "address2": "Ste 175", "address3": null, "city": "Carlsbad", "zip_code": "92011", "country": "US", "state": "CA", "display_address": ["2051 Palomar Airport Rd", "Ste 175", "Carlsbad, CA 92011"]}, "phone": "+17608142831", "display_phone": "(760) 814-2831", "distance": 8871.39541755152}, {"id": "fSNeDicHMEwYuZl7Ko1JAQ", "alias": "the-old-spaghetti-factory-san-marcos", "name": "The Old Spaghetti Factory", "image_url": "https://s3-media4.fl.yelpcdn.com/bphoto/w1kY2uonTdJyT7arTFmoaQ/o.jpg", "is_closed": false, "url": "https://www.yelp.com/biz/the-old-spaghetti-factory-san-marcos?adjust_creative=oncXGL2aPIKrtJdnWeFSnA&utm_campaign=yelp_api_v3&utm_medium=api_v3_business_search&utm_source=oncXGL2aPIKrtJdnWeFSnA", "review_count": 490, "categories": [{"alias": "italian", "title": "Italian"}], "rating": 3.0, "coordinates": {"latitude": 33.1391492144446, "longitude": -117.162912912362}, "transactions": ["delivery", "pickup"], "price": "$$", "location": {"address1": "111 N Twin Oaks Valley Rd", "address2": "", "address3": "", "city": "San Marcos", "zip_code": "92069", "country": "US", "state": "CA", "display_address": ["111 N Twin Oaks Valley Rd", "San Marcos, CA 92069"]}, "phone": "+17604710155", "display_phone": "(760) 471-0155", "distance": 13505.0639790368}, {"id": "U07qPvNkoF6Sipr33zOC7A", "alias": "bella-vista-social-club-and-caff\u00e9-san-diego-2", "name": "Bella Vista Social Club & Caff\u00e9", "image_url": "https://s3-media3.fl.yelpcdn.com/bphoto/eVxXtWyb2dS8aBX6MkkhMA/o.jpg", "is_closed": false, "url": "https://www.yelp.com/biz/bella-vista-social-club-and-caff%C3%A9-san-diego-2?adjust_creative=oncXGL2aPIKrtJdnWeFSnA&utm_campaign=yelp_api_v3&utm_medium=api_v3_business_search&utm_source=oncXGL2aPIKrtJdnWeFSnA", "review_count": 363, "categories": [{"alias": "italian", "title": "Italian"}, {"alias": "cafes", "title": "Cafes"}, {"alias": "breakfast_brunch", "title": "Breakfast & Brunch"}], "rating": 4.0, "coordinates": {"latitude": 32.8891213364227, "longitude": -117.244138522994}, "transactions": [], "price": "$$", "location": {"address1": "2880 Torrey Pines Scenic Dr", "address2": "", "address3": "", "city": "San Diego", "zip_code": "92037", "country": "US", "state": "CA", "display_address": ["2880 Torrey Pines Scenic Dr", "San Diego, CA 92037"]}, "phone": "+18585349624", "display_phone": "(858) 534-9624", "distance": 17346.750787232533}, {"id": "B12UcdAN3hCLUf4Kennh2w", "alias": "gregorios-restaurant-carlsbad", "name": "Gregorio's Restaurant", "image_url": "https://s3-media3.fl.yelpcdn.com/bphoto/ZfSQi9OFTdfms5MqHPNGVw/o.jpg", "is_closed": false, "url": "https://www.yelp.com/biz/gregorios-restaurant-carlsbad?adjust_creative=oncXGL2aPIKrtJdnWeFSnA&utm_campaign=yelp_api_v3&utm_medium=api_v3_business_search&utm_source=oncXGL2aPIKrtJdnWeFSnA", "review_count": 381, "categories": [{"alias": "italian", "title": "Italian"}], "rating": 3.5, "coordinates": {"latitude": 33.15941, "longitude": -117.3505}, "transactions": ["delivery", "restaurant_reservation"], "price": "$$", "location": {"address1": "300 Carlsbad Village Dr", "address2": "Ste 208", "address3": "", "city": "Carlsbad", "zip_code": "92008", "country": "US", "state": "CA", "display_address": ["300 Carlsbad Village Dr", "Ste 208", "Carlsbad, CA 92008"]}, "phone": "+17607201132", "display_phone": "(760) 720-1132", "distance": 15546.635505682087}, {"id": "cVVxcRO-m-ObsuYD3thxLQ", "alias": "crust-pizzeria-carlsbad", "name": "Crust Pizzeria", "image_url": "https://s3-media3.fl.yelpcdn.com/bphoto/CVNKSesTTLGh52dCBMR7iQ/o.jpg", "is_closed": false, "url": "https://www.yelp.com/biz/crust-pizzeria-carlsbad?adjust_creative=oncXGL2aPIKrtJdnWeFSnA&utm_campaign=yelp_api_v3&utm_medium=api_v3_business_search&utm_source=oncXGL2aPIKrtJdnWeFSnA", "review_count": 357, "categories": [{"alias": "pizza", "title": "Pizza"}, {"alias": "wine_bars", "title": "Wine Bars"}, {"alias": "italian", "title": "Italian"}], "rating": 4.0, "coordinates": {"latitude": 33.0757914, "longitude": -117.2378596}, "transactions": ["delivery"], "price": "$$", "location": {"address1": "3263 Camino De Los Coches", "address2": "Ste 105", "address3": "", "city": "Carlsbad", "zip_code": "92009", "country": "US", "state": "CA", "display_address": ["3263 Camino De Los Coches", "Ste 105", "Carlsbad, CA 92009"]}, "phone": "+17609441111", "display_phone": "(760) 944-1111", "distance": 3748.844315815337}, {"id": "1aFl5zfMeNtcS2e8Vueb9g", "alias": "davanti-enoteca-del-mar", "name": "Davanti Enoteca", "image_url": "https://s3-media3.fl.yelpcdn.com/bphoto/qUAw8_tok14CPYLxeEHPCA/o.jpg", "is_closed": false, "url": "https://www.yelp.com/biz/davanti-enoteca-del-mar?adjust_creative=oncXGL2aPIKrtJdnWeFSnA&utm_campaign=yelp_api_v3&utm_medium=api_v3_business_search&utm_source=oncXGL2aPIKrtJdnWeFSnA", "review_count": 598, "categories": [{"alias": "italian", "title": "Italian"}, {"alias": "tapas", "title": "Tapas Bars"}], "rating": 3.5, "coordinates": {"latitude": 32.952743, "longitude": -117.231917}, "transactions": [], "price": "$$", "location": {"address1": "12955 El Camino Real", "address2": "", "address3": "", "city": "Del Mar", "zip_code": "92130", "country": "US", "state": "CA", "display_address": ["12955 El Camino Real", "Del Mar, CA 92130"]}, "phone": "+18585195060", "display_phone": "(858) 519-5060", "distance": 10457.342035365218}, {"id": "Hp508UyzdPWPvXeo_b1ISg", "alias": "cicciottis-trattoria-italiana-and-seafood-carlsbad-2", "name": "Cicciotti's Trattoria Italiana & Seafood", "image_url": "https://s3-media2.fl.yelpcdn.com/bphoto/KfeFCSV_K5jviVZ9yG05zA/o.jpg", "is_closed": false, "url": "https://www.yelp.com/biz/cicciottis-trattoria-italiana-and-seafood-carlsbad-2?adjust_creative=oncXGL2aPIKrtJdnWeFSnA&utm_campaign=yelp_api_v3&utm_medium=api_v3_business_search&utm_source=oncXGL2aPIKrtJdnWeFSnA", "review_count": 353, "categories": [{"alias": "italian", "title": "Italian"}, {"alias": "seafood", "title": "Seafood"}, {"alias": "wine_bars", "title": "Wine Bars"}], "rating": 4.0, "coordinates": {"latitude": 33.1612004423715, "longitude": -117.348603644919}, "transactions": ["delivery", "pickup"], "price": "$$", "location": {"address1": "595 Grand Ave", "address2": "", "address3": null, "city": "Carlsbad", "zip_code": "92008", "country": "US", "state": "CA", "display_address": ["595 Grand Ave", "Carlsbad, CA 92008"]}, "phone": "+17609940553", "display_phone": "(760) 994-0553", "distance": 15632.36594923506}, {"id": "oDu9zioCsT-aFvgmmR4SPA", "alias": "olive-garden-italian-restaurant-carlsbad-2", "name": "Olive Garden Italian Restaurant", "image_url": "https://s3-media2.fl.yelpcdn.com/bphoto/4vhVDito2T-UeuzjzOdpsQ/o.jpg", "is_closed": false, "url": "https://www.yelp.com/biz/olive-garden-italian-restaurant-carlsbad-2?adjust_creative=oncXGL2aPIKrtJdnWeFSnA&utm_campaign=yelp_api_v3&utm_medium=api_v3_business_search&utm_source=oncXGL2aPIKrtJdnWeFSnA", "review_count": 321, "categories": [{"alias": "italian", "title": "Italian"}, {"alias": "salad", "title": "Salad"}], "rating": 3.5, "coordinates": {"latitude": 33.1766399862211, "longitude": -117.337510636985}, "transactions": [], "price": "$$", "location": {"address1": "1884 Marron Rd", "address2": "Bldg L", "address3": "", "city": "Carlsbad", "zip_code": "92008", "country": "US", "state": "CA", "display_address": ["1884 Marron Rd", "Bldg L", "Carlsbad, CA 92008"]}, "phone": "+17604341016", "display_phone": "(760) 434-1016", "distance": 16572.149699475114}, {"id": "dqJ-twV3Je5x5R-8N_8SOg", "alias": "dolce-pane-e-vino-rancho-santa-fe", "name": "Dolce Pane E Vino", "image_url": "https://s3-media2.fl.yelpcdn.com/bphoto/SRqlCzlhjto8nN4sPziZCw/o.jpg", "is_closed": false, "url": "https://www.yelp.com/biz/dolce-pane-e-vino-rancho-santa-fe?adjust_creative=oncXGL2aPIKrtJdnWeFSnA&utm_campaign=yelp_api_v3&utm_medium=api_v3_business_search&utm_source=oncXGL2aPIKrtJdnWeFSnA", "review_count": 156, "categories": [{"alias": "italian", "title": "Italian"}, {"alias": "wine_bars", "title": "Wine Bars"}], "rating": 4.0, "coordinates": {"latitude": 32.9897316167473, "longitude": -117.196397781372}, "transactions": [], "price": "$$", "location": {"address1": "16081 San Dieguito Rd", "address2": "", "address3": "Del Rayo Center", "city": "Rancho Santa Fe", "zip_code": "92067", "country": "US", "state": "CA", "display_address": ["16081 San Dieguito Rd", "Del Rayo Center", "Rancho Santa Fe, CA 92067"]}, "phone": "+18588321518", "display_phone": "(858) 832-1518", "distance": 8172.932152349075}, {"id": "dYOccn1az0n0blBWuory1Q", "alias": "roosevelt-pizzeria-carlsbad-3", "name": "Roosevelt Pizzeria", "image_url": "https://s3-media1.fl.yelpcdn.com/bphoto/hntv0gM16K84bjR0MprHXA/o.jpg", "is_closed": false, "url": "https://www.yelp.com/biz/roosevelt-pizzeria-carlsbad-3?adjust_creative=oncXGL2aPIKrtJdnWeFSnA&utm_campaign=yelp_api_v3&utm_medium=api_v3_business_search&utm_source=oncXGL2aPIKrtJdnWeFSnA", "review_count": 179, "categories": [{"alias": "pizza", "title": "Pizza"}, {"alias": "italian", "title": "Italian"}], "rating": 4.5, "coordinates": {"latitude": 33.15929, "longitude": -117.34738}, "transactions": [], "price": "$$", "location": {"address1": "3067 Roosevelt St", "address2": "", "address3": "", "city": "Carlsbad", "zip_code": "92008", "country": "US", "state": "CA", "display_address": ["3067 Roosevelt St", "Carlsbad, CA 92008"]}, "phone": "+17607309105", "display_phone": "(760) 730-9105", "distance": 15391.990406295565}, {"id": "n3b6lsqXk3TYSXHuWlangQ", "alias": "piacere-mio-del-sur-san-diego-2", "name": "Piacere Mio Del sur", "image_url": "https://s3-media3.fl.yelpcdn.com/bphoto/CO6pJpZLxDE_WEzvQXlOCA/o.jpg", "is_closed": false, "url": "https://www.yelp.com/biz/piacere-mio-del-sur-san-diego-2?adjust_creative=oncXGL2aPIKrtJdnWeFSnA&utm_campaign=yelp_api_v3&utm_medium=api_v3_business_search&utm_source=oncXGL2aPIKrtJdnWeFSnA", "review_count": 306, "categories": [{"alias": "pizza", "title": "Pizza"}, {"alias": "italian", "title": "Italian"}, {"alias": "bars", "title": "Bars"}], "rating": 4.0, "coordinates": {"latitude": 33.0209346352993, "longitude": -117.124258128689}, "transactions": ["restaurant_reservation"], "price": "$$", "location": {"address1": "16490 Paseo Del Sur", "address2": "Ste 135", "address3": "Del Sur Town Center", "city": "San Diego", "zip_code": "92127", "country": "US", "state": "CA", "display_address": ["16490 Paseo Del Sur", "Ste 135", "Del Sur Town Center", "San Diego, CA 92127"]}, "phone": "+18583128390", "display_phone": "(858) 312-8390", "distance": 12414.88083072529}, {"id": "I9UEJFT5sLdLnT30gaT7mQ", "alias": "nick-and-gs-rancho-santa-fe-4", "name": "Nick & G's", "image_url": "https://s3-media1.fl.yelpcdn.com/bphoto/LAP5kwzFWR3Dyk6oNW1FSg/o.jpg", "is_closed": false, "url": "https://www.yelp.com/biz/nick-and-gs-rancho-santa-fe-4?adjust_creative=oncXGL2aPIKrtJdnWeFSnA&utm_campaign=yelp_api_v3&utm_medium=api_v3_business_search&utm_source=oncXGL2aPIKrtJdnWeFSnA", "review_count": 62, "categories": [{"alias": "lounges", "title": "Lounges"}, {"alias": "italian", "title": "Italian"}, {"alias": "mediterranean", "title": "Mediterranean"}], "rating": 3.5, "coordinates": {"latitude": 33.02066, "longitude": -117.20281}, "transactions": [], "price": "$$", "location": {"address1": "6106 Paseo Delicias", "address2": "", "address3": null, "city": "Rancho Santa Fe", "zip_code": "92067", "country": "US", "state": "CA", "display_address": ["6106 Paseo Delicias", "Rancho Santa Fe, CA 92067"]}, "phone": "+18587711871", "display_phone": "(858) 771-1871", "distance": 5516.991598336752}, {"id": "oClXhXzCamXGO2AR64OYwA", "alias": "enoteca-del-fornaio-del-mar", "name": "Enoteca Del Fornaio", "image_url": "https://s3-media2.fl.yelpcdn.com/bphoto/algYtWWJxQ5NNxYQtA6HYA/o.jpg", "is_closed": false, "url": "https://www.yelp.com/biz/enoteca-del-fornaio-del-mar?adjust_creative=oncXGL2aPIKrtJdnWeFSnA&utm_campaign=yelp_api_v3&utm_medium=api_v3_business_search&utm_source=oncXGL2aPIKrtJdnWeFSnA", "review_count": 89, "categories": [{"alias": "wine_bars", "title": "Wine Bars"}, {"alias": "italian", "title": "Italian"}], "rating": 4.0, "coordinates": {"latitude": 32.9606448, "longitude": -117.2651495}, "transactions": [], "price": "$$", "location": {"address1": "1555 Camino Del Mar", "address2": "Ste 301", "address3": "", "city": "Del Mar", "zip_code": "92014", "country": "US", "state": "CA", "display_address": ["1555 Camino Del Mar", "Ste 301", "Del Mar, CA 92014"]}, "phone": "+18587558876", "display_phone": "(858) 755-8876", "distance": 9421.76356394603}, {"id": "tzWX3qRpa09sIlvdSRnh2Q", "alias": "cafe-luna-san-diego", "name": "Cafe Luna", "image_url": "https://s3-media2.fl.yelpcdn.com/bphoto/8e4QoJUzwUNONZ7Q_cfghQ/o.jpg", "is_closed": false, "url": "https://www.yelp.com/biz/cafe-luna-san-diego?adjust_creative=oncXGL2aPIKrtJdnWeFSnA&utm_campaign=yelp_api_v3&utm_medium=api_v3_business_search&utm_source=oncXGL2aPIKrtJdnWeFSnA", "review_count": 415, "categories": [{"alias": "italian", "title": "Italian"}], "rating": 4.0, "coordinates": {"latitude": 32.97749, "longitude": -117.08277}, "transactions": ["restaurant_reservation"], "price": "$$", "location": {"address1": "11040 Rancho Carmel Dr", "address2": "", "address3": "", "city": "San Diego", "zip_code": "92128", "country": "US", "state": "CA", "display_address": ["11040 Rancho Carmel Dr", "San Diego, CA 92128"]}, "phone": "+18586730077", "display_phone": "(858) 673-0077", "distance": 17662.802784329586}, {"id": "ZSKfwEepB1-4tpRXx_qVbQ", "alias": "spiritos-italian-diner-carlsbad", "name": "Spirito's Italian Diner", "image_url": "https://s3-media3.fl.yelpcdn.com/bphoto/C5Bzp3rJZ3bswnsSLmj6tw/o.jpg", "is_closed": false, "url": "https://www.yelp.com/biz/spiritos-italian-diner-carlsbad?adjust_creative=oncXGL2aPIKrtJdnWeFSnA&utm_campaign=yelp_api_v3&utm_medium=api_v3_business_search&utm_source=oncXGL2aPIKrtJdnWeFSnA", "review_count": 470, "categories": [{"alias": "italian", "title": "Italian"}], "rating": 4.5, "coordinates": {"latitude": 33.180249, "longitude": -117.324982}, "transactions": [], "price": "$$", "location": {"address1": "2508 El Camino Real", "address2": "", "address3": "", "city": "Carlsbad", "zip_code": "92008", "country": "US", "state": "CA", "display_address": ["2508 El Camino Real", "Carlsbad, CA 92008"]}, "phone": "+17607207111", "display_phone": "(760) 720-7111", "distance": 16426.66369542798}, {"id": "5OTTzfZdp5ld_L5xCN3RAQ", "alias": "cucina-amore-san-marcos-5", "name": "Cucina Amore", "image_url": "https://s3-media2.fl.yelpcdn.com/bphoto/abc7nXpH2KyWcTIO6lnvmg/o.jpg", "is_closed": false, "url": "https://www.yelp.com/biz/cucina-amore-san-marcos-5?adjust_creative=oncXGL2aPIKrtJdnWeFSnA&utm_campaign=yelp_api_v3&utm_medium=api_v3_business_search&utm_source=oncXGL2aPIKrtJdnWeFSnA", "review_count": 245, "categories": [{"alias": "italian", "title": "Italian"}, {"alias": "gelato", "title": "Gelato"}, {"alias": "pizza", "title": "Pizza"}], "rating": 4.0, "coordinates": {"latitude": 33.1318662450634, "longitude": -117.205854914526}, "transactions": ["delivery", "pickup"], "price": "$$", "location": {"address1": "679 S Rancho Santa Fe Rd", "address2": "", "address3": "", "city": "San Marcos", "zip_code": "92078", "country": "US", "state": "CA", "display_address": ["679 S Rancho Santa Fe Rd", "San Marcos, CA 92078"]}, "phone": "+17603046939", "display_phone": "(760) 304-6939", "distance": 10673.891784191073}, {"id": "uBX1D3n92z-eKYAZwAXuFg", "alias": "pasta-bravo-encinitas", "name": "Pasta Bravo", "image_url": "", "is_closed": false, "url": "https://www.yelp.com/biz/pasta-bravo-encinitas?adjust_creative=oncXGL2aPIKrtJdnWeFSnA&utm_campaign=yelp_api_v3&utm_medium=api_v3_business_search&utm_source=oncXGL2aPIKrtJdnWeFSnA", "review_count": 2, "categories": [{"alias": "italian", "title": "Italian"}], "rating": 2.5, "coordinates": {"latitude": 33.0585327148438, "longitude": -117.255516052246}, "transactions": [], "price": "$", "location": {"address1": "30465 Avenida Delas", "address2": "Fl ores", "address3": "", "city": "Encinitas", "zip_code": "92024", "country": "US", "state": "CA", "display_address": ["30465 Avenida Delas", "Fl ores", "Encinitas, CA 92024"]}, "phone": "+17607537434", "display_phone": "(760) 753-7434", "distance": 146.34734300446186}], "total": 136, "region": {"center": {"longitude": -117.25433349609375, "latitude": 33.04488992556048}}}