{"businesses": [{"id": "9N8vtWrudK9jUrPqi5WfRw", "alias": "kai-ola-sushi-encinitas", "name": "Kai Ola Sushi", "image_url": "https://s3-media1.fl.yelpcdn.com/bphoto/hxgb5EDARxlFHPpDUExijw/o.jpg", "is_closed": false, "url": "https://www.yelp.com/biz/kai-ola-sushi-encinitas?adjust_creative=oncXGL2aPIKrtJdnWeFSnA&utm_campaign=yelp_api_v3&utm_medium=api_v3_business_search&utm_source=oncXGL2aPIKrtJdnWeFSnA", "review_count": 148, "categories": [{"alias": "sushi", "title": "Sushi Bars"}, {"alias": "japanese", "title": "Japanese"}, {"alias": "seafood", "title": "Seafood"}], "rating": 4.5, "coordinates": {"latitude": 33.0649017433479, "longitude": -117.302544926373}, "transactions": [], "price": "$$", "location": {"address1": "918 N Coast Hwy", "address2": "", "address3": null, "city": "Encinitas", "zip_code": "92024", "country": "US", "state": "CA", "display_address": ["918 N Coast Hwy", "Encinitas, CA 92024"]}, "phone": "+17604522493", "display_phone": "(760) 452-2493", "distance": 5020.454803654742}, {"id": "Vyebp-1299IK7McClmNPew", "alias": "rooster-ramen-encinitas-10", "name": "Rooster Ramen", "image_url": "https://s3-media4.fl.yelpcdn.com/bphoto/7dImBQo6G5407VskHRt3Dg/o.jpg", "is_closed": false, "url": "https://www.yelp.com/biz/rooster-ramen-encinitas-10?adjust_creative=oncXGL2aPIKrtJdnWeFSnA&utm_campaign=yelp_api_v3&utm_medium=api_v3_business_search&utm_source=oncXGL2aPIKrtJdnWeFSnA", "review_count": 43, "categories": [{"alias": "ramen", "title": "Ramen"}], "rating": 4.5, "coordinates": {"latitude": 33.0644904619232, "longitude": -117.30256860431}, "transactions": [], "price": "$$", "location": {"address1": "914 N Coast Hwy 101", "address2": null, "address3": "", "city": "Encinitas", "zip_code": "92024", "country": "US", "state": "CA", "display_address": ["914 N Coast Hwy 101", "Encinitas, CA 92024"]}, "phone": "+17602059600", "display_phone": "(760) 205-9600", "distance": 4995.884964186798}, {"id": "d0uC582uvl_vMD6amLwPjw", "alias": "kaito-sushi-encinitas", "name": "Kaito Sushi", "image_url": "https://s3-media1.fl.yelpcdn.com/bphoto/wu-BqRAxP5w1oauho9pjrg/o.jpg", "is_closed": false, "url": "https://www.yelp.com/biz/kaito-sushi-encinitas?adjust_creative=oncXGL2aPIKrtJdnWeFSnA&utm_campaign=yelp_api_v3&utm_medium=api_v3_business_search&utm_source=oncXGL2aPIKrtJdnWeFSnA", "review_count": 491, "categories": [{"alias": "japanese", "title": "Japanese"}, {"alias": "sushi", "title": "Sushi Bars"}], "rating": 4.5, "coordinates": {"latitude": 33.0472144282918, "longitude": -117.25975364457}, "transactions": [], "price": "$$$", "location": {"address1": "130-A N El Camino Real", "address2": "", "address3": "", "city": "Encinitas", "zip_code": "92024", "country": "US", "state": "CA", "display_address": ["130-A N El Camino Real", "Encinitas, CA 92024"]}, "phone": "+17606342746", "display_phone": "(760) 634-2746", "distance": 628.3806794572073}, {"id": "_n8HJHY2tmqu_e7PJB5eVQ", "alias": "hoshi-japanese-steakhouse-and-sushi-encinitas-3", "name": "Hoshi Japanese Steakhouse & Sushi", "image_url": "https://s3-media2.fl.yelpcdn.com/bphoto/qGBChnPMjl3fpk6kD-jQXQ/o.jpg", "is_closed": false, "url": "https://www.yelp.com/biz/hoshi-japanese-steakhouse-and-sushi-encinitas-3?adjust_creative=oncXGL2aPIKrtJdnWeFSnA&utm_campaign=yelp_api_v3&utm_medium=api_v3_business_search&utm_source=oncXGL2aPIKrtJdnWeFSnA", "review_count": 24, "categories": [{"alias": "sushi", "title": "Sushi Bars"}, {"alias": "steak", "title": "Steakhouses"}, {"alias": "teppanyaki", "title": "Teppanyaki"}], "rating": 4.0, "coordinates": {"latitude": 33.0424258, "longitude": -117.2594351}, "transactions": ["delivery", "pickup"], "location": {"address1": "211 S El Camino Real", "address2": "Ste C", "address3": null, "city": "Encinitas", "zip_code": "92024", "country": "US", "state": "CA", "display_address": ["211 S El Camino Real", "Ste C", "Encinitas, CA 92024"]}, "phone": "+17606320888", "display_phone": "(760) 632-0888", "distance": 414.0217236357006}, {"id": "23T_cchBm0f45euKTRWtaA", "alias": "east-village-asian-diner-encinitas-2", "name": "East Village Asian Diner", "image_url": "https://s3-media4.fl.yelpcdn.com/bphoto/_jSLcXme4IsQnyq0q14lDQ/o.jpg", "is_closed": false, "url": "https://www.yelp.com/biz/east-village-asian-diner-encinitas-2?adjust_creative=oncXGL2aPIKrtJdnWeFSnA&utm_campaign=yelp_api_v3&utm_medium=api_v3_business_search&utm_source=oncXGL2aPIKrtJdnWeFSnA", "review_count": 484, "categories": [{"alias": "asianfusion", "title": "Asian Fusion"}, {"alias": "japanese", "title": "Japanese"}, {"alias": "korean", "title": "Korean"}], "rating": 4.0, "coordinates": {"latitude": 33.04421, "longitude": -117.2939}, "transactions": [], "price": "$$", "location": {"address1": "628 S Coast Hwy 101", "address2": "", "address3": "", "city": "Encinitas", "zip_code": "92024", "country": "US", "state": "CA", "display_address": ["628 S Coast Hwy 101", "Encinitas, CA 92024"]}, "phone": "+17607538700", "display_phone": "(760) 753-8700", "distance": 3684.5632788127295}, {"id": "M4vCrliyV7_5a1oU_k9rpA", "alias": "hooked-on-sushi-encinitas-2", "name": "Hooked On Sushi", "image_url": "https://s3-media4.fl.yelpcdn.com/bphoto/-EVUhiTw4x6PrTa-2mNbPQ/o.jpg", "is_closed": false, "url": "https://www.yelp.com/biz/hooked-on-sushi-encinitas-2?adjust_creative=oncXGL2aPIKrtJdnWeFSnA&utm_campaign=yelp_api_v3&utm_medium=api_v3_business_search&utm_source=oncXGL2aPIKrtJdnWeFSnA", "review_count": 299, "categories": [{"alias": "japanese", "title": "Japanese"}, {"alias": "sushi", "title": "Sushi Bars"}, {"alias": "asianfusion", "title": "Asian Fusion"}], "rating": 4.5, "coordinates": {"latitude": 33.0526328, "longitude": -117.261493}, "transactions": ["pickup"], "price": "$$", "location": {"address1": "272 N El Camino Real", "address2": "Ste D", "address3": "", "city": "Encinitas", "zip_code": "92024", "country": "US", "state": "CA", "display_address": ["272 N El Camino Real", "Ste D", "Encinitas, CA 92024"]}, "phone": "+17604875410", "display_phone": "(760) 487-5410", "distance": 1089.2882657277223}, {"id": "MLlI6Qiuyr9WXbzJhCzU9A", "alias": "beach-bowls-san-elijo-encinitas", "name": "Beach Bowls San Elijo", "image_url": "https://s3-media1.fl.yelpcdn.com/bphoto/3u2uB0FEUr_aB7S4UfQgWg/o.jpg", "is_closed": false, "url": "https://www.yelp.com/biz/beach-bowls-san-elijo-encinitas?adjust_creative=oncXGL2aPIKrtJdnWeFSnA&utm_campaign=yelp_api_v3&utm_medium=api_v3_business_search&utm_source=oncXGL2aPIKrtJdnWeFSnA", "review_count": 1, "categories": [{"alias": "japanese", "title": "Japanese"}, {"alias": "hawaiian", "title": "Hawaiian"}], "rating": 5.0, "coordinates": {"latitude": 33.0211109133061, "longitude": -117.284618653357}, "transactions": [], "location": {"address1": "2050 S Coast Hwy 101", "address2": "", "address3": null, "city": "Encinitas", "zip_code": "92007", "country": "US", "state": "CA", "display_address": ["2050 S Coast Hwy 101", "Encinitas, CA 92007"]}, "phone": "+17609943667", "display_phone": "(760) 994-3667", "distance": 3868.0476777833924}, {"id": "lKOHqbbrcSGd661ygX6MXQ", "alias": "ramen-factory-carlsbad", "name": "Ramen Factory", "image_url": "https://s3-media1.fl.yelpcdn.com/bphoto/PkKv9jFE1C9VRnesl6PObg/o.jpg", "is_closed": false, "url": "https://www.yelp.com/biz/ramen-factory-carlsbad?adjust_creative=oncXGL2aPIKrtJdnWeFSnA&utm_campaign=yelp_api_v3&utm_medium=api_v3_business_search&utm_source=oncXGL2aPIKrtJdnWeFSnA", "review_count": 287, "categories": [{"alias": "ramen", "title": "Ramen"}, {"alias": "bars", "title": "Bars"}], "rating": 3.5, "coordinates": {"latitude": 33.1019551674793, "longitude": -117.311825099193}, "transactions": ["pickup"], "price": "$$", "location": {"address1": "7040 Avenida Encinas", "address2": "Ste 111", "address3": "", "city": "Carlsbad", "zip_code": "92011", "country": "US", "state": "CA", "display_address": ["7040 Avenida Encinas", "Ste 111", "Carlsbad, CA 92011"]}, "phone": "+17604486183", "display_phone": "(760) 448-6183", "distance": 8304.251011599428}, {"id": "JRfedznrVJEKT5V6myU_sw", "alias": "umami-japanese-san-marcos-2", "name": "Umami Japanese", "image_url": "https://s3-media1.fl.yelpcdn.com/bphoto/4bHGc1Bi-H_ypQ7hyfvIiw/o.jpg", "is_closed": false, "url": "https://www.yelp.com/biz/umami-japanese-san-marcos-2?adjust_creative=oncXGL2aPIKrtJdnWeFSnA&utm_campaign=yelp_api_v3&utm_medium=api_v3_business_search&utm_source=oncXGL2aPIKrtJdnWeFSnA", "review_count": 28, "categories": [{"alias": "japanese", "title": "Japanese"}], "rating": 4.5, "coordinates": {"latitude": 33.1346715, "longitude": -117.159733}, "transactions": [], "location": {"address1": "251 North City Dr", "address2": "Ste 122", "address3": "", "city": "San Marcos", "zip_code": "92096", "country": "US", "state": "CA", "display_address": ["251 North City Dr", "Ste 122", "San Marcos, CA 92096"]}, "phone": "+17604104129", "display_phone": "(760) 410-4129", "distance": 13316.72310652469}, {"id": "uJbBxJnGhXkAXtLCmxrszg", "alias": "menya-ultra-san-diego-4", "name": "Menya Ultra", "image_url": "https://s3-media4.fl.yelpcdn.com/bphoto/uqARAaWhz9l-OpG7uVokIg/o.jpg", "is_closed": false, "url": "https://www.yelp.com/biz/menya-ultra-san-diego-4?adjust_creative=oncXGL2aPIKrtJdnWeFSnA&utm_campaign=yelp_api_v3&utm_medium=api_v3_business_search&utm_source=oncXGL2aPIKrtJdnWeFSnA", "review_count": 39, "categories": [{"alias": "ramen", "title": "Ramen"}, {"alias": "noodles", "title": "Noodles"}], "rating": 4.5, "coordinates": {"latitude": 32.9112446910774, "longitude": -117.148219498148}, "transactions": [], "location": {"address1": "8141 Mira Mesa Blvd", "address2": null, "address3": "", "city": "San Diego", "zip_code": "92126", "country": "US", "state": "CA", "display_address": ["8141 Mira Mesa Blvd", "San Diego, CA 92126"]}, "phone": "+18582055494", "display_phone": "(858) 205-5494", "distance": 17855.348124321914}, {"id": "PT7mWAroPG42aRPaD0rTew", "alias": "umi-restaurant-encinitas", "name": "UMI-Restaurant", "image_url": "https://s3-media2.fl.yelpcdn.com/bphoto/SikavGkLyi5dY1xkb0Vztg/o.jpg", "is_closed": false, "url": "https://www.yelp.com/biz/umi-restaurant-encinitas?adjust_creative=oncXGL2aPIKrtJdnWeFSnA&utm_campaign=yelp_api_v3&utm_medium=api_v3_business_search&utm_source=oncXGL2aPIKrtJdnWeFSnA", "review_count": 76, "categories": [{"alias": "sushi", "title": "Sushi Bars"}, {"alias": "ramen", "title": "Ramen"}, {"alias": "noodles", "title": "Noodles"}], "rating": 4.0, "coordinates": {"latitude": 33.07045, "longitude": -117.30456}, "transactions": [], "price": "$$", "location": {"address1": "1246 North Coast Hwy 101", "address2": "", "address3": null, "city": "Encinitas", "zip_code": "92024", "country": "US", "state": "CA", "display_address": ["1246 North Coast Hwy 101", "Encinitas, CA 92024"]}, "phone": "+17604421900", "display_phone": "(760) 442-1900", "distance": 5477.506857214152}, {"id": "wmYqjGK8X7Qh8YZIDBfJkg", "alias": "sushi-bar-blue-fin-encinitas-2", "name": "Sushi Bar Blue Fin", "image_url": "https://s3-media3.fl.yelpcdn.com/bphoto/dyPqJsGknTn3DVU8dyugKQ/o.jpg", "is_closed": false, "url": "https://www.yelp.com/biz/sushi-bar-blue-fin-encinitas-2?adjust_creative=oncXGL2aPIKrtJdnWeFSnA&utm_campaign=yelp_api_v3&utm_medium=api_v3_business_search&utm_source=oncXGL2aPIKrtJdnWeFSnA", "review_count": 289, "categories": [{"alias": "sushi", "title": "Sushi Bars"}, {"alias": "japanese", "title": "Japanese"}, {"alias": "seafood", "title": "Seafood"}], "rating": 3.5, "coordinates": {"latitude": 33.0521409, "longitude": -117.2606864}, "transactions": [], "price": "$$", "location": {"address1": "257 N El Camino Real", "address2": "", "address3": "", "city": "Encinitas", "zip_code": "92024", "country": "US", "state": "CA", "display_address": ["257 N El Camino Real", "Encinitas, CA 92024"]}, "phone": "+17604791555", "display_phone": "(760) 479-1555", "distance": 989.5428811604093}, {"id": "h7orHki9hAlthq4ZF6Sx4A", "alias": "sushi-kuchi-carlsbad-7", "name": "Sushi Kuchi", "image_url": "https://s3-media2.fl.yelpcdn.com/bphoto/Lnn6COKSNkrBk94LCewWpA/o.jpg", "is_closed": false, "url": "https://www.yelp.com/biz/sushi-kuchi-carlsbad-7?adjust_creative=oncXGL2aPIKrtJdnWeFSnA&utm_campaign=yelp_api_v3&utm_medium=api_v3_business_search&utm_source=oncXGL2aPIKrtJdnWeFSnA", "review_count": 436, "categories": [{"alias": "japanese", "title": "Japanese"}, {"alias": "sushi", "title": "Sushi Bars"}], "rating": 4.0, "coordinates": {"latitude": 33.1005245363228, "longitude": -117.309786877571}, "transactions": [], "price": "$$", "location": {"address1": "7180 Avenida Encinas", "address2": "Ste 100", "address3": "", "city": "Carlsbad", "zip_code": "92011", "country": "US", "state": "CA", "display_address": ["7180 Avenida Encinas", "Ste 100", "Carlsbad, CA 92011"]}, "phone": "+17604383222", "display_phone": "(760) 438-3222", "distance": 8060.323100607039}, {"id": "TSSfmgrpOfGomSz9fTQUmA", "alias": "yoshino-japanese-deli-carlsbad", "name": "Yoshino Japanese Deli", "image_url": "https://s3-media1.fl.yelpcdn.com/bphoto/8P632tFx8oym5M-7pqfemA/o.jpg", "is_closed": false, "url": "https://www.yelp.com/biz/yoshino-japanese-deli-carlsbad?adjust_creative=oncXGL2aPIKrtJdnWeFSnA&utm_campaign=yelp_api_v3&utm_medium=api_v3_business_search&utm_source=oncXGL2aPIKrtJdnWeFSnA", "review_count": 726, "categories": [{"alias": "japanese", "title": "Japanese"}, {"alias": "sushi", "title": "Sushi Bars"}, {"alias": "delis", "title": "Delis"}], "rating": 4.5, "coordinates": {"latitude": 33.1603163, "longitude": -117.3495182}, "transactions": [], "price": "$", "location": {"address1": "2913 State St", "address2": "", "address3": "", "city": "Carlsbad", "zip_code": "92008", "country": "US", "state": "CA", "display_address": ["2913 State St", "Carlsbad, CA 92008"]}, "phone": "+17608890309", "display_phone": "(760) 889-0309", "distance": 15607.586188578984}, {"id": "SHl93rFlUCUBvG9-oydu_Q", "alias": "benihana-carlsbad", "name": "Benihana", "image_url": "https://s3-media1.fl.yelpcdn.com/bphoto/LJnYAW1kgVkNGbMJPEiPHw/o.jpg", "is_closed": false, "url": "https://www.yelp.com/biz/benihana-carlsbad?adjust_creative=oncXGL2aPIKrtJdnWeFSnA&utm_campaign=yelp_api_v3&utm_medium=api_v3_business_search&utm_source=oncXGL2aPIKrtJdnWeFSnA", "review_count": 558, "categories": [{"alias": "sushi", "title": "Sushi Bars"}, {"alias": "japanese", "title": "Japanese"}, {"alias": "noodles", "title": "Noodles"}], "rating": 3.0, "coordinates": {"latitude": 33.1041784658514, "longitude": -117.3126635}, "transactions": ["delivery", "pickup"], "price": "$$", "location": {"address1": "755 Raintree Dr", "address2": "", "address3": "", "city": "Carlsbad", "zip_code": "92009", "country": "US", "state": "CA", "display_address": ["755 Raintree Dr", "Carlsbad, CA 92009"]}, "phone": "+17609298311", "display_phone": "(760) 929-8311", "distance": 8544.087139660405}, {"id": "MpBbBVux96dH36raE8mALQ", "alias": "ken-sushi-workshop-san-diego-3", "name": "Ken Sushi Workshop", "image_url": "https://s3-media3.fl.yelpcdn.com/bphoto/cjcrQi9eEUGDbevCKuAGAw/o.jpg", "is_closed": false, "url": "https://www.yelp.com/biz/ken-sushi-workshop-san-diego-3?adjust_creative=oncXGL2aPIKrtJdnWeFSnA&utm_campaign=yelp_api_v3&utm_medium=api_v3_business_search&utm_source=oncXGL2aPIKrtJdnWeFSnA", "review_count": 463, "categories": [{"alias": "japanese", "title": "Japanese"}, {"alias": "gourmet", "title": "Specialty Food"}, {"alias": "sushi", "title": "Sushi Bars"}], "rating": 4.5, "coordinates": {"latitude": 32.9264557231392, "longitude": -117.237016705725}, "transactions": [], "price": "$$$", "location": {"address1": "11375 El Camino Real", "address2": "", "address3": "", "city": "San Diego", "zip_code": "92130", "country": "US", "state": "CA", "display_address": ["11375 El Camino Real", "San Diego, CA 92130"]}, "phone": "+18587931200", "display_phone": "(858) 793-1200", "distance": 13267.943857977763}, {"id": "3yYNEZEUPGha8eTziQ_U7g", "alias": "gyu-kaku-japanese-bbq-san-diego-2", "name": "Gyu-Kaku Japanese BBQ", "image_url": "https://s3-media2.fl.yelpcdn.com/bphoto/Orf5KT1NJ3Gxf6O3S0kh7Q/o.jpg", "is_closed": false, "url": "https://www.yelp.com/biz/gyu-kaku-japanese-bbq-san-diego-2?adjust_creative=oncXGL2aPIKrtJdnWeFSnA&utm_campaign=yelp_api_v3&utm_medium=api_v3_business_search&utm_source=oncXGL2aPIKrtJdnWeFSnA", "review_count": 901, "categories": [{"alias": "japanese", "title": "Japanese"}, {"alias": "bbq", "title": "Barbeque"}], "rating": 4.0, "coordinates": {"latitude": 32.9148970454609, "longitude": -117.114134112891}, "transactions": [], "price": "$$", "location": {"address1": "9844 Hibert St", "address2": "Ste G-1", "address3": "", "city": "San Diego", "zip_code": "92131", "country": "US", "state": "CA", "display_address": ["9844 Hibert St", "Ste G-1", "San Diego, CA 92131"]}, "phone": "+18586933790", "display_phone": "(858) 693-3790", "distance": 19492.340562500965}, {"id": "iczXD1EwZkPo9kAKKgKZlg", "alias": "shimbashi-izakaya-del-mar", "name": "Shimbashi Izakaya", "image_url": "https://s3-media4.fl.yelpcdn.com/bphoto/l5DcEhM8MSNMTL50sSBV0A/o.jpg", "is_closed": false, "url": "https://www.yelp.com/biz/shimbashi-izakaya-del-mar?adjust_creative=oncXGL2aPIKrtJdnWeFSnA&utm_campaign=yelp_api_v3&utm_medium=api_v3_business_search&utm_source=oncXGL2aPIKrtJdnWeFSnA", "review_count": 359, "categories": [{"alias": "sushi", "title": "Sushi Bars"}, {"alias": "japanese", "title": "Japanese"}], "rating": 4.0, "coordinates": {"latitude": 32.9606268951093, "longitude": -117.265101009262}, "transactions": ["delivery", "pickup"], "price": "$$$", "location": {"address1": "1555 Camino Del Mar", "address2": "Ste 201", "address3": "", "city": "Del Mar", "zip_code": "92014", "country": "US", "state": "CA", "display_address": ["1555 Camino Del Mar", "Ste 201", "Del Mar, CA 92014"]}, "phone": "+18585230479", "display_phone": "(858) 523-0479", "distance": 9423.260160341746}, {"id": "XdH2dcLoeXSF6W8QvnebkA", "alias": "sushi-house-encinitas", "name": "Sushi House", "image_url": "https://s3-media3.fl.yelpcdn.com/bphoto/nuNri9rznapzKNJ5-Iv_-Q/o.jpg", "is_closed": false, "url": "https://www.yelp.com/biz/sushi-house-encinitas?adjust_creative=oncXGL2aPIKrtJdnWeFSnA&utm_campaign=yelp_api_v3&utm_medium=api_v3_business_search&utm_source=oncXGL2aPIKrtJdnWeFSnA", "review_count": 218, "categories": [{"alias": "sushi", "title": "Sushi Bars"}, {"alias": "japanese", "title": "Japanese"}, {"alias": "poke", "title": "Poke"}], "rating": 3.5, "coordinates": {"latitude": 33.049252677154, "longitude": -117.26179165619}, "transactions": ["pickup"], "price": "$$", "location": {"address1": "214 N El Camino Real", "address2": "Ste A", "address3": "", "city": "Encinitas", "zip_code": "92024", "country": "US", "state": "CA", "display_address": ["214 N El Camino Real", "Ste A", "Encinitas, CA 92024"]}, "phone": "+17602746902", "display_phone": "(760) 274-6902", "distance": 847.6815728555196}, {"id": "aMW2YF4LQdzfaPrgQHP9Bw", "alias": "sushi-exchange-san-diego", "name": "Sushi Exchange", "image_url": "https://s3-media2.fl.yelpcdn.com/bphoto/r6tlFWVu6nx9K-VfDCoazQ/o.jpg", "is_closed": false, "url": "https://www.yelp.com/biz/sushi-exchange-san-diego?adjust_creative=oncXGL2aPIKrtJdnWeFSnA&utm_campaign=yelp_api_v3&utm_medium=api_v3_business_search&utm_source=oncXGL2aPIKrtJdnWeFSnA", "review_count": 217, "categories": [{"alias": "sushi", "title": "Sushi Bars"}, {"alias": "ramen", "title": "Ramen"}, {"alias": "poke", "title": "Poke"}], "rating": 4.5, "coordinates": {"latitude": 32.9703007078936, "longitude": -117.160718766759}, "transactions": ["delivery", "pickup"], "price": "$$", "location": {"address1": "13859 Carmel Valley Rd", "address2": "Ste A", "address3": null, "city": "San Diego", "zip_code": "92130", "country": "US", "state": "CA", "display_address": ["13859 Carmel Valley Rd", "Ste A", "San Diego, CA 92130"]}, "phone": "+18583657951", "display_phone": "(858) 365-7951", "distance": 12041.2261286882}, {"id": "Hqk7azstDh8NpBMXOTEwhw", "alias": "j-box-carlsbad", "name": "J BOX", "image_url": "https://s3-media2.fl.yelpcdn.com/bphoto/h81ddL3qvvs6QnZvjI5QUw/o.jpg", "is_closed": false, "url": "https://www.yelp.com/biz/j-box-carlsbad?adjust_creative=oncXGL2aPIKrtJdnWeFSnA&utm_campaign=yelp_api_v3&utm_medium=api_v3_business_search&utm_source=oncXGL2aPIKrtJdnWeFSnA", "review_count": 89, "categories": [{"alias": "japanese", "title": "Japanese"}, {"alias": "asianfusion", "title": "Asian Fusion"}, {"alias": "korean", "title": "Korean"}], "rating": 4.0, "coordinates": {"latitude": 33.1347745768318, "longitude": -117.287347264279}, "transactions": [], "price": "$$", "location": {"address1": "5814 Van Allen Way", "address2": "Ste 135", "address3": "", "city": "Carlsbad", "zip_code": "92008", "country": "US", "state": "CA", "display_address": ["5814 Van Allen Way", "Ste 135", "Carlsbad, CA 92008"]}, "phone": "+17604310056", "display_phone": "(760) 431-0056", "distance": 10457.216756428854}, {"id": "0VRf2BzRjtbl_s6wJH4z4g", "alias": "teri-cafe-oceanside", "name": "Teri Cafe", "image_url": "https://s3-media2.fl.yelpcdn.com/bphoto/ohSXu2p6wAiFBwzgnrAKlQ/o.jpg", "is_closed": false, "url": "https://www.yelp.com/biz/teri-cafe-oceanside?adjust_creative=oncXGL2aPIKrtJdnWeFSnA&utm_campaign=yelp_api_v3&utm_medium=api_v3_business_search&utm_source=oncXGL2aPIKrtJdnWeFSnA", "review_count": 784, "categories": [{"alias": "ramen", "title": "Ramen"}, {"alias": "sushi", "title": "Sushi Bars"}, {"alias": "noodles", "title": "Noodles"}], "rating": 4.0, "coordinates": {"latitude": 33.1856468732919, "longitude": -117.327160384656}, "transactions": [], "price": "$", "location": {"address1": "2216 S El Camino Real", "address2": "Ste 123", "address3": "", "city": "Oceanside", "zip_code": "92054", "country": "US", "state": "CA", "display_address": ["2216 S El Camino Real", "Ste 123", "Oceanside, CA 92054"]}, "phone": "+17607228399", "display_phone": "(760) 722-8399", "distance": 17057.895796580502}, {"id": "Em8TfihBtB17pawo3xW9EA", "alias": "samurai-japanese-restaurant-solana-beach", "name": "Samurai Japanese Restaurant", "image_url": "https://s3-media1.fl.yelpcdn.com/bphoto/TIOUkmxbG6fHIjAZcixc4A/o.jpg", "is_closed": false, "url": "https://www.yelp.com/biz/samurai-japanese-restaurant-solana-beach?adjust_creative=oncXGL2aPIKrtJdnWeFSnA&utm_campaign=yelp_api_v3&utm_medium=api_v3_business_search&utm_source=oncXGL2aPIKrtJdnWeFSnA", "review_count": 289, "categories": [{"alias": "japanese", "title": "Japanese"}, {"alias": "sushi", "title": "Sushi Bars"}, {"alias": "steak", "title": "Steakhouses"}], "rating": 3.5, "coordinates": {"latitude": 32.994997, "longitude": -117.252217}, "transactions": [], "price": "$$", "location": {"address1": "979 Lomas Santa Fe Dr", "address2": null, "address3": "", "city": "Solana Beach", "zip_code": "92075", "country": "US", "state": "CA", "display_address": ["979 Lomas Santa Fe Dr", "Solana Beach, CA 92075"]}, "phone": "+18584810032", "display_phone": "(858) 481-0032", "distance": 5551.34236707798}, {"id": "-0HxZmRZ2chkYhJfPoGwbQ", "alias": "369-ramen-and-poke-and-chinese-food-poway-2", "name": "369 Ramen & Poke & Chinese Food", "image_url": "https://s3-media3.fl.yelpcdn.com/bphoto/bf86q6biLUonpH3urJYS1Q/o.jpg", "is_closed": false, "url": "https://www.yelp.com/biz/369-ramen-and-poke-and-chinese-food-poway-2?adjust_creative=oncXGL2aPIKrtJdnWeFSnA&utm_campaign=yelp_api_v3&utm_medium=api_v3_business_search&utm_source=oncXGL2aPIKrtJdnWeFSnA", "review_count": 46, "categories": [{"alias": "ramen", "title": "Ramen"}, {"alias": "poke", "title": "Poke"}, {"alias": "chinese", "title": "Chinese"}], "rating": 4.0, "coordinates": {"latitude": 32.95089, "longitude": -117.06282}, "transactions": ["delivery", "pickup"], "location": {"address1": "12373 Poway Rd", "address2": "Ste A", "address3": "", "city": "Poway", "zip_code": "92064", "country": "US", "state": "CA", "display_address": ["12373 Poway Rd", "Ste A", "Poway, CA 92064"]}, "phone": "+18586682887", "display_phone": "(858) 668-2887", "distance": 20681.12728602217}, {"id": "eq93PJ6ZzQwlrH13VNVqWw", "alias": "sushi4reel-oceanside", "name": "Sushi4Reel", "image_url": "https://s3-media2.fl.yelpcdn.com/bphoto/JE4Gff12-fTwi44GJ8QrZQ/o.jpg", "is_closed": false, "url": "https://www.yelp.com/biz/sushi4reel-oceanside?adjust_creative=oncXGL2aPIKrtJdnWeFSnA&utm_campaign=yelp_api_v3&utm_medium=api_v3_business_search&utm_source=oncXGL2aPIKrtJdnWeFSnA", "review_count": 305, "categories": [{"alias": "sushi", "title": "Sushi Bars"}, {"alias": "seafood", "title": "Seafood"}, {"alias": "ramen", "title": "Ramen"}], "rating": 4.5, "coordinates": {"latitude": 33.2163251349678, "longitude": -117.271781936288}, "transactions": ["delivery", "pickup"], "price": "$$", "location": {"address1": "4750 Oceanside Blvd", "address2": "Ste A20", "address3": "", "city": "Oceanside", "zip_code": "92056", "country": "US", "state": "CA", "display_address": ["4750 Oceanside Blvd", "Ste A20", "Oceanside, CA 92056"]}, "phone": "+17606596784", "display_phone": "(760) 659-6784", "distance": 19131.819682745245}, {"id": "QkCcRGg3hnISVuh2PlTOog", "alias": "ramen-menma-basso-drillman-oceanside-oceanside", "name": "Ramen MENMA - Basso Drillman Oceanside", "image_url": "https://s3-media4.fl.yelpcdn.com/bphoto/ed4qx4k0wImrQ1W_8zWpew/o.jpg", "is_closed": false, "url": "https://www.yelp.com/biz/ramen-menma-basso-drillman-oceanside-oceanside?adjust_creative=oncXGL2aPIKrtJdnWeFSnA&utm_campaign=yelp_api_v3&utm_medium=api_v3_business_search&utm_source=oncXGL2aPIKrtJdnWeFSnA", "review_count": 82, "categories": [{"alias": "ramen", "title": "Ramen"}], "rating": 4.0, "coordinates": {"latitude": 33.19598, "longitude": -117.37894}, "transactions": [], "price": "$$", "location": {"address1": "509 Mission Ave", "address2": null, "address3": "", "city": "Oceanside", "zip_code": "92054", "country": "US", "state": "CA", "display_address": ["509 Mission Ave", "Oceanside, CA 92054"]}, "phone": "+14425008080", "display_phone": "(442) 500-8080", "distance": 20419.759491366283}, {"id": "gQyrq3811wF4S_4sh0VlQw", "alias": "wokou-ramen-and-yakitori-san-diego", "name": "Wokou Ramen & Yakitori", "image_url": "https://s3-media1.fl.yelpcdn.com/bphoto/pOp11I7Mc_T7E73Ph0o-cg/o.jpg", "is_closed": false, "url": "https://www.yelp.com/biz/wokou-ramen-and-yakitori-san-diego?adjust_creative=oncXGL2aPIKrtJdnWeFSnA&utm_campaign=yelp_api_v3&utm_medium=api_v3_business_search&utm_source=oncXGL2aPIKrtJdnWeFSnA", "review_count": 306, "categories": [{"alias": "bars", "title": "Bars"}, {"alias": "ramen", "title": "Ramen"}, {"alias": "izakaya", "title": "Izakaya"}], "rating": 3.5, "coordinates": {"latitude": 32.9614982, "longitude": -117.1896409}, "transactions": ["delivery", "pickup"], "price": "$$", "location": {"address1": "5965 Village Way", "address2": "Ste e108", "address3": "", "city": "San Diego", "zip_code": "92130", "country": "US", "state": "CA", "display_address": ["5965 Village Way", "Ste e108", "San Diego, CA 92130"]}, "phone": "+18587792620", "display_phone": "(858) 779-2620", "distance": 11062.432688275818}, {"id": "QkTOIpK34o6fhNVmhsk8TA", "alias": "hooked-on-sushi-carlsbad", "name": "Hooked on Sushi", "image_url": "https://s3-media2.fl.yelpcdn.com/bphoto/raaULEbjDztb_GtbeHWADg/o.jpg", "is_closed": false, "url": "https://www.yelp.com/biz/hooked-on-sushi-carlsbad?adjust_creative=oncXGL2aPIKrtJdnWeFSnA&utm_campaign=yelp_api_v3&utm_medium=api_v3_business_search&utm_source=oncXGL2aPIKrtJdnWeFSnA", "review_count": 932, "categories": [{"alias": "sushi", "title": "Sushi Bars"}, {"alias": "japanese", "title": "Japanese"}], "rating": 4.5, "coordinates": {"latitude": 33.1804747700058, "longitude": -117.325041890144}, "transactions": ["pickup"], "price": "$$", "location": {"address1": "Vons Shopping Ctr", "address2": "", "address3": "2508 El Camino Real", "city": "Carlsbad", "zip_code": "92008", "country": "US", "state": "CA", "display_address": ["Vons Shopping Ctr", "2508 El Camino Real", "Carlsbad, CA 92008"]}, "phone": "+17604348811", "display_phone": "(760) 434-8811", "distance": 16451.897793023763}, {"id": "eyHseN6JIgRUkTUSePNYfg", "alias": "harney-sushi-oceanside", "name": "Harney Sushi", "image_url": "https://s3-media1.fl.yelpcdn.com/bphoto/zLIS9Qbeu0s7oDpm55yjaQ/o.jpg", "is_closed": false, "url": "https://www.yelp.com/biz/harney-sushi-oceanside?adjust_creative=oncXGL2aPIKrtJdnWeFSnA&utm_campaign=yelp_api_v3&utm_medium=api_v3_business_search&utm_source=oncXGL2aPIKrtJdnWeFSnA", "review_count": 857, "categories": [{"alias": "sushi", "title": "Sushi Bars"}, {"alias": "japanese", "title": "Japanese"}], "rating": 4.0, "coordinates": {"latitude": 33.1946666, "longitude": -117.380578}, "transactions": ["restaurant_reservation", "pickup"], "price": "$$", "location": {"address1": "301 Mission Ave", "address2": "", "address3": "", "city": "Oceanside", "zip_code": "92054", "country": "US", "state": "CA", "display_address": ["301 Mission Ave", "Oceanside, CA 92054"]}, "phone": "+17609671820", "display_phone": "(760) 967-1820", "distance": 20386.17335850249}, {"id": "tSwwA5Vy0Iv3RtIw0uJlXg", "alias": "mikko-sushi-carlsbad-2", "name": "Mikko Sushi", "image_url": "https://s3-media2.fl.yelpcdn.com/bphoto/y-bWjcckWwxsJDar3gWOtg/o.jpg", "is_closed": false, "url": "https://www.yelp.com/biz/mikko-sushi-carlsbad-2?adjust_creative=oncXGL2aPIKrtJdnWeFSnA&utm_campaign=yelp_api_v3&utm_medium=api_v3_business_search&utm_source=oncXGL2aPIKrtJdnWeFSnA", "review_count": 420, "categories": [{"alias": "sushi", "title": "Sushi Bars"}, {"alias": "japanese", "title": "Japanese"}, {"alias": "hawaiian", "title": "Hawaiian"}], "rating": 4.5, "coordinates": {"latitude": 33.1624882511995, "longitude": -117.343036971947}, "transactions": ["delivery", "pickup"], "price": "$$", "location": {"address1": "1025 Carlsbad Village Dr", "address2": "", "address3": "", "city": "Carlsbad", "zip_code": "92008", "country": "US", "state": "CA", "display_address": ["1025 Carlsbad Village Dr", "Carlsbad, CA 92008"]}, "phone": "+17607300088", "display_phone": "(760) 730-0088", "distance": 15467.936672565927}, {"id": "tzIAJ15RydftX3PcK6rTZg", "alias": "shabu-works-san-diego-5", "name": "SHABU-WORKS", "image_url": "https://s3-media2.fl.yelpcdn.com/bphoto/Cjjw7fGg28juCHViMcsR6A/o.jpg", "is_closed": false, "url": "https://www.yelp.com/biz/shabu-works-san-diego-5?adjust_creative=oncXGL2aPIKrtJdnWeFSnA&utm_campaign=yelp_api_v3&utm_medium=api_v3_business_search&utm_source=oncXGL2aPIKrtJdnWeFSnA", "review_count": 252, "categories": [{"alias": "hotpot", "title": "Hot Pot"}, {"alias": "japanese", "title": "Japanese"}, {"alias": "buffets", "title": "Buffets"}], "rating": 4.0, "coordinates": {"latitude": 32.9162250668104, "longitude": -117.114164074074}, "transactions": [], "price": "$$", "location": {"address1": "9841 Mira Mesa Blvd", "address2": "", "address3": null, "city": "San Diego", "zip_code": "92131", "country": "US", "state": "CA", "display_address": ["9841 Mira Mesa Blvd", "San Diego, CA 92131"]}, "phone": "+18588605730", "display_phone": "(858) 860-5730", "distance": 19381.138189120695}, {"id": "Hy3u8n6Jm7ec4qd5Q48cKg", "alias": "station-sushi-solana-beach", "name": "Station Sushi", "image_url": "https://s3-media2.fl.yelpcdn.com/bphoto/IxT6TXI6r74qLtcNGSczPw/o.jpg", "is_closed": false, "url": "https://www.yelp.com/biz/station-sushi-solana-beach?adjust_creative=oncXGL2aPIKrtJdnWeFSnA&utm_campaign=yelp_api_v3&utm_medium=api_v3_business_search&utm_source=oncXGL2aPIKrtJdnWeFSnA", "review_count": 455, "categories": [{"alias": "sushi", "title": "Sushi Bars"}, {"alias": "japanese", "title": "Japanese"}, {"alias": "bars", "title": "Bars"}], "rating": 3.5, "coordinates": {"latitude": 32.99266, "longitude": -117.27215}, "transactions": [], "price": "$$", "location": {"address1": "125 N Hwy 101", "address2": "", "address3": "", "city": "Solana Beach", "zip_code": "92075", "country": "US", "state": "CA", "display_address": ["125 N Hwy 101", "Solana Beach, CA 92075"]}, "phone": "+18584819800", "display_phone": "(858) 481-9800", "distance": 6039.057764068877}, {"id": "3tU-fKas38YNzZ5akOJFkw", "alias": "boto-sushi-del-mar-del-mar-7", "name": "Boto Sushi Del Mar", "image_url": "https://s3-media2.fl.yelpcdn.com/bphoto/5K_-MZ8kA9QPabXHm3Z52w/o.jpg", "is_closed": false, "url": "https://www.yelp.com/biz/boto-sushi-del-mar-del-mar-7?adjust_creative=oncXGL2aPIKrtJdnWeFSnA&utm_campaign=yelp_api_v3&utm_medium=api_v3_business_search&utm_source=oncXGL2aPIKrtJdnWeFSnA", "review_count": 147, "categories": [{"alias": "sushi", "title": "Sushi Bars"}, {"alias": "japanese", "title": "Japanese"}, {"alias": "asianfusion", "title": "Asian Fusion"}], "rating": 4.0, "coordinates": {"latitude": 32.951247, "longitude": -117.246129}, "transactions": [], "price": "$$", "location": {"address1": "2628 Del Mar Heights Rd", "address2": null, "address3": "", "city": "Del Mar", "zip_code": "92014", "country": "US", "state": "CA", "display_address": ["2628 Del Mar Heights Rd", "Del Mar, CA 92014"]}, "phone": "+18588472828", "display_phone": "(858) 847-2828", "distance": 10440.680404740018}, {"id": "tyAK08taAaH7TJRDYmDNoA", "alias": "teri-cafe-oceanside-2", "name": "Teri Cafe", "image_url": "https://s3-media3.fl.yelpcdn.com/bphoto/EqgDweHE3dVyAl4oVYCk8Q/o.jpg", "is_closed": false, "url": "https://www.yelp.com/biz/teri-cafe-oceanside-2?adjust_creative=oncXGL2aPIKrtJdnWeFSnA&utm_campaign=yelp_api_v3&utm_medium=api_v3_business_search&utm_source=oncXGL2aPIKrtJdnWeFSnA", "review_count": 608, "categories": [{"alias": "sushi", "title": "Sushi Bars"}, {"alias": "hawaiian", "title": "Hawaiian"}, {"alias": "ramen", "title": "Ramen"}], "rating": 4.0, "coordinates": {"latitude": 33.181676135002, "longitude": -117.29310357791}, "transactions": [], "price": "$", "location": {"address1": "3809 Plaza Dr", "address2": "Ste101", "address3": "", "city": "Oceanside", "zip_code": "92056", "country": "US", "state": "CA", "display_address": ["3809 Plaza Dr", "Ste101", "Oceanside, CA 92056"]}, "phone": "+17609458888", "display_phone": "(760) 945-8888", "distance": 15632.658686418948}, {"id": "Xl8fktjOQuo5eMPpEiuB4w", "alias": "moiza-tapas-and-japanese-noodle-carlsbad", "name": "Moiza tapas & Japanese Noodle", "image_url": "https://s3-media1.fl.yelpcdn.com/bphoto/3ATT3B2nDcFiN-Xl_mPGRg/o.jpg", "is_closed": false, "url": "https://www.yelp.com/biz/moiza-tapas-and-japanese-noodle-carlsbad?adjust_creative=oncXGL2aPIKrtJdnWeFSnA&utm_campaign=yelp_api_v3&utm_medium=api_v3_business_search&utm_source=oncXGL2aPIKrtJdnWeFSnA", "review_count": 180, "categories": [{"alias": "japanese", "title": "Japanese"}, {"alias": "sushi", "title": "Sushi Bars"}], "rating": 4.0, "coordinates": {"latitude": 33.1630491683917, "longitude": -117.340830932541}, "transactions": ["pickup"], "price": "$$", "location": {"address1": "3050 Pio Pico Dr", "address2": "Ste A", "address3": null, "city": "Carlsbad", "zip_code": "92008", "country": "US", "state": "CA", "display_address": ["3050 Pio Pico Dr", "Ste A", "Carlsbad, CA 92008"]}, "phone": "+17604341230", "display_phone": "(760) 434-1230", "distance": 15412.279657385254}, {"id": "GvP_tiCFKw25wLcslMXLQQ", "alias": "tomoyama-sushi-carlsbad-2", "name": "Tomoyama Sushi", "image_url": "https://s3-media3.fl.yelpcdn.com/bphoto/WSUDJRwnOtbx3_pvP7uSiA/o.jpg", "is_closed": false, "url": "https://www.yelp.com/biz/tomoyama-sushi-carlsbad-2?adjust_creative=oncXGL2aPIKrtJdnWeFSnA&utm_campaign=yelp_api_v3&utm_medium=api_v3_business_search&utm_source=oncXGL2aPIKrtJdnWeFSnA", "review_count": 442, "categories": [{"alias": "sushi", "title": "Sushi Bars"}, {"alias": "korean", "title": "Korean"}, {"alias": "japanese", "title": "Japanese"}], "rating": 3.5, "coordinates": {"latitude": 33.1042105934461, "longitude": -117.268475714474}, "transactions": [], "price": "$$", "location": {"address1": "6949 El Camino Real", "address2": "Ste 201B", "address3": "", "city": "Carlsbad", "zip_code": "92009", "country": "US", "state": "CA", "display_address": ["6949 El Camino Real", "Ste 201B", "Carlsbad, CA 92009"]}, "phone": "+17609300215", "display_phone": "(760) 930-0215", "distance": 6726.485179058295}, {"id": "_4clkIuz2ZXtL7ktH0lb7w", "alias": "tong-sake-house-poway", "name": "Tong Sake House", "image_url": "https://s3-media3.fl.yelpcdn.com/bphoto/cCcstlJG3ZcvvsYfkdOeOg/o.jpg", "is_closed": false, "url": "https://www.yelp.com/biz/tong-sake-house-poway?adjust_creative=oncXGL2aPIKrtJdnWeFSnA&utm_campaign=yelp_api_v3&utm_medium=api_v3_business_search&utm_source=oncXGL2aPIKrtJdnWeFSnA", "review_count": 381, "categories": [{"alias": "japanese", "title": "Japanese"}, {"alias": "asianfusion", "title": "Asian Fusion"}], "rating": 4.5, "coordinates": {"latitude": 32.9523488737293, "longitude": -117.065501901364}, "transactions": [], "price": "$$", "location": {"address1": "12320 Poway Rd", "address2": null, "address3": "", "city": "Poway", "zip_code": "92064", "country": "US", "state": "CA", "display_address": ["12320 Poway Rd", "Poway, CA 92064"]}, "phone": "+18584863200", "display_phone": "(858) 486-3200", "distance": 20395.951290122295}, {"id": "qZ_n8ZuP_gJ21D3TOV1sxw", "alias": "its-tabu-sushi-bar-and-grill-san-marcos-2", "name": "It's Tabu Sushi Bar & Grill", "image_url": "https://s3-media2.fl.yelpcdn.com/bphoto/m2S4SOFgduIMtN1N13sJdQ/o.jpg", "is_closed": false, "url": "https://www.yelp.com/biz/its-tabu-sushi-bar-and-grill-san-marcos-2?adjust_creative=oncXGL2aPIKrtJdnWeFSnA&utm_campaign=yelp_api_v3&utm_medium=api_v3_business_search&utm_source=oncXGL2aPIKrtJdnWeFSnA", "review_count": 360, "categories": [{"alias": "sushi", "title": "Sushi Bars"}, {"alias": "japanese", "title": "Japanese"}], "rating": 4.0, "coordinates": {"latitude": 33.1301640846919, "longitude": -117.164995977903}, "transactions": ["delivery", "pickup"], "price": "$$", "location": {"address1": "344 S Twin Oaks Valley Rd", "address2": "Ste 147", "address3": "", "city": "San Marcos", "zip_code": "92078", "country": "US", "state": "CA", "display_address": ["344 S Twin Oaks Valley Rd", "Ste 147", "San Marcos, CA 92078"]}, "phone": "+17605910811", "display_phone": "(760) 591-0811", "distance": 12708.726555243544}, {"id": "r3Hj02rO6sM34zpZcLDf3w", "alias": "sushi-huku-and-robata-san-marcos", "name": "Sushi Huku & Robata", "image_url": "https://s3-media3.fl.yelpcdn.com/bphoto/uZ45nP630I8lFW930qfCxQ/o.jpg", "is_closed": false, "url": "https://www.yelp.com/biz/sushi-huku-and-robata-san-marcos?adjust_creative=oncXGL2aPIKrtJdnWeFSnA&utm_campaign=yelp_api_v3&utm_medium=api_v3_business_search&utm_source=oncXGL2aPIKrtJdnWeFSnA", "review_count": 252, "categories": [{"alias": "japanese", "title": "Japanese"}, {"alias": "sushi", "title": "Sushi Bars"}], "rating": 4.0, "coordinates": {"latitude": 33.1362, "longitude": -117.17955}, "transactions": [], "price": "$$", "location": {"address1": "727 W San Marcos Blvd", "address2": "Ste 105", "address3": "", "city": "San Marcos", "zip_code": "92078", "country": "US", "state": "CA", "display_address": ["727 W San Marcos Blvd", "Ste 105", "San Marcos, CA 92078"]}, "phone": "+17605910353", "display_phone": "(760) 591-0353", "distance": 12284.770314281288}, {"id": "Y4xf6ukX6NQxnn2X-mzINg", "alias": "ichiban-ramen-and-sushi-vista", "name": "Ichiban Ramen & Sushi", "image_url": "https://s3-media4.fl.yelpcdn.com/bphoto/KNtQvFVVsbJJ2DXDDhRl7A/o.jpg", "is_closed": false, "url": "https://www.yelp.com/biz/ichiban-ramen-and-sushi-vista?adjust_creative=oncXGL2aPIKrtJdnWeFSnA&utm_campaign=yelp_api_v3&utm_medium=api_v3_business_search&utm_source=oncXGL2aPIKrtJdnWeFSnA", "review_count": 75, "categories": [{"alias": "sushi", "title": "Sushi Bars"}, {"alias": "ramen", "title": "Ramen"}], "rating": 3.5, "coordinates": {"latitude": 33.1324391820547, "longitude": -117.229636760427}, "transactions": [], "price": "$$", "location": {"address1": "3265 Business Park Dr", "address2": "", "address3": null, "city": "Vista", "zip_code": "92081", "country": "US", "state": "CA", "display_address": ["3265 Business Park Dr", "Vista, CA 92081"]}, "phone": "+17605974015", "display_phone": "(760) 597-4015", "distance": 10003.215671684453}, {"id": "Y3eZHpiai4OMxTVOs4BlvQ", "alias": "sunshine-poke-and-sushi-rolls-oceanside-2", "name": "Sunshine Poke & Sushi Rolls", "image_url": "https://s3-media3.fl.yelpcdn.com/bphoto/0FVp-H7XniqI1ujtGDScaw/o.jpg", "is_closed": false, "url": "https://www.yelp.com/biz/sunshine-poke-and-sushi-rolls-oceanside-2?adjust_creative=oncXGL2aPIKrtJdnWeFSnA&utm_campaign=yelp_api_v3&utm_medium=api_v3_business_search&utm_source=oncXGL2aPIKrtJdnWeFSnA", "review_count": 164, "categories": [{"alias": "japanese", "title": "Japanese"}, {"alias": "sushi", "title": "Sushi Bars"}, {"alias": "poke", "title": "Poke"}], "rating": 4.5, "coordinates": {"latitude": 33.1965995925067, "longitude": -117.379944483127}, "transactions": [], "price": "$", "location": {"address1": "224 N Coast Hwy", "address2": "", "address3": "", "city": "Oceanside", "zip_code": "92054", "country": "US", "state": "CA", "display_address": ["224 N Coast Hwy", "Oceanside, CA 92054"]}, "phone": "+17602315481", "display_phone": "(760) 231-5481", "distance": 20528.38947624985}, {"id": "GNQ2OBScY0miZg7au4-Kyg", "alias": "sushi-station-san-marcos", "name": "Sushi Station", "image_url": "https://s3-media1.fl.yelpcdn.com/bphoto/pEV5Im3PVZHpOU4bVrgX4A/o.jpg", "is_closed": false, "url": "https://www.yelp.com/biz/sushi-station-san-marcos?adjust_creative=oncXGL2aPIKrtJdnWeFSnA&utm_campaign=yelp_api_v3&utm_medium=api_v3_business_search&utm_source=oncXGL2aPIKrtJdnWeFSnA", "review_count": 165, "categories": [{"alias": "sushi", "title": "Sushi Bars"}, {"alias": "japanese", "title": "Japanese"}], "rating": 3.5, "coordinates": {"latitude": 33.130431, "longitude": -117.209911}, "transactions": [], "price": "$$", "location": {"address1": "1915 W San Marcos Blvd", "address2": "Ste 120", "address3": "", "city": "San Marcos", "zip_code": "92078", "country": "US", "state": "CA", "display_address": ["1915 W San Marcos Blvd", "Ste 120", "San Marcos, CA 92078"]}, "phone": "+17605978911", "display_phone": "(760) 597-8911", "distance": 10373.05824665625}, {"id": "irvRRmo--qh24FlIKQBMUA", "alias": "shogun-japanese-restaurant-san-marcos", "name": "Shogun Japanese Restaurant", "image_url": "https://s3-media1.fl.yelpcdn.com/bphoto/zT9VrsOaOVwIsE2Puv1ksQ/o.jpg", "is_closed": false, "url": "https://www.yelp.com/biz/shogun-japanese-restaurant-san-marcos?adjust_creative=oncXGL2aPIKrtJdnWeFSnA&utm_campaign=yelp_api_v3&utm_medium=api_v3_business_search&utm_source=oncXGL2aPIKrtJdnWeFSnA", "review_count": 306, "categories": [{"alias": "sushi", "title": "Sushi Bars"}, {"alias": "japanese", "title": "Japanese"}], "rating": 3.0, "coordinates": {"latitude": 33.1320728046332, "longitude": -117.207453846931}, "transactions": [], "price": "$$", "location": {"address1": "695 S Rancho Santa Fe Rd", "address2": "", "address3": "", "city": "San Marcos", "zip_code": "92078", "country": "US", "state": "CA", "display_address": ["695 S Rancho Santa Fe Rd", "San Marcos, CA 92078"]}, "phone": "+17607446600", "display_phone": "(760) 744-6600", "distance": 10632.65659590901}, {"id": "LddQBrf2rm6Wdoxgl0G8CQ", "alias": "sushi-kami-san-diego-3", "name": "Sushi Kami", "image_url": "https://s3-media1.fl.yelpcdn.com/bphoto/Ergsz6jeWUZHD55vsQNXXg/o.jpg", "is_closed": false, "url": "https://www.yelp.com/biz/sushi-kami-san-diego-3?adjust_creative=oncXGL2aPIKrtJdnWeFSnA&utm_campaign=yelp_api_v3&utm_medium=api_v3_business_search&utm_source=oncXGL2aPIKrtJdnWeFSnA", "review_count": 128, "categories": [{"alias": "sushi", "title": "Sushi Bars"}, {"alias": "japanese", "title": "Japanese"}], "rating": 4.5, "coordinates": {"latitude": 33.02333, "longitude": -117.08174}, "transactions": [], "price": "$$", "location": {"address1": "11611 Rancho Bernardo Rd", "address2": "", "address3": null, "city": "San Diego", "zip_code": "92127", "country": "US", "state": "CA", "display_address": ["11611 Rancho Bernardo Rd", "San Diego, CA 92127"]}, "phone": "+18584517799", "display_phone": "(858) 451-7799", "distance": 16263.425487967386}, {"id": "oyEIQJrfLd8zYU7-_51P0A", "alias": "wok-n-bowl-carlsbad-2", "name": "Wok 'N' Bowl", "image_url": "https://s3-media3.fl.yelpcdn.com/bphoto/g74I3CUpsWIYrGiEm8vTHA/o.jpg", "is_closed": false, "url": "https://www.yelp.com/biz/wok-n-bowl-carlsbad-2?adjust_creative=oncXGL2aPIKrtJdnWeFSnA&utm_campaign=yelp_api_v3&utm_medium=api_v3_business_search&utm_source=oncXGL2aPIKrtJdnWeFSnA", "review_count": 79, "categories": [{"alias": "ramen", "title": "Ramen"}], "rating": 2.5, "coordinates": {"latitude": 33.1265972753684, "longitude": -117.313826821953}, "transactions": [], "price": "$$", "location": {"address1": "1 Legoland Dr", "address2": "", "address3": "", "city": "Carlsbad", "zip_code": "92008", "country": "US", "state": "CA", "display_address": ["1 Legoland Dr", "Carlsbad, CA 92008"]}, "phone": "", "display_phone": "", "distance": 10642.678199331254}, {"id": "mbpH2qqhsc0V37UkY4Hp-g", "alias": "cafe-de-thai-and-sushi-oceanside", "name": "Cafe de Thai & Sushi", "image_url": "https://s3-media1.fl.yelpcdn.com/bphoto/SF215PklAeMmMbdCKXe2Yw/o.jpg", "is_closed": false, "url": "https://www.yelp.com/biz/cafe-de-thai-and-sushi-oceanside?adjust_creative=oncXGL2aPIKrtJdnWeFSnA&utm_campaign=yelp_api_v3&utm_medium=api_v3_business_search&utm_source=oncXGL2aPIKrtJdnWeFSnA", "review_count": 421, "categories": [{"alias": "thai", "title": "Thai"}, {"alias": "sushi", "title": "Sushi Bars"}, {"alias": "japanese", "title": "Japanese"}], "rating": 4.0, "coordinates": {"latitude": 33.207398, "longitude": -117.2852966}, "transactions": [], "price": "$$", "location": {"address1": "4196 Oceanside Blvd", "address2": "", "address3": "", "city": "Oceanside", "zip_code": "92056", "country": "US", "state": "CA", "display_address": ["4196 Oceanside Blvd", "Oceanside, CA 92056"]}, "phone": "+17609455533", "display_phone": "(760) 945-5533", "distance": 18450.573358650887}, {"id": "cZN23l_Oa5zOyf9muiMumA", "alias": "motto-japanese-grill-carlsbad-3", "name": "Mot'to Japanese Grill", "image_url": "https://s3-media1.fl.yelpcdn.com/bphoto/5U65rFgYfRV-5s03yypYHw/o.jpg", "is_closed": false, "url": "https://www.yelp.com/biz/motto-japanese-grill-carlsbad-3?adjust_creative=oncXGL2aPIKrtJdnWeFSnA&utm_campaign=yelp_api_v3&utm_medium=api_v3_business_search&utm_source=oncXGL2aPIKrtJdnWeFSnA", "review_count": 70, "categories": [{"alias": "japanese", "title": "Japanese"}, {"alias": "sushi", "title": "Sushi Bars"}, {"alias": "salad", "title": "Salad"}], "rating": 3.5, "coordinates": {"latitude": 33.127538, "longitude": -117.321811}, "transactions": [], "price": "$", "location": {"address1": "5600 Paseo Del Norte", "address2": "115-A, North Entrance", "address3": null, "city": "Carlsbad", "zip_code": "92008", "country": "US", "state": "CA", "display_address": ["5600 Paseo Del Norte", "115-A, North Entrance", "Carlsbad, CA 92008"]}, "phone": "+17604318010", "display_phone": "(760) 431-8010", "distance": 11134.495858954613}, {"id": "7BHnRI8KAq3DOo4xIFLYCg", "alias": "sushi-kyodai-san-diego", "name": "Sushi Kyodai", "image_url": "https://s3-media2.fl.yelpcdn.com/bphoto/j4ru1jzN8CMwt9IUfLEleA/o.jpg", "is_closed": false, "url": "https://www.yelp.com/biz/sushi-kyodai-san-diego?adjust_creative=oncXGL2aPIKrtJdnWeFSnA&utm_campaign=yelp_api_v3&utm_medium=api_v3_business_search&utm_source=oncXGL2aPIKrtJdnWeFSnA", "review_count": 139, "categories": [{"alias": "japanese", "title": "Japanese"}, {"alias": "sushi", "title": "Sushi Bars"}], "rating": 4.0, "coordinates": {"latitude": 32.98415, "longitude": -117.07487}, "transactions": [], "price": "$$", "location": {"address1": "12075 Carmel Mountain Rd", "address2": "Ste 205", "address3": "", "city": "San Diego", "zip_code": "92128", "country": "US", "state": "CA", "display_address": ["12075 Carmel Mountain Rd", "Ste 205", "San Diego, CA 92128"]}, "phone": "+18584512255", "display_phone": "(858) 451-2255", "distance": 18155.372137660186}, {"id": "hReAK2JhxlgFfI1M49-OhA", "alias": "happy-sushi-san-diego-5", "name": "Happy Sushi", "image_url": "https://s3-media3.fl.yelpcdn.com/bphoto/-D2YwE8pndZVsASpQu9v8w/o.jpg", "is_closed": false, "url": "https://www.yelp.com/biz/happy-sushi-san-diego-5?adjust_creative=oncXGL2aPIKrtJdnWeFSnA&utm_campaign=yelp_api_v3&utm_medium=api_v3_business_search&utm_source=oncXGL2aPIKrtJdnWeFSnA", "review_count": 49, "categories": [{"alias": "sushi", "title": "Sushi Bars"}, {"alias": "japanese", "title": "Japanese"}], "rating": 4.0, "coordinates": {"latitude": 32.91359, "longitude": -117.13091}, "transactions": [], "location": {"address1": "8973 Mira Mesa Blvd", "address2": "", "address3": null, "city": "San Diego", "zip_code": "92126", "country": "US", "state": "CA", "display_address": ["8973 Mira Mesa Blvd", "San Diego, CA 92126"]}, "phone": "+18585363178", "display_phone": "(858) 536-3178", "distance": 18581.672375309256}, {"id": "Yphoz62t0BYNyIGbLidCwA", "alias": "tabu-sushi-bar-and-grill-vista-2", "name": "Tabu Sushi Bar & Grill", "image_url": "https://s3-media3.fl.yelpcdn.com/bphoto/s2rsPQoQKda5bb2-JjlYtA/o.jpg", "is_closed": false, "url": "https://www.yelp.com/biz/tabu-sushi-bar-and-grill-vista-2?adjust_creative=oncXGL2aPIKrtJdnWeFSnA&utm_campaign=yelp_api_v3&utm_medium=api_v3_business_search&utm_source=oncXGL2aPIKrtJdnWeFSnA", "review_count": 205, "categories": [{"alias": "japanese", "title": "Japanese"}, {"alias": "sushi", "title": "Sushi Bars"}, {"alias": "desserts", "title": "Desserts"}], "rating": 3.5, "coordinates": {"latitude": 33.14608, "longitude": -117.24224}, "transactions": [], "price": "$$", "location": {"address1": "2215 S Melrose", "address2": "Ste 104", "address3": "", "city": "Vista", "zip_code": "92081", "country": "US", "state": "CA", "display_address": ["2215 S Melrose", "Ste 104", "Vista, CA 92081"]}, "phone": "+17602951039", "display_phone": "(760) 295-1039", "distance": 11296.938756051595}], "total": 94, "region": {"center": {"longitude": -117.25433349609375, "latitude": 33.04488992556048}}}