{"businesses": [{"id": "23T_cchBm0f45euKTRWtaA", "alias": "east-village-asian-diner-encinitas-2", "name": "East Village Asian Diner", "image_url": "https://s3-media4.fl.yelpcdn.com/bphoto/_jSLcXme4IsQnyq0q14lDQ/o.jpg", "is_closed": false, "url": "https://www.yelp.com/biz/east-village-asian-diner-encinitas-2?adjust_creative=oncXGL2aPIKrtJdnWeFSnA&utm_campaign=yelp_api_v3&utm_medium=api_v3_business_search&utm_source=oncXGL2aPIKrtJdnWeFSnA", "review_count": 484, "categories": [{"alias": "asianfusion", "title": "Asian Fusion"}, {"alias": "japanese", "title": "Japanese"}, {"alias": "korean", "title": "Korean"}], "rating": 4.0, "coordinates": {"latitude": 33.04421, "longitude": -117.2939}, "transactions": [], "price": "$$", "location": {"address1": "628 S Coast Hwy 101", "address2": "", "address3": "", "city": "Encinitas", "zip_code": "92024", "country": "US", "state": "CA", "display_address": ["628 S Coast Hwy 101", "Encinitas, CA 92024"]}, "phone": "+17607538700", "display_phone": "(760) 753-8700", "distance": 3684.5632788127295}, {"id": "HBQevRaTZ6RC9xyWFCrfow", "alias": "gen-korean-bbq-house-san-diego-4", "name": "Gen Korean BBQ House", "image_url": "https://s3-media2.fl.yelpcdn.com/bphoto/iJWnMybeZKwZEDUCH1y8sA/o.jpg", "is_closed": false, "url": "https://www.yelp.com/biz/gen-korean-bbq-house-san-diego-4?adjust_creative=oncXGL2aPIKrtJdnWeFSnA&utm_campaign=yelp_api_v3&utm_medium=api_v3_business_search&utm_source=oncXGL2aPIKrtJdnWeFSnA", "review_count": 501, "categories": [{"alias": "korean", "title": "Korean"}, {"alias": "bbq", "title": "Barbeque"}], "rating": 4.0, "coordinates": {"latitude": 32.916450186644, "longitude": -117.11930559062}, "transactions": [], "price": "$$", "location": {"address1": "10765 Westview Pkwy", "address2": "", "address3": null, "city": "San Diego", "zip_code": "92126", "country": "US", "state": "CA", "display_address": ["10765 Westview Pkwy", "San Diego, CA 92126"]}, "phone": "+18588001157", "display_phone": "(858) 800-1157", "distance": 19042.10887608818}, {"id": "tkQS0Ffox1NKL4p8ISVzPA", "alias": "manna-korean-bbq-san-marcos", "name": "Manna Korean BBQ", "image_url": "https://s3-media3.fl.yelpcdn.com/bphoto/jIY7G0wX-y9MG4NXIiU55g/o.jpg", "is_closed": false, "url": "https://www.yelp.com/biz/manna-korean-bbq-san-marcos?adjust_creative=oncXGL2aPIKrtJdnWeFSnA&utm_campaign=yelp_api_v3&utm_medium=api_v3_business_search&utm_source=oncXGL2aPIKrtJdnWeFSnA", "review_count": 790, "categories": [{"alias": "korean", "title": "Korean"}, {"alias": "bbq", "title": "Barbeque"}], "rating": 4.0, "coordinates": {"latitude": 33.1344023, "longitude": -117.1197782}, "transactions": [], "price": "$$", "location": {"address1": "740 Nordahl Rd", "address2": "", "address3": "", "city": "San Marcos", "zip_code": "92069", "country": "US", "state": "CA", "display_address": ["740 Nordahl Rd", "San Marcos, CA 92069"]}, "phone": "+17607433300", "display_phone": "(760) 743-3300", "distance": 16053.856165832784}, {"id": "SIF2ODB6bcmKqbj0luBOHg", "alias": "manna-bbq-san-diego", "name": "Manna BBQ", "image_url": "https://s3-media3.fl.yelpcdn.com/bphoto/f6IEtQTsUxm_TXKWaxU1wA/o.jpg", "is_closed": false, "url": "https://www.yelp.com/biz/manna-bbq-san-diego?adjust_creative=oncXGL2aPIKrtJdnWeFSnA&utm_campaign=yelp_api_v3&utm_medium=api_v3_business_search&utm_source=oncXGL2aPIKrtJdnWeFSnA", "review_count": 1203, "categories": [{"alias": "korean", "title": "Korean"}, {"alias": "bbq", "title": "Barbeque"}], "rating": 4.5, "coordinates": {"latitude": 32.9129206848645, "longitude": -117.1476405859}, "transactions": [], "price": "$$", "location": {"address1": "8188 Mira Mesa Blvd", "address2": "", "address3": "", "city": "San Diego", "zip_code": "92126", "country": "US", "state": "CA", "display_address": ["8188 Mira Mesa Blvd", "San Diego, CA 92126"]}, "phone": "+18585780300", "display_phone": "(858) 578-0300", "distance": 17730.745071435034}, {"id": "Hqk7azstDh8NpBMXOTEwhw", "alias": "j-box-carlsbad", "name": "J BOX", "image_url": "https://s3-media2.fl.yelpcdn.com/bphoto/h81ddL3qvvs6QnZvjI5QUw/o.jpg", "is_closed": false, "url": "https://www.yelp.com/biz/j-box-carlsbad?adjust_creative=oncXGL2aPIKrtJdnWeFSnA&utm_campaign=yelp_api_v3&utm_medium=api_v3_business_search&utm_source=oncXGL2aPIKrtJdnWeFSnA", "review_count": 89, "categories": [{"alias": "japanese", "title": "Japanese"}, {"alias": "asianfusion", "title": "Asian Fusion"}, {"alias": "korean", "title": "Korean"}], "rating": 4.0, "coordinates": {"latitude": 33.1347745768318, "longitude": -117.287347264279}, "transactions": [], "price": "$$", "location": {"address1": "5814 Van Allen Way", "address2": "Ste 135", "address3": "", "city": "Carlsbad", "zip_code": "92008", "country": "US", "state": "CA", "display_address": ["5814 Van Allen Way", "Ste 135", "Carlsbad, CA 92008"]}, "phone": "+17604310056", "display_phone": "(760) 431-0056", "distance": 10457.216756428854}, {"id": "OTBI-00A1wQ9RHp-5lR_Uw", "alias": "boolgogi-house-the-ranch-cafe-san-diego-2", "name": "Boolgogi House - The Ranch Cafe", "image_url": "https://s3-media2.fl.yelpcdn.com/bphoto/_07Fu6cc6HweIHOVgkYZmA/o.jpg", "is_closed": false, "url": "https://www.yelp.com/biz/boolgogi-house-the-ranch-cafe-san-diego-2?adjust_creative=oncXGL2aPIKrtJdnWeFSnA&utm_campaign=yelp_api_v3&utm_medium=api_v3_business_search&utm_source=oncXGL2aPIKrtJdnWeFSnA", "review_count": 54, "categories": [{"alias": "korean", "title": "Korean"}, {"alias": "newamerican", "title": "American (New)"}, {"alias": "panasian", "title": "Pan Asian"}], "rating": 4.5, "coordinates": {"latitude": 32.8936347961426, "longitude": -117.203773498535}, "transactions": [], "price": "$", "location": {"address1": "9450 Scranton Rd", "address2": "", "address3": "", "city": "San Diego", "zip_code": "92121", "country": "US", "state": "CA", "display_address": ["9450 Scranton Rd", "San Diego, CA 92121"]}, "phone": "+18585500099", "display_phone": "(858) 550-0099", "distance": 17467.636261273346}, {"id": "cyxKVVFQpC45x4Lmlf_OZQ", "alias": "bann-cuisine-san-diego", "name": "Bann Cuisine", "image_url": "https://s3-media4.fl.yelpcdn.com/bphoto/xu_Ux1BUoujFwGekzpe3Bw/o.jpg", "is_closed": false, "url": "https://www.yelp.com/biz/bann-cuisine-san-diego?adjust_creative=oncXGL2aPIKrtJdnWeFSnA&utm_campaign=yelp_api_v3&utm_medium=api_v3_business_search&utm_source=oncXGL2aPIKrtJdnWeFSnA", "review_count": 66, "categories": [{"alias": "korean", "title": "Korean"}], "rating": 4.5, "coordinates": {"latitude": 32.89419, "longitude": -117.12303}, "transactions": ["delivery", "pickup"], "price": "$", "location": {"address1": "9506 Miramar Rd", "address2": null, "address3": "", "city": "San Diego", "zip_code": "92126", "country": "US", "state": "CA", "display_address": ["9506 Miramar Rd", "San Diego, CA 92126"]}, "phone": "+18586535242", "display_phone": "(858) 653-5242", "distance": 20742.833216234067}, {"id": "clsIl6MbH925NQaDsvcyYg", "alias": "gogi-blvd-san-diego-3", "name": "Gogi blvd", "image_url": "https://s3-media1.fl.yelpcdn.com/bphoto/ci-YFTv3-Nbyl1D-w8KaLg/o.jpg", "is_closed": false, "url": "https://www.yelp.com/biz/gogi-blvd-san-diego-3?adjust_creative=oncXGL2aPIKrtJdnWeFSnA&utm_campaign=yelp_api_v3&utm_medium=api_v3_business_search&utm_source=oncXGL2aPIKrtJdnWeFSnA", "review_count": 1, "categories": [{"alias": "korean", "title": "Korean"}, {"alias": "foodtrucks", "title": "Food Trucks"}, {"alias": "bbq", "title": "Barbeque"}], "rating": 5.0, "coordinates": {"latitude": 32.9063005870897, "longitude": -117.173608824054}, "transactions": [], "location": {"address1": "6755 Mira Mesa Blvd", "address2": "Ste 109", "address3": null, "city": "San Diego", "zip_code": "92121", "country": "US", "state": "CA", "display_address": ["6755 Mira Mesa Blvd", "Ste 109", "San Diego, CA 92121"]}, "phone": "+18584050717", "display_phone": "(858) 405-0717", "distance": 17151.781327154185}, {"id": "GvP_tiCFKw25wLcslMXLQQ", "alias": "tomoyama-sushi-carlsbad-2", "name": "Tomoyama Sushi", "image_url": "https://s3-media3.fl.yelpcdn.com/bphoto/WSUDJRwnOtbx3_pvP7uSiA/o.jpg", "is_closed": false, "url": "https://www.yelp.com/biz/tomoyama-sushi-carlsbad-2?adjust_creative=oncXGL2aPIKrtJdnWeFSnA&utm_campaign=yelp_api_v3&utm_medium=api_v3_business_search&utm_source=oncXGL2aPIKrtJdnWeFSnA", "review_count": 442, "categories": [{"alias": "sushi", "title": "Sushi Bars"}, {"alias": "korean", "title": "Korean"}, {"alias": "japanese", "title": "Japanese"}], "rating": 3.5, "coordinates": {"latitude": 33.1042105934461, "longitude": -117.268475714474}, "transactions": [], "price": "$$", "location": {"address1": "6949 El Camino Real", "address2": "Ste 201B", "address3": "", "city": "Carlsbad", "zip_code": "92009", "country": "US", "state": "CA", "display_address": ["6949 El Camino Real", "Ste 201B", "Carlsbad, CA 92009"]}, "phone": "+17609300215", "display_phone": "(760) 930-0215", "distance": 6726.485179058295}, {"id": "EOfdLZwH_MRhRHrAA7pA2Q", "alias": "m-bbq-oceanside", "name": "M. BBQ", "image_url": "https://s3-media1.fl.yelpcdn.com/bphoto/8eUi3KhZZw_3ZhCpnUXcmw/o.jpg", "is_closed": false, "url": "https://www.yelp.com/biz/m-bbq-oceanside?adjust_creative=oncXGL2aPIKrtJdnWeFSnA&utm_campaign=yelp_api_v3&utm_medium=api_v3_business_search&utm_source=oncXGL2aPIKrtJdnWeFSnA", "review_count": 55, "categories": [{"alias": "korean", "title": "Korean"}, {"alias": "bbq", "title": "Barbeque"}, {"alias": "buffets", "title": "Buffets"}], "rating": 3.5, "coordinates": {"latitude": 33.18548, "longitude": -117.32733}, "transactions": [], "price": "$$", "location": {"address1": "2216 S El Camino Real", "address2": "108  109", "address3": "", "city": "Oceanside", "zip_code": "92054", "country": "US", "state": "CA", "display_address": ["2216 S El Camino Real", "108  109", "Oceanside, CA 92054"]}, "phone": "+17604331888", "display_phone": "(760) 433-1888", "distance": 17112.971949167804}, {"id": "8ppQOm76k4AWTplDDyD9dw", "alias": "hmart-san-diego", "name": "Hmart", "image_url": "https://s3-media4.fl.yelpcdn.com/bphoto/Mjfiasdy6xf7mODLUvxGKw/o.jpg", "is_closed": false, "url": "https://www.yelp.com/biz/hmart-san-diego?adjust_creative=oncXGL2aPIKrtJdnWeFSnA&utm_campaign=yelp_api_v3&utm_medium=api_v3_business_search&utm_source=oncXGL2aPIKrtJdnWeFSnA", "review_count": 494, "categories": [{"alias": "grocery", "title": "Grocery"}, {"alias": "korean", "title": "Korean"}, {"alias": "seafoodmarkets", "title": "Seafood Markets"}], "rating": 3.5, "coordinates": {"latitude": 32.9186806570631, "longitude": -117.122160039124}, "transactions": [], "price": "$$", "location": {"address1": "9440 Mira Mesa Blvd.", "address2": "", "address3": "", "city": "San Diego", "zip_code": "92126", "country": "US", "state": "CA", "display_address": ["9440 Mira Mesa Blvd.", "San Diego, CA 92126"]}, "phone": "+18585770060", "display_phone": "(858) 577-0060", "distance": 18679.919249797196}, {"id": "YQ5Cm0hxQy19YI8A2wSM5w", "alias": "tofu-house-san-diego-2", "name": "Tofu House", "image_url": "https://s3-media3.fl.yelpcdn.com/bphoto/_sqBZP0bmWBbAUbDtGRd-A/o.jpg", "is_closed": false, "url": "https://www.yelp.com/biz/tofu-house-san-diego-2?adjust_creative=oncXGL2aPIKrtJdnWeFSnA&utm_campaign=yelp_api_v3&utm_medium=api_v3_business_search&utm_source=oncXGL2aPIKrtJdnWeFSnA", "review_count": 376, "categories": [{"alias": "korean", "title": "Korean"}], "rating": 3.0, "coordinates": {"latitude": 32.9168177097635, "longitude": -117.127392543657}, "transactions": [], "price": "$$", "location": {"address1": "9089 Mira Mesa Blvd", "address2": "", "address3": "", "city": "San Diego", "zip_code": "92126", "country": "US", "state": "CA", "display_address": ["9089 Mira Mesa Blvd", "San Diego, CA 92126"]}, "phone": "+18588605296", "display_phone": "(858) 860-5296", "distance": 18520.354817937692}, {"id": "fraWm7_27E22Y6U_1Yk2bQ", "alias": "bowl-to-go-san-diego", "name": "Bowl To Go", "image_url": "https://s3-media2.fl.yelpcdn.com/bphoto/D4ofmC2RD_-gb8aSAAQ9fw/o.jpg", "is_closed": false, "url": "https://www.yelp.com/biz/bowl-to-go-san-diego?adjust_creative=oncXGL2aPIKrtJdnWeFSnA&utm_campaign=yelp_api_v3&utm_medium=api_v3_business_search&utm_source=oncXGL2aPIKrtJdnWeFSnA", "review_count": 116, "categories": [{"alias": "japanese", "title": "Japanese"}, {"alias": "korean", "title": "Korean"}], "rating": 4.5, "coordinates": {"latitude": 32.8783122, "longitude": -117.1686534}, "transactions": [], "price": "$", "location": {"address1": "6780 Miramar Rd", "address2": "", "address3": "", "city": "San Diego", "zip_code": "92121", "country": "US", "state": "CA", "display_address": ["6780 Miramar Rd", "San Diego, CA 92121"]}, "phone": "+18582711769", "display_phone": "(858) 271-1769", "distance": 20078.58661546627}, {"id": "SijUAKpEjanhVghyhr46XQ", "alias": "nozomi-la-jolla-la-jolla", "name": "Nozomi La Jolla", "image_url": "https://s3-media4.fl.yelpcdn.com/bphoto/qxbnC0ROgwXE9TgtGq4pxw/o.jpg", "is_closed": false, "url": "https://www.yelp.com/biz/nozomi-la-jolla-la-jolla?adjust_creative=oncXGL2aPIKrtJdnWeFSnA&utm_campaign=yelp_api_v3&utm_medium=api_v3_business_search&utm_source=oncXGL2aPIKrtJdnWeFSnA", "review_count": 640, "categories": [{"alias": "sushi", "title": "Sushi Bars"}, {"alias": "japanese", "title": "Japanese"}, {"alias": "korean", "title": "Korean"}], "rating": 3.5, "coordinates": {"latitude": 32.8730424945577, "longitude": -117.217164117722}, "transactions": ["pickup"], "price": "$$", "location": {"address1": "4150 Regents Park Row", "address2": "Ste 190", "address3": "", "city": "La Jolla", "zip_code": "92037", "country": "US", "state": "CA", "display_address": ["4150 Regents Park Row", "Ste 190", "La Jolla, CA 92037"]}, "phone": "+18584527778", "display_phone": "(858) 452-7778", "distance": 19420.671042094084}, {"id": "Edk51eFkI2TH4g1Peiuhgw", "alias": "zip-fusion-san-diego-2", "name": "Zip Fusion", "image_url": "https://s3-media4.fl.yelpcdn.com/bphoto/4J3B0ck4YBGZV2uxWtBSUQ/o.jpg", "is_closed": false, "url": "https://www.yelp.com/biz/zip-fusion-san-diego-2?adjust_creative=oncXGL2aPIKrtJdnWeFSnA&utm_campaign=yelp_api_v3&utm_medium=api_v3_business_search&utm_source=oncXGL2aPIKrtJdnWeFSnA", "review_count": 284, "categories": [{"alias": "asianfusion", "title": "Asian Fusion"}, {"alias": "sushi", "title": "Sushi Bars"}, {"alias": "korean", "title": "Korean"}], "rating": 3.0, "coordinates": {"latitude": 32.92079, "longitude": -117.21704}, "transactions": ["delivery"], "price": "$$", "location": {"address1": "11130 E Ocean Air Dr", "address2": "Ste 101", "address3": "", "city": "San Diego", "zip_code": "92130", "country": "US", "state": "CA", "display_address": ["11130 E Ocean Air Dr", "Ste 101", "San Diego, CA 92130"]}, "phone": "+18587553130", "display_phone": "(858) 755-3130", "distance": 14230.944995077803}, {"id": "Irg_HOCEdJ0jwzj_GHIHBQ", "alias": "shozen-and-manpo-san-diego", "name": "Shozen & Manpo", "image_url": "https://s3-media4.fl.yelpcdn.com/bphoto/xL90FOXTn895tq0KWuZcDg/o.jpg", "is_closed": false, "url": "https://www.yelp.com/biz/shozen-and-manpo-san-diego?adjust_creative=oncXGL2aPIKrtJdnWeFSnA&utm_campaign=yelp_api_v3&utm_medium=api_v3_business_search&utm_source=oncXGL2aPIKrtJdnWeFSnA", "review_count": 210, "categories": [{"alias": "korean", "title": "Korean"}, {"alias": "bbq", "title": "Barbeque"}], "rating": 3.5, "coordinates": {"latitude": 32.917908, "longitude": -117.11306}, "transactions": [], "price": "$$", "location": {"address1": "9906 Mira Mesa Blvd", "address2": "", "address3": "", "city": "San Diego", "zip_code": "92131", "country": "US", "state": "CA", "display_address": ["9906 Mira Mesa Blvd", "San Diego, CA 92131"]}, "phone": "+18585860099", "display_phone": "(858) 586-0099", "distance": 19313.445462091437}, {"id": "V1aIFVukgzW_BlTW4rKSSg", "alias": "seoul-man-food-truck-la-jolla", "name": "Seoul Man Food Truck", "image_url": "https://s3-media3.fl.yelpcdn.com/bphoto/8hr4N6MnIyHmWIYWhZQk3w/o.jpg", "is_closed": false, "url": "https://www.yelp.com/biz/seoul-man-food-truck-la-jolla?adjust_creative=oncXGL2aPIKrtJdnWeFSnA&utm_campaign=yelp_api_v3&utm_medium=api_v3_business_search&utm_source=oncXGL2aPIKrtJdnWeFSnA", "review_count": 67, "categories": [{"alias": "korean", "title": "Korean"}, {"alias": "asianfusion", "title": "Asian Fusion"}, {"alias": "foodtrucks", "title": "Food Trucks"}], "rating": 4.0, "coordinates": {"latitude": 32.8408508300781, "longitude": -117.257797241211}, "transactions": [], "price": "$$", "location": {"address1": "", "address2": null, "address3": "", "city": "La Jolla", "zip_code": "92037", "country": "US", "state": "CA", "display_address": ["La Jolla, CA 92037"]}, "phone": "+18449865227", "display_phone": "(844) 986-5227", "distance": 24081.21229362162}, {"id": "IE1dUUaxNBDz2Y8n2-U8PQ", "alias": "ya-bento-san-diego", "name": "Ya Bento", "image_url": "https://s3-media3.fl.yelpcdn.com/bphoto/KEwp2SZuIq5D28sM2tUg2w/o.jpg", "is_closed": false, "url": "https://www.yelp.com/biz/ya-bento-san-diego?adjust_creative=oncXGL2aPIKrtJdnWeFSnA&utm_campaign=yelp_api_v3&utm_medium=api_v3_business_search&utm_source=oncXGL2aPIKrtJdnWeFSnA", "review_count": 29, "categories": [{"alias": "japanese", "title": "Japanese"}, {"alias": "korean", "title": "Korean"}], "rating": 3.5, "coordinates": {"latitude": 32.8937203, "longitude": -117.2017749}, "transactions": ["pickup"], "price": "$", "location": {"address1": "9450 Scranton Rd", "address2": "Ste 114E", "address3": "", "city": "San Diego", "zip_code": "92121", "country": "US", "state": "CA", "display_address": ["9450 Scranton Rd", "Ste 114E", "San Diego, CA 92121"]}, "phone": "+18585588187", "display_phone": "(858) 558-8187", "distance": 17484.54924046646}, {"id": "lZkDtieerG30fkrbcx6lew", "alias": "go-go-sushi-and-ramen-san-diego", "name": "Go Go Sushi & Ramen", "image_url": "https://s3-media1.fl.yelpcdn.com/bphoto/j84z1GuUI5H1RdMPmzTptA/o.jpg", "is_closed": false, "url": "https://www.yelp.com/biz/go-go-sushi-and-ramen-san-diego?adjust_creative=oncXGL2aPIKrtJdnWeFSnA&utm_campaign=yelp_api_v3&utm_medium=api_v3_business_search&utm_source=oncXGL2aPIKrtJdnWeFSnA", "review_count": 331, "categories": [{"alias": "japanese", "title": "Japanese"}, {"alias": "sushi", "title": "Sushi Bars"}, {"alias": "korean", "title": "Korean"}], "rating": 3.5, "coordinates": {"latitude": 32.9183871, "longitude": -117.1225405}, "transactions": ["delivery", "pickup"], "price": "$$", "location": {"address1": "9430 Mira Mesa Blvd", "address2": "Ste 5C", "address3": "", "city": "San Diego", "zip_code": "92126", "country": "US", "state": "CA", "display_address": ["9430 Mira Mesa Blvd", "Ste 5C", "San Diego, CA 92126"]}, "phone": "+18585308600", "display_phone": "(858) 530-8600", "distance": 18681.09687417878}], "total": 19, "region": {"center": {"longitude": -117.25433349609375, "latitude": 33.04488992556048}}}