{"businesses": [{"id": "GFJAufpeNCw_qBBjVhGa_g", "alias": "mekong-cuisine-lao-and-thai-san-diego", "name": "Mekong Cuisine Lao and Thai", "image_url": "https://s3-media2.fl.yelpcdn.com/bphoto/8BSNWmm8nfF-hKoQF1caOw/o.jpg", "is_closed": false, "url": "https://www.yelp.com/biz/mekong-cuisine-lao-and-thai-san-diego?adjust_creative=oncXGL2aPIKrtJdnWeFSnA&utm_campaign=yelp_api_v3&utm_medium=api_v3_business_search&utm_source=oncXGL2aPIKrtJdnWeFSnA", "review_count": 362, "categories": [{"alias": "laotian", "title": "Laotian"}, {"alias": "thai", "title": "Thai"}, {"alias": "seafood", "title": "Seafood"}], "rating": 4.5, "coordinates": {"latitude": 32.8146899, "longitude": -117.1544739}, "transactions": ["pickup", "delivery"], "price": "$", "location": {"address1": "3904 Convoy St", "address2": "Ste 112", "address3": "", "city": "San Diego", "zip_code": "92111", "country": "US", "state": "CA", "display_address": ["3904 Convoy St", "Ste 112", "San Diego, CA 92111"]}, "phone": "+18582791879", "display_phone": "(858) 279-1879", "distance": 27240.94148671469}, {"id": "PQRyDSABKOHV9EVc5ie9VA", "alias": "food-affair-san-diego-2", "name": "Food Affair", "image_url": "https://s3-media2.fl.yelpcdn.com/bphoto/YBSVQW69b8OSUvZbwbj5kg/o.jpg", "is_closed": false, "url": "https://www.yelp.com/biz/food-affair-san-diego-2?adjust_creative=oncXGL2aPIKrtJdnWeFSnA&utm_campaign=yelp_api_v3&utm_medium=api_v3_business_search&utm_source=oncXGL2aPIKrtJdnWeFSnA", "review_count": 5, "categories": [{"alias": "laotian", "title": "Laotian"}, {"alias": "asianfusion", "title": "Asian Fusion"}, {"alias": "foodtrucks", "title": "Food Trucks"}], "rating": 5.0, "coordinates": {"latitude": 32.75975, "longitude": -117.12983}, "transactions": [], "location": {"address1": "4535 30th St", "address2": "Ste 108", "address3": null, "city": "San Diego", "zip_code": "92116", "country": "US", "state": "CA", "display_address": ["4535 30th St", "Ste 108", "San Diego, CA 92116"]}, "phone": "+18552672736", "display_phone": "(855) 267-2736", "distance": 33754.42390105004}, {"id": "lgGz02QjawZy5NRohvbPZA", "alias": "ban-lao-cuisine-san-diego", "name": "Ban Lao Cuisine", "image_url": "https://s3-media1.fl.yelpcdn.com/bphoto/07vx5bKJy2G6_JbuJj9CPg/o.jpg", "is_closed": false, "url": "https://www.yelp.com/biz/ban-lao-cuisine-san-diego?adjust_creative=oncXGL2aPIKrtJdnWeFSnA&utm_campaign=yelp_api_v3&utm_medium=api_v3_business_search&utm_source=oncXGL2aPIKrtJdnWeFSnA", "review_count": 264, "categories": [{"alias": "laotian", "title": "Laotian"}, {"alias": "thai", "title": "Thai"}], "rating": 4.5, "coordinates": {"latitude": 32.750045985705, "longitude": -117.105854786932}, "transactions": [], "price": "$", "location": {"address1": "4126 University Ave", "address2": "", "address3": null, "city": "San Diego", "zip_code": "92105", "country": "US", "state": "CA", "display_address": ["4126 University Ave", "San Diego, CA 92105"]}, "phone": "+16195011378", "display_phone": "(619) 501-1378", "distance": 35595.41529723138}, {"id": "O7SDbQSCViD39JRSHtr9Tg", "alias": "sang-dao-san-diego", "name": "Sang Dao", "image_url": "https://s3-media3.fl.yelpcdn.com/bphoto/1cVsgSHR1Vey36gB5oqVNg/o.jpg", "is_closed": false, "url": "https://www.yelp.com/biz/sang-dao-san-diego?adjust_creative=oncXGL2aPIKrtJdnWeFSnA&utm_campaign=yelp_api_v3&utm_medium=api_v3_business_search&utm_source=oncXGL2aPIKrtJdnWeFSnA", "review_count": 648, "categories": [{"alias": "thai", "title": "Thai"}, {"alias": "laotian", "title": "Laotian"}], "rating": 4.0, "coordinates": {"latitude": 32.7577948, "longitude": -117.0787437}, "transactions": [], "price": "$", "location": {"address1": "5421 El Cajon Blvd", "address2": "", "address3": "", "city": "San Diego", "zip_code": "92115", "country": "US", "state": "CA", "display_address": ["5421 El Cajon Blvd", "San Diego, CA 92115"]}, "phone": "+16192630914", "display_phone": "(619) 263-0914", "distance": 35907.34960407333}, {"id": "tQk3-VG7VJiZaxHpbBq62A", "alias": "lao-community-market-san-diego", "name": "Lao Community Market", "image_url": "https://s3-media4.fl.yelpcdn.com/bphoto/v4kDd2mTCsHX0ldTsIbDtQ/o.jpg", "is_closed": false, "url": "https://www.yelp.com/biz/lao-community-market-san-diego?adjust_creative=oncXGL2aPIKrtJdnWeFSnA&utm_campaign=yelp_api_v3&utm_medium=api_v3_business_search&utm_source=oncXGL2aPIKrtJdnWeFSnA", "review_count": 60, "categories": [{"alias": "laotian", "title": "Laotian"}, {"alias": "thai", "title": "Thai"}], "rating": 4.5, "coordinates": {"latitude": 32.70464, "longitude": -117.09406}, "transactions": [], "price": "$", "location": {"address1": "110 47th St", "address2": "", "address3": "", "city": "San Diego", "zip_code": "92102", "country": "US", "state": "CA", "display_address": ["110 47th St", "San Diego, CA 92102"]}, "phone": "+16194938525", "display_phone": "(619) 493-8525", "distance": 40704.391646811775}, {"id": "EngdJJQ6hbhgCzDTaapJtg", "alias": "bane-phonkeos-san-diego-4", "name": "Bane Phonkeo's", "image_url": "https://s3-media2.fl.yelpcdn.com/bphoto/V-gxtvvRAUQWxvBDEct4Ag/o.jpg", "is_closed": false, "url": "https://www.yelp.com/biz/bane-phonkeos-san-diego-4?adjust_creative=oncXGL2aPIKrtJdnWeFSnA&utm_campaign=yelp_api_v3&utm_medium=api_v3_business_search&utm_source=oncXGL2aPIKrtJdnWeFSnA", "review_count": 51, "categories": [{"alias": "laotian", "title": "Laotian"}], "rating": 4.0, "coordinates": {"latitude": 32.70462, "longitude": -117.094063}, "transactions": [], "price": "$", "location": {"address1": "110 47th St", "address2": "", "address3": "", "city": "San Diego", "zip_code": "92102", "country": "US", "state": "CA", "display_address": ["110 47th St", "San Diego, CA 92102"]}, "phone": "+16194938525", "display_phone": "(619) 493-8525", "distance": 40704.391646811775}, {"id": "FwadWc5qKmVhiWZWqzgHdA", "alias": "harborside-thai-lao-and-sushi-san-diego", "name": "Harborside Thai, Lao & Sushi", "image_url": "https://s3-media2.fl.yelpcdn.com/bphoto/7RuPMTELsxURaMlOeeXNCA/o.jpg", "is_closed": false, "url": "https://www.yelp.com/biz/harborside-thai-lao-and-sushi-san-diego?adjust_creative=oncXGL2aPIKrtJdnWeFSnA&utm_campaign=yelp_api_v3&utm_medium=api_v3_business_search&utm_source=oncXGL2aPIKrtJdnWeFSnA", "review_count": 142, "categories": [{"alias": "sushi", "title": "Sushi Bars"}, {"alias": "thai", "title": "Thai"}, {"alias": "laotian", "title": "Laotian"}], "rating": 3.5, "coordinates": {"latitude": 32.6931299, "longitude": -117.13275}, "transactions": [], "price": "$$", "location": {"address1": "2844 Main St", "address2": "Ste B", "address3": "", "city": "San Diego", "zip_code": "92113", "country": "US", "state": "CA", "display_address": ["2844 Main St", "Ste B", "San Diego, CA 92113"]}, "phone": "+16192698424", "display_phone": "(619) 269-8424", "distance": 40723.8768009291}], "total": 7, "region": {"center": {"longitude": -117.25433349609375, "latitude": 33.04488992556048}}}