{"businesses": [{"id": "RqIY61uAMC-pZucPUoy8Dg", "alias": "le-papagayo-encinitas", "name": "Le Papagayo", "image_url": "https://s3-media3.fl.yelpcdn.com/bphoto/3D83Waz_BiclHdYgLiTkhQ/o.jpg", "is_closed": false, "url": "https://www.yelp.com/biz/le-papagayo-encinitas?adjust_creative=oncXGL2aPIKrtJdnWeFSnA&utm_campaign=yelp_api_v3&utm_medium=api_v3_business_search&utm_source=oncXGL2aPIKrtJdnWeFSnA", "review_count": 1136, "categories": [{"alias": "latin", "title": "Latin American"}, {"alias": "breakfast_brunch", "title": "Breakfast & Brunch"}], "rating": 4.0, "coordinates": {"latitude": 33.066291, "longitude": -117.3031}, "transactions": [], "price": "$$", "location": {"address1": "1002 N Coast Hwy 101", "address2": null, "address3": "", "city": "Encinitas", "zip_code": "92024", "country": "US", "state": "CA", "display_address": ["1002 N Coast Hwy 101", "Encinitas, CA 92024"]}, "phone": "+17609448252", "display_phone": "(760) 944-8252", "distance": 5130.200797989712}, {"id": "5HaVR9oKRqS5o4ois2FgXQ", "alias": "arepas-papachon-encinitas", "name": "Arepas Papachon", "image_url": "https://s3-media3.fl.yelpcdn.com/bphoto/qLWeziHGwx77LlOdfgqGMw/o.jpg", "is_closed": false, "url": "https://www.yelp.com/biz/arepas-papachon-encinitas?adjust_creative=oncXGL2aPIKrtJdnWeFSnA&utm_campaign=yelp_api_v3&utm_medium=api_v3_business_search&utm_source=oncXGL2aPIKrtJdnWeFSnA", "review_count": 13, "categories": [{"alias": "venezuelan", "title": "Venezuelan"}], "rating": 4.5, "coordinates": {"latitude": 33.0579723, "longitude": -117.2971573}, "transactions": [], "price": "$", "location": {"address1": "185 Union St", "address2": null, "address3": "", "city": "Encinitas", "zip_code": "92024", "country": "US", "state": "CA", "display_address": ["185 Union St", "Encinitas, CA 92024"]}, "phone": "+17606962060", "display_phone": "(760) 696-2060", "distance": 4238.386559871366}, {"id": "WaqSIbygnPUb0GwVewSsmw", "alias": "death-by-tequila-encinitas", "name": "Death by Tequila", "image_url": "https://s3-media2.fl.yelpcdn.com/bphoto/RsxtUibm_lXV3ABbKjChFw/o.jpg", "is_closed": false, "url": "https://www.yelp.com/biz/death-by-tequila-encinitas?adjust_creative=oncXGL2aPIKrtJdnWeFSnA&utm_campaign=yelp_api_v3&utm_medium=api_v3_business_search&utm_source=oncXGL2aPIKrtJdnWeFSnA", "review_count": 120, "categories": [{"alias": "latin", "title": "Latin American"}, {"alias": "cocktailbars", "title": "Cocktail Bars"}, {"alias": "breakfast_brunch", "title": "Breakfast & Brunch"}], "rating": 3.5, "coordinates": {"latitude": 33.0449813, "longitude": -117.2935575}, "transactions": [], "price": "$$", "location": {"address1": "569 S Coast Hwy 101", "address2": "", "address3": null, "city": "Encinitas", "zip_code": "92024", "country": "US", "state": "CA", "display_address": ["569 S Coast Hwy 101", "Encinitas, CA 92024"]}, "phone": "+17607822240", "display_phone": "(760) 782-2240", "distance": 3646.944995860829}, {"id": "TJAPwTxh7TsmfPd3UcKKhw", "alias": "cuscatlan-comida-salvadore\u00f1a-escondido-3", "name": "Cuscatlan Comida Salvadore\u00f1a", "image_url": "https://s3-media2.fl.yelpcdn.com/bphoto/zN5HhJ00sMKGSbQXd2RfKQ/o.jpg", "is_closed": false, "url": "https://www.yelp.com/biz/cuscatlan-comida-salvadore%C3%B1a-escondido-3?adjust_creative=oncXGL2aPIKrtJdnWeFSnA&utm_campaign=yelp_api_v3&utm_medium=api_v3_business_search&utm_source=oncXGL2aPIKrtJdnWeFSnA", "review_count": 270, "categories": [{"alias": "salvadoran", "title": "Salvadoran"}, {"alias": "pizza", "title": "Pizza"}], "rating": 4.0, "coordinates": {"latitude": 33.1223412, "longitude": -117.0793991}, "transactions": [], "price": "$", "location": {"address1": "221 E Grand Ave", "address2": "", "address3": "", "city": "Escondido", "zip_code": "92025", "country": "US", "state": "CA", "display_address": ["221 E Grand Ave", "Escondido, CA 92025"]}, "phone": "+17602911225", "display_phone": "(760) 291-1225", "distance": 18432.697000004566}, {"id": "YTXQaUyNRF2DM7h6_Q9y4A", "alias": "cocina-del-charro-san-marcos", "name": "Cocina Del Charro", "image_url": "https://s3-media4.fl.yelpcdn.com/bphoto/0sFMfEbDQjqaI2LN4RvLyw/o.jpg", "is_closed": false, "url": "https://www.yelp.com/biz/cocina-del-charro-san-marcos?adjust_creative=oncXGL2aPIKrtJdnWeFSnA&utm_campaign=yelp_api_v3&utm_medium=api_v3_business_search&utm_source=oncXGL2aPIKrtJdnWeFSnA", "review_count": 442, "categories": [{"alias": "mexican", "title": "Mexican"}, {"alias": "latin", "title": "Latin American"}, {"alias": "buffets", "title": "Buffets"}], "rating": 3.5, "coordinates": {"latitude": 33.1348588, "longitude": -117.1904449}, "transactions": [], "price": "$$", "location": {"address1": "1020 W San Marcos Blvd", "address2": "Ste 50", "address3": null, "city": "San Marcos", "zip_code": "92078", "country": "US", "state": "CA", "display_address": ["1020 W San Marcos Blvd", "Ste 50", "San Marcos, CA 92078"]}, "phone": "+17604716644", "display_phone": "(760) 471-6644", "distance": 11640.73074661709}, {"id": "LGfejREl45FTacWjn-W4Lg", "alias": "el-chapin-restaurant-vista", "name": "El Chapin Restaurant", "image_url": "https://s3-media4.fl.yelpcdn.com/bphoto/RGIe-F2VemTYU1SN8wsndg/o.jpg", "is_closed": false, "url": "https://www.yelp.com/biz/el-chapin-restaurant-vista?adjust_creative=oncXGL2aPIKrtJdnWeFSnA&utm_campaign=yelp_api_v3&utm_medium=api_v3_business_search&utm_source=oncXGL2aPIKrtJdnWeFSnA", "review_count": 6, "categories": [{"alias": "latin", "title": "Latin American"}], "rating": 4.0, "coordinates": {"latitude": 33.2140292, "longitude": -117.2284731}, "transactions": [], "location": {"address1": "1072 E Vista Way", "address2": "", "address3": null, "city": "Vista", "zip_code": "92084", "country": "US", "state": "CA", "display_address": ["1072 E Vista Way", "Vista, CA 92084"]}, "phone": "+17605363488", "display_phone": "(760) 536-3488", "distance": 18974.35647189705}, {"id": "IoiOa365lxtLB1vlpc-vJA", "alias": "panaderia-del-valle-escondido-2", "name": "Panaderia Del Valle", "image_url": "", "is_closed": false, "url": "https://www.yelp.com/biz/panaderia-del-valle-escondido-2?adjust_creative=oncXGL2aPIKrtJdnWeFSnA&utm_campaign=yelp_api_v3&utm_medium=api_v3_business_search&utm_source=oncXGL2aPIKrtJdnWeFSnA", "review_count": 1, "categories": [{"alias": "latin", "title": "Latin American"}], "rating": 1.0, "coordinates": {"latitude": 33.1351058516723, "longitude": -117.079747840762}, "transactions": [], "location": {"address1": "655 E Lincoln Ave", "address2": "", "address3": "", "city": "Escondido", "zip_code": "92026", "country": "US", "state": "CA", "display_address": ["655 E Lincoln Ave", "Escondido, CA 92026"]}, "phone": "+17608716000", "display_phone": "(760) 871-6000", "distance": 19109.30582342398}], "total": 7, "region": {"center": {"longitude": -117.25433349609375, "latitude": 33.04488992556048}}}