{"businesses": [{"id": "vRkXN6aMDDA0unAfz-XXyQ", "alias": "cancun-mexican-and-seafood-encinitas-2", "name": "Cancun Mexican and Seafood", "image_url": "https://s3-media2.fl.yelpcdn.com/bphoto/xaq4H5PYHlU3koD1jpkTfA/o.jpg", "is_closed": false, "url": "https://www.yelp.com/biz/cancun-mexican-and-seafood-encinitas-2?adjust_creative=oncXGL2aPIKrtJdnWeFSnA&utm_campaign=yelp_api_v3&utm_medium=api_v3_business_search&utm_source=oncXGL2aPIKrtJdnWeFSnA", "review_count": 300, "categories": [{"alias": "seafood", "title": "Seafood"}, {"alias": "mexican", "title": "Mexican"}], "rating": 4.5, "coordinates": {"latitude": 33.079513, "longitude": -117.30749}, "transactions": [], "price": "$", "location": {"address1": "1766 N Coast Hwy 101", "address2": "Unit B", "address3": "", "city": "Encinitas", "zip_code": "92024", "country": "US", "state": "CA", "display_address": ["1766 N Coast Hwy 101", "Unit B", "Encinitas, CA 92024"]}, "phone": "+17606333333", "display_phone": "(760) 633-3333", "distance": 6273.792435655364}, {"id": "ZLcfZOUonKJN5G5fH7k1RA", "alias": "the-taco-stand-encinitas", "name": "The Taco Stand", "image_url": "https://s3-media4.fl.yelpcdn.com/bphoto/cgzu7PmXDxqCdMolyQ7gqA/o.jpg", "is_closed": false, "url": "https://www.yelp.com/biz/the-taco-stand-encinitas?adjust_creative=oncXGL2aPIKrtJdnWeFSnA&utm_campaign=yelp_api_v3&utm_medium=api_v3_business_search&utm_source=oncXGL2aPIKrtJdnWeFSnA", "review_count": 942, "categories": [{"alias": "tacos", "title": "Tacos"}], "rating": 4.0, "coordinates": {"latitude": 33.04407, "longitude": -117.29388}, "transactions": ["delivery", "pickup"], "price": "$", "location": {"address1": "642 S Coast Hwy 101", "address2": "", "address3": null, "city": "Encinitas", "zip_code": "92024", "country": "US", "state": "CA", "display_address": ["642 S Coast Hwy 101", "Encinitas, CA 92024"]}, "phone": "+17602302061", "display_phone": "(760) 230-2061", "distance": 3688.4604760714997}, {"id": "APOCBfHgMglE92IMOMR25Q", "alias": "lourdes-encinitas-2", "name": "Lourdes", "image_url": "https://s3-media4.fl.yelpcdn.com/bphoto/LfluaVf9xd8nxNa6t2IFpA/o.jpg", "is_closed": false, "url": "https://www.yelp.com/biz/lourdes-encinitas-2?adjust_creative=oncXGL2aPIKrtJdnWeFSnA&utm_campaign=yelp_api_v3&utm_medium=api_v3_business_search&utm_source=oncXGL2aPIKrtJdnWeFSnA", "review_count": 221, "categories": [{"alias": "mexican", "title": "Mexican"}], "rating": 4.0, "coordinates": {"latitude": 33.020943, "longitude": -117.282154}, "transactions": [], "price": "$", "location": {"address1": "2113 San Elijo Ave", "address2": "", "address3": "", "city": "Encinitas", "zip_code": "92007", "country": "US", "state": "CA", "display_address": ["2113 San Elijo Ave", "Encinitas, CA 92007"]}, "phone": "+17602302610", "display_phone": "(760) 230-2610", "distance": 3717.0382571084237}, {"id": "_CALpa7IughJF00lwIzqIA", "alias": "el-pueblo-authentic-mexican-food-cardiff-by-the-sea", "name": "El Pueblo Authentic Mexican Food", "image_url": "https://s3-media4.fl.yelpcdn.com/bphoto/nfnjElbPzXLRp7XVup_5eA/o.jpg", "is_closed": false, "url": "https://www.yelp.com/biz/el-pueblo-authentic-mexican-food-cardiff-by-the-sea?adjust_creative=oncXGL2aPIKrtJdnWeFSnA&utm_campaign=yelp_api_v3&utm_medium=api_v3_business_search&utm_source=oncXGL2aPIKrtJdnWeFSnA", "review_count": 386, "categories": [{"alias": "mexican", "title": "Mexican"}], "rating": 4.0, "coordinates": {"latitude": 33.0267, "longitude": -117.27321}, "transactions": [], "price": "$", "location": {"address1": "820 Birmingham Dr", "address2": "", "address3": "", "city": "Cardiff-by-the-Sea", "zip_code": "92007", "country": "US", "state": "CA", "display_address": ["820 Birmingham Dr", "Cardiff-by-the-Sea, CA 92007"]}, "phone": "+17602301771", "display_phone": "(760) 230-1771", "distance": 2661.2585064428085}, {"id": "3XXpsHCrQfkCP6_Po1nA0A", "alias": "mozy-cafe-encinitas", "name": "Mozy Cafe", "image_url": "https://s3-media2.fl.yelpcdn.com/bphoto/kosP7unGr5vn_4oQ9sjGZA/o.jpg", "is_closed": false, "url": "https://www.yelp.com/biz/mozy-cafe-encinitas?adjust_creative=oncXGL2aPIKrtJdnWeFSnA&utm_campaign=yelp_api_v3&utm_medium=api_v3_business_search&utm_source=oncXGL2aPIKrtJdnWeFSnA", "review_count": 397, "categories": [{"alias": "caribbean", "title": "Caribbean"}, {"alias": "mexican", "title": "Mexican"}, {"alias": "breakfast_brunch", "title": "Breakfast & Brunch"}], "rating": 4.0, "coordinates": {"latitude": 33.0616172521144, "longitude": -117.30148519266}, "transactions": [], "price": "$", "location": {"address1": "698 N Coast Hwy 101", "address2": "", "address3": "", "city": "Encinitas", "zip_code": "92024", "country": "US", "state": "CA", "display_address": ["698 N Coast Hwy 101", "Encinitas, CA 92024"]}, "phone": "+17609449168", "display_phone": "(760) 944-9168", "distance": 4771.930284604077}, {"id": "WbBb90IKaMjClcdUN9jeSw", "alias": "juanitas-taco-shop-encinitas", "name": "Juanitas Taco Shop", "image_url": "https://s3-media4.fl.yelpcdn.com/bphoto/L_CRXPlsniwLWruKYWa5lw/o.jpg", "is_closed": false, "url": "https://www.yelp.com/biz/juanitas-taco-shop-encinitas?adjust_creative=oncXGL2aPIKrtJdnWeFSnA&utm_campaign=yelp_api_v3&utm_medium=api_v3_business_search&utm_source=oncXGL2aPIKrtJdnWeFSnA", "review_count": 629, "categories": [{"alias": "mexican", "title": "Mexican"}], "rating": 4.0, "coordinates": {"latitude": 33.0542148243286, "longitude": -117.296938029407}, "transactions": [], "price": "$", "location": {"address1": "290 N Coast Hwy 101", "address2": "", "address3": "", "city": "Encinitas", "zip_code": "92024", "country": "US", "state": "CA", "display_address": ["290 N Coast Hwy 101", "Encinitas, CA 92024"]}, "phone": "+17609439612", "display_phone": "(760) 943-9612", "distance": 4104.0304653879975}, {"id": "tM0vbVnsrAmFxrXrTKJMVQ", "alias": "la-especial-norte-encinitas-5", "name": "La Especial Norte", "image_url": "https://s3-media3.fl.yelpcdn.com/bphoto/YgVu0hAxLz_5cU0E9jJXoQ/o.jpg", "is_closed": false, "url": "https://www.yelp.com/biz/la-especial-norte-encinitas-5?adjust_creative=oncXGL2aPIKrtJdnWeFSnA&utm_campaign=yelp_api_v3&utm_medium=api_v3_business_search&utm_source=oncXGL2aPIKrtJdnWeFSnA", "review_count": 531, "categories": [{"alias": "mexican", "title": "Mexican"}], "rating": 4.0, "coordinates": {"latitude": 33.061219701786, "longitude": -117.301352284849}, "transactions": [], "price": "$$", "location": {"address1": "664 N Coast Hwy 101", "address2": "", "address3": "", "city": "Encinitas", "zip_code": "92024", "country": "US", "state": "CA", "display_address": ["664 N Coast Hwy 101", "Encinitas, CA 92024"]}, "phone": "+17609421040", "display_phone": "(760) 942-1040", "distance": 4743.437565713745}, {"id": "DZO_aJ_ACOjuQOOMIfpxcw", "alias": "ricos-taco-shop-encinitas", "name": "Rico's Taco Shop", "image_url": "https://s3-media1.fl.yelpcdn.com/bphoto/QXHEs2QDwCoPhK9zK4f5mw/o.jpg", "is_closed": false, "url": "https://www.yelp.com/biz/ricos-taco-shop-encinitas?adjust_creative=oncXGL2aPIKrtJdnWeFSnA&utm_campaign=yelp_api_v3&utm_medium=api_v3_business_search&utm_source=oncXGL2aPIKrtJdnWeFSnA", "review_count": 352, "categories": [{"alias": "mexican", "title": "Mexican"}], "rating": 4.0, "coordinates": {"latitude": 33.0435614, "longitude": -117.2593351}, "transactions": [], "price": "$", "location": {"address1": "165 S El Camino Real", "address2": "", "address3": "", "city": "Encinitas", "zip_code": "92024", "country": "US", "state": "CA", "display_address": ["165 S El Camino Real", "Encinitas, CA 92024"]}, "phone": "+17609447689", "display_phone": "(760) 944-7689", "distance": 440.54824373020136}, {"id": "rqyHvjt_EBJdFkjobVFnzQ", "alias": "el-nopalito-encinitas", "name": "El Nopalito", "image_url": "https://s3-media3.fl.yelpcdn.com/bphoto/I_whlVOHVo8ij2lQ8WwPMQ/o.jpg", "is_closed": false, "url": "https://www.yelp.com/biz/el-nopalito-encinitas?adjust_creative=oncXGL2aPIKrtJdnWeFSnA&utm_campaign=yelp_api_v3&utm_medium=api_v3_business_search&utm_source=oncXGL2aPIKrtJdnWeFSnA", "review_count": 237, "categories": [{"alias": "mexican", "title": "Mexican"}, {"alias": "grocery", "title": "Grocery"}, {"alias": "butcher", "title": "Butcher"}], "rating": 4.0, "coordinates": {"latitude": 33.0363709, "longitude": -117.2798319}, "transactions": [], "price": "$", "location": {"address1": "560 Santa Fe Dr", "address2": null, "address3": "", "city": "Encinitas", "zip_code": "92024", "country": "US", "state": "CA", "display_address": ["560 Santa Fe Dr", "Encinitas, CA 92024"]}, "phone": "+17604365775", "display_phone": "(760) 436-5775", "distance": 2561.6712113975977}, {"id": "AyhX5xuo6fqwL-uWMqLvEw", "alias": "jorges-mexicatessen-encinitas-2", "name": "Jorge's Mexicatessen", "image_url": "https://s3-media2.fl.yelpcdn.com/bphoto/GTn_Prsu25GWd4NhBKiB_w/o.jpg", "is_closed": false, "url": "https://www.yelp.com/biz/jorges-mexicatessen-encinitas-2?adjust_creative=oncXGL2aPIKrtJdnWeFSnA&utm_campaign=yelp_api_v3&utm_medium=api_v3_business_search&utm_source=oncXGL2aPIKrtJdnWeFSnA", "review_count": 207, "categories": [{"alias": "mexican", "title": "Mexican"}], "rating": 4.0, "coordinates": {"latitude": 33.0361182935692, "longitude": -117.283408641815}, "transactions": [], "price": "$", "location": {"address1": "417 Santa Fe Dr", "address2": "Ste B", "address3": "", "city": "Encinitas", "zip_code": "92024", "country": "US", "state": "CA", "display_address": ["417 Santa Fe Dr", "Ste B", "Encinitas, CA 92024"]}, "phone": "", "display_phone": "", "distance": 2880.3483623060565}, {"id": "OEt3MLH9pyv1bhcl5zSzxw", "alias": "fish-district-solana-beach-6", "name": "Fish District", "image_url": "https://s3-media1.fl.yelpcdn.com/bphoto/UNsKVeOBhsg-NoC7zFKVkg/o.jpg", "is_closed": false, "url": "https://www.yelp.com/biz/fish-district-solana-beach-6?adjust_creative=oncXGL2aPIKrtJdnWeFSnA&utm_campaign=yelp_api_v3&utm_medium=api_v3_business_search&utm_source=oncXGL2aPIKrtJdnWeFSnA", "review_count": 169, "categories": [{"alias": "mexican", "title": "Mexican"}, {"alias": "fishnchips", "title": "Fish & Chips"}, {"alias": "seafood", "title": "Seafood"}], "rating": 4.5, "coordinates": {"latitude": 32.9932004, "longitude": -117.2593471}, "transactions": [], "price": "$$", "location": {"address1": "665 San Rodolfo Dr", "address2": null, "address3": "", "city": "Solana Beach", "zip_code": "92075", "country": "US", "state": "CA", "display_address": ["665 San Rodolfo Dr", "Solana Beach, CA 92075"]}, "phone": "+18582994888", "display_phone": "(858) 299-4888", "distance": 5766.5837694760885}, {"id": "W2faQfnZ5bJBsChMvFbMOw", "alias": "jorges-mexicatessen-encinitas", "name": "Jorge's Mexicatessen", "image_url": "https://s3-media4.fl.yelpcdn.com/bphoto/xSftnqCSghmm7n-g4DsNPQ/o.jpg", "is_closed": false, "url": "https://www.yelp.com/biz/jorges-mexicatessen-encinitas?adjust_creative=oncXGL2aPIKrtJdnWeFSnA&utm_campaign=yelp_api_v3&utm_medium=api_v3_business_search&utm_source=oncXGL2aPIKrtJdnWeFSnA", "review_count": 346, "categories": [{"alias": "delis", "title": "Delis"}, {"alias": "mexican", "title": "Mexican"}], "rating": 4.0, "coordinates": {"latitude": 33.05312, "longitude": -117.260166}, "transactions": [], "price": "$", "location": {"address1": "267 N El Camino Real", "address2": "Ste E", "address3": "", "city": "Encinitas", "zip_code": "92024", "country": "US", "state": "CA", "display_address": ["267 N El Camino Real", "Ste E", "Encinitas, CA 92024"]}, "phone": "+17609426809", "display_phone": "(760) 942-6809", "distance": 1064.4240672709752}, {"id": "RZY3rzblNJzMd53R7tJvqg", "alias": "lourdes-san-marcos-2", "name": "Lourdes", "image_url": "https://s3-media2.fl.yelpcdn.com/bphoto/ErENBBHdt_I7t8AW-AKcxA/o.jpg", "is_closed": false, "url": "https://www.yelp.com/biz/lourdes-san-marcos-2?adjust_creative=oncXGL2aPIKrtJdnWeFSnA&utm_campaign=yelp_api_v3&utm_medium=api_v3_business_search&utm_source=oncXGL2aPIKrtJdnWeFSnA", "review_count": 29, "categories": [{"alias": "mexican", "title": "Mexican"}], "rating": 4.0, "coordinates": {"latitude": 33.0945172, "longitude": -117.2069865}, "transactions": [], "location": {"address1": "1646 San Elijo Rd", "address2": "Ste 103", "address3": null, "city": "San Marcos", "zip_code": "92078", "country": "US", "state": "CA", "display_address": ["1646 San Elijo Rd", "Ste 103", "San Marcos, CA 92078"]}, "phone": "", "display_phone": "", "distance": 7643.481353210299}, {"id": "iCKDFqPRJY2IjXaO-D4LpQ", "alias": "haggos-organic-taco-leucadia", "name": "Haggo's Organic Taco", "image_url": "https://s3-media1.fl.yelpcdn.com/bphoto/incir4xgQ38alsl8U6M_hg/o.jpg", "is_closed": false, "url": "https://www.yelp.com/biz/haggos-organic-taco-leucadia?adjust_creative=oncXGL2aPIKrtJdnWeFSnA&utm_campaign=yelp_api_v3&utm_medium=api_v3_business_search&utm_source=oncXGL2aPIKrtJdnWeFSnA", "review_count": 398, "categories": [{"alias": "tacos", "title": "Tacos"}], "rating": 4.0, "coordinates": {"latitude": 33.070913074712, "longitude": -117.304644025862}, "transactions": [], "price": "$$", "location": {"address1": "1302 N Coast Hwy 101", "address2": "Ste 101", "address3": "", "city": "Leucadia", "zip_code": "92024", "country": "US", "state": "CA", "display_address": ["1302 N Coast Hwy 101", "Ste 101", "Leucadia, CA 92024"]}, "phone": "+17607536000", "display_phone": "(760) 753-6000", "distance": 5509.695976393251}, {"id": "7I7UsXW13ezDf55zg00RLQ", "alias": "hacienda-de-vega-encinitas", "name": "Hacienda de Vega", "image_url": "https://s3-media2.fl.yelpcdn.com/bphoto/FcZDAumVLzJ3Gs-D_58rxA/o.jpg", "is_closed": false, "url": "https://www.yelp.com/biz/hacienda-de-vega-encinitas?adjust_creative=oncXGL2aPIKrtJdnWeFSnA&utm_campaign=yelp_api_v3&utm_medium=api_v3_business_search&utm_source=oncXGL2aPIKrtJdnWeFSnA", "review_count": 76, "categories": [{"alias": "mexican", "title": "Mexican"}], "rating": 3.0, "coordinates": {"latitude": 33.0354266644617, "longitude": -117.238577669478}, "transactions": [], "location": {"address1": "162 S Rancho Santa Fe Rd", "address2": "", "address3": null, "city": "Encinitas", "zip_code": "92024", "country": "US", "state": "CA", "display_address": ["162 S Rancho Santa Fe Rd", "Encinitas, CA 92024"]}, "phone": "+17607389804", "display_phone": "(760) 738-9804", "distance": 1806.7110512692936}, {"id": "TxoO0jiUh_VMAU3I10EreQ", "alias": "miguels-cocina-carlsbad", "name": "Miguel's Cocina", "image_url": "https://s3-media2.fl.yelpcdn.com/bphoto/EIL3gjtE_nuQMj8eK2Bukw/o.jpg", "is_closed": false, "url": "https://www.yelp.com/biz/miguels-cocina-carlsbad?adjust_creative=oncXGL2aPIKrtJdnWeFSnA&utm_campaign=yelp_api_v3&utm_medium=api_v3_business_search&utm_source=oncXGL2aPIKrtJdnWeFSnA", "review_count": 871, "categories": [{"alias": "mexican", "title": "Mexican"}], "rating": 4.0, "coordinates": {"latitude": 33.1230698, "longitude": -117.3242264}, "transactions": [], "price": "$$", "location": {"address1": "5980 Avenida Encinas", "address2": "", "address3": "", "city": "Carlsbad", "zip_code": "92008", "country": "US", "state": "CA", "display_address": ["5980 Avenida Encinas", "Carlsbad, CA 92008"]}, "phone": "+17607591843", "display_phone": "(760) 759-1843", "distance": 10876.301167556121}, {"id": "2P1a4MWhcFfER_IoX28lgQ", "alias": "casa-de-bandini-carlsbad", "name": "Casa de Bandini", "image_url": "https://s3-media3.fl.yelpcdn.com/bphoto/PI3ciHhBNkQNqC5p8egSxQ/o.jpg", "is_closed": false, "url": "https://www.yelp.com/biz/casa-de-bandini-carlsbad?adjust_creative=oncXGL2aPIKrtJdnWeFSnA&utm_campaign=yelp_api_v3&utm_medium=api_v3_business_search&utm_source=oncXGL2aPIKrtJdnWeFSnA", "review_count": 1206, "categories": [{"alias": "mexican", "title": "Mexican"}, {"alias": "bars", "title": "Bars"}], "rating": 4.0, "coordinates": {"latitude": 33.071562089619, "longitude": -117.26717118703}, "transactions": ["pickup"], "price": "$$", "location": {"address1": "1901 Calle Barcelona", "address2": "", "address3": "", "city": "Carlsbad", "zip_code": "92009", "country": "US", "state": "CA", "display_address": ["1901 Calle Barcelona", "Carlsbad, CA 92009"]}, "phone": "+17606343443", "display_phone": "(760) 634-3443", "distance": 3198.026715153155}, {"id": "LWF_ts0DhuGZqp0WiI2_-g", "alias": "craft-burrito-company-del-mar", "name": "Craft Burrito Company", "image_url": "https://s3-media3.fl.yelpcdn.com/bphoto/ByFtltsAIh43hhFUGg5aEg/o.jpg", "is_closed": false, "url": "https://www.yelp.com/biz/craft-burrito-company-del-mar?adjust_creative=oncXGL2aPIKrtJdnWeFSnA&utm_campaign=yelp_api_v3&utm_medium=api_v3_business_search&utm_source=oncXGL2aPIKrtJdnWeFSnA", "review_count": 179, "categories": [{"alias": "mexican", "title": "Mexican"}, {"alias": "breakfast_brunch", "title": "Breakfast & Brunch"}, {"alias": "beerbar", "title": "Beer Bar"}], "rating": 4.0, "coordinates": {"latitude": 32.95948, "longitude": -117.26485}, "transactions": [], "price": "$$", "location": {"address1": "1435 Camino Del Mar", "address2": "Ste D", "address3": "", "city": "Del Mar", "zip_code": "92014", "country": "US", "state": "CA", "display_address": ["1435 Camino Del Mar", "Ste D", "Del Mar, CA 92014"]}, "phone": "+18582610659", "display_phone": "(858) 261-0659", "distance": 9554.333230367612}, {"id": "XlDunwj53mS-KsD8m0r6kw", "alias": "las-olas-mexican-restaurant-cardiff-by-the-sea-3", "name": "Las Olas Mexican Restaurant", "image_url": "https://s3-media1.fl.yelpcdn.com/bphoto/0IWoC47Z3VMPcasxOclFiQ/o.jpg", "is_closed": false, "url": "https://www.yelp.com/biz/las-olas-mexican-restaurant-cardiff-by-the-sea-3?adjust_creative=oncXGL2aPIKrtJdnWeFSnA&utm_campaign=yelp_api_v3&utm_medium=api_v3_business_search&utm_source=oncXGL2aPIKrtJdnWeFSnA", "review_count": 645, "categories": [{"alias": "mexican", "title": "Mexican"}], "rating": 3.5, "coordinates": {"latitude": 33.0111985453815, "longitude": -117.278914525577}, "transactions": [], "price": "$$", "location": {"address1": "2655 S Coast Hwy 101", "address2": null, "address3": "", "city": "Cardiff by the Sea", "zip_code": "92007", "country": "US", "state": "CA", "display_address": ["2655 S Coast Hwy 101", "Cardiff by the Sea, CA 92007"]}, "phone": "+17609421860", "display_phone": "(760) 942-1860", "distance": 4391.607708846784}, {"id": "grAT1dOcnOC3eTP67Wabsw", "alias": "kotija-jr-taco-shop-encinitas", "name": "Kotija Jr Taco Shop", "image_url": "https://s3-media1.fl.yelpcdn.com/bphoto/EwklYKx6ofKoOwG_t-pJbw/o.jpg", "is_closed": false, "url": "https://www.yelp.com/biz/kotija-jr-taco-shop-encinitas?adjust_creative=oncXGL2aPIKrtJdnWeFSnA&utm_campaign=yelp_api_v3&utm_medium=api_v3_business_search&utm_source=oncXGL2aPIKrtJdnWeFSnA", "review_count": 278, "categories": [{"alias": "mexican", "title": "Mexican"}], "rating": 4.0, "coordinates": {"latitude": 33.063948, "longitude": -117.302419}, "transactions": [], "price": "$", "location": {"address1": "852 N Coast Hwy 101", "address2": "", "address3": "", "city": "Encinitas", "zip_code": "92023", "country": "US", "state": "CA", "display_address": ["852 N Coast Hwy 101", "Encinitas, CA 92023"]}, "phone": "+17606321616", "display_phone": "(760) 632-1616", "distance": 4957.271231284341}, {"id": "3lENp4v5FNFovWDbrcuAlg", "alias": "karinas-taco-shop-encinitas", "name": "Karina's Taco Shop", "image_url": "https://s3-media2.fl.yelpcdn.com/bphoto/rZlUDkid4_SVU2Hv8jtsNg/o.jpg", "is_closed": false, "url": "https://www.yelp.com/biz/karinas-taco-shop-encinitas?adjust_creative=oncXGL2aPIKrtJdnWeFSnA&utm_campaign=yelp_api_v3&utm_medium=api_v3_business_search&utm_source=oncXGL2aPIKrtJdnWeFSnA", "review_count": 187, "categories": [{"alias": "mexican", "title": "Mexican"}], "rating": 4.0, "coordinates": {"latitude": 33.06479, "longitude": -117.30269}, "transactions": [], "price": "$", "location": {"address1": "916 N Coast Hwy 101", "address2": "", "address3": "", "city": "Encinitas", "zip_code": "92024", "country": "US", "state": "CA", "display_address": ["916 N Coast Hwy 101", "Encinitas, CA 92024"]}, "phone": "+17606333300", "display_phone": "(760) 633-3300", "distance": 5016.055030884846}, {"id": "_JH-hGvZhQmbk7IOZ97QeQ", "alias": "fish-house-solana-beach-solana-beach", "name": "Fish House-Solana Beach", "image_url": "https://s3-media3.fl.yelpcdn.com/bphoto/0L2cHHYQuPsd_Jn_ct6lXA/o.jpg", "is_closed": false, "url": "https://www.yelp.com/biz/fish-house-solana-beach-solana-beach?adjust_creative=oncXGL2aPIKrtJdnWeFSnA&utm_campaign=yelp_api_v3&utm_medium=api_v3_business_search&utm_source=oncXGL2aPIKrtJdnWeFSnA", "review_count": 311, "categories": [{"alias": "seafood", "title": "Seafood"}, {"alias": "fishnchips", "title": "Fish & Chips"}, {"alias": "mexican", "title": "Mexican"}], "rating": 4.0, "coordinates": {"latitude": 32.99266, "longitude": -117.27013}, "transactions": [], "price": "$$", "location": {"address1": "124 Lomas Santa Fe Dr", "address2": "", "address3": "", "city": "Solana Beach", "zip_code": "92075", "country": "US", "state": "CA", "display_address": ["124 Lomas Santa Fe Dr", "Solana Beach, CA 92075"]}, "phone": "+18584813474", "display_phone": "(858) 481-3474", "distance": 6008.117802323982}, {"id": "VknIQhhb1d6I9-E15dInPw", "alias": "las-brisas-mexican-cuisine-san-marcos", "name": "Las Brisas Mexican Cuisine", "image_url": "https://s3-media2.fl.yelpcdn.com/bphoto/7E9b7MwR4U5qK5NEwnbaCw/o.jpg", "is_closed": false, "url": "https://www.yelp.com/biz/las-brisas-mexican-cuisine-san-marcos?adjust_creative=oncXGL2aPIKrtJdnWeFSnA&utm_campaign=yelp_api_v3&utm_medium=api_v3_business_search&utm_source=oncXGL2aPIKrtJdnWeFSnA", "review_count": 612, "categories": [{"alias": "mexican", "title": "Mexican"}, {"alias": "seafood", "title": "Seafood"}, {"alias": "breakfast_brunch", "title": "Breakfast & Brunch"}], "rating": 4.5, "coordinates": {"latitude": 33.13491, "longitude": -117.20545}, "transactions": [], "price": "$", "location": {"address1": "577 S Rancho Santa Fe Rd", "address2": "Ste 105", "address3": "", "city": "San Marcos", "zip_code": "92078", "country": "US", "state": "CA", "display_address": ["577 S Rancho Santa Fe Rd", "Ste 105", "San Marcos, CA 92078"]}, "phone": "+17607989906", "display_phone": "(760) 798-9906", "distance": 11007.772822275956}, {"id": "IiqvG_uGyXUwN2B4jQqPYQ", "alias": "cotixan-mexican-and-seafood-encinitas", "name": "Cotixan Mexican & Seafood", "image_url": "https://s3-media2.fl.yelpcdn.com/bphoto/DhTQorN8hIHYzg3tRAPUmw/o.jpg", "is_closed": false, "url": "https://www.yelp.com/biz/cotixan-mexican-and-seafood-encinitas?adjust_creative=oncXGL2aPIKrtJdnWeFSnA&utm_campaign=yelp_api_v3&utm_medium=api_v3_business_search&utm_source=oncXGL2aPIKrtJdnWeFSnA", "review_count": 265, "categories": [{"alias": "mexican", "title": "Mexican"}], "rating": 3.5, "coordinates": {"latitude": 33.05065, "longitude": -117.25994}, "transactions": [], "price": "$", "location": {"address1": "219 N El Camino Real", "address2": "", "address3": "", "city": "Encinitas", "zip_code": "92024", "country": "US", "state": "CA", "display_address": ["219 N El Camino Real", "Encinitas, CA 92024"]}, "phone": "+17604792567", "display_phone": "(760) 479-2567", "distance": 835.4743725866264}, {"id": "Ezd7YJztCVfxFU9W8cMKIw", "alias": "tonys-jacal-solana-beach-2", "name": "Tony's Jacal", "image_url": "https://s3-media1.fl.yelpcdn.com/bphoto/Fwno0EvjVIBmsSLBWpz9mw/o.jpg", "is_closed": false, "url": "https://www.yelp.com/biz/tonys-jacal-solana-beach-2?adjust_creative=oncXGL2aPIKrtJdnWeFSnA&utm_campaign=yelp_api_v3&utm_medium=api_v3_business_search&utm_source=oncXGL2aPIKrtJdnWeFSnA", "review_count": 538, "categories": [{"alias": "mexican", "title": "Mexican"}], "rating": 4.0, "coordinates": {"latitude": 32.9887740344491, "longitude": -117.258687339543}, "transactions": [], "price": "$$", "location": {"address1": "621 Valley Ave", "address2": "", "address3": "", "city": "Solana Beach", "zip_code": "92075", "country": "US", "state": "CA", "display_address": ["621 Valley Ave", "Solana Beach, CA 92075"]}, "phone": "+18587552274", "display_phone": "(858) 755-2274", "distance": 6252.986313870287}, {"id": "1bmpgZJcs3--ofLFHa7AUA", "alias": "rauls-shack-encinitas", "name": "Raul's Shack", "image_url": "https://s3-media3.fl.yelpcdn.com/bphoto/7dhIxS31104DTt3QGYIWeQ/o.jpg", "is_closed": false, "url": "https://www.yelp.com/biz/rauls-shack-encinitas?adjust_creative=oncXGL2aPIKrtJdnWeFSnA&utm_campaign=yelp_api_v3&utm_medium=api_v3_business_search&utm_source=oncXGL2aPIKrtJdnWeFSnA", "review_count": 171, "categories": [{"alias": "hotdogs", "title": "Fast Food"}, {"alias": "mexican", "title": "Mexican"}], "rating": 4.0, "coordinates": {"latitude": 33.04619, "longitude": -117.294039}, "transactions": [], "price": "$", "location": {"address1": "490 S Coast Hwy 101", "address2": "", "address3": "", "city": "Encinitas", "zip_code": "92024", "country": "US", "state": "CA", "display_address": ["490 S Coast Hwy 101", "Encinitas, CA 92024"]}, "phone": "+17604368589", "display_phone": "(760) 436-8589", "distance": 3716.591051400175}, {"id": "HaN7pYLmrlTsYoeoMfVQrg", "alias": "el-nopalito-restaurant-encinitas-3", "name": "El Nopalito Restaurant", "image_url": "https://s3-media2.fl.yelpcdn.com/bphoto/REEP95iw0CLn8KaFAtEcug/o.jpg", "is_closed": false, "url": "https://www.yelp.com/biz/el-nopalito-restaurant-encinitas-3?adjust_creative=oncXGL2aPIKrtJdnWeFSnA&utm_campaign=yelp_api_v3&utm_medium=api_v3_business_search&utm_source=oncXGL2aPIKrtJdnWeFSnA", "review_count": 37, "categories": [{"alias": "mexican", "title": "Mexican"}], "rating": 4.0, "coordinates": {"latitude": 33.0367149, "longitude": -117.2798219}, "transactions": [], "price": "$", "location": {"address1": "582 Santa Fe Dr", "address2": "", "address3": "", "city": "Encinitas", "zip_code": "92024", "country": "US", "state": "CA", "display_address": ["582 Santa Fe Dr", "Encinitas, CA 92024"]}, "phone": "+17604369206", "display_phone": "(760) 436-9206", "distance": 2543.804733805782}, {"id": "dRjX4Zb5OL-wIxXIWBRjVg", "alias": "ponces-mexican-restaurant-del-sur-san-diego", "name": "Ponces Mexican Restaurant Del Sur", "image_url": "https://s3-media1.fl.yelpcdn.com/bphoto/9QtJYiodwOZezAaAQzNu0w/o.jpg", "is_closed": false, "url": "https://www.yelp.com/biz/ponces-mexican-restaurant-del-sur-san-diego?adjust_creative=oncXGL2aPIKrtJdnWeFSnA&utm_campaign=yelp_api_v3&utm_medium=api_v3_business_search&utm_source=oncXGL2aPIKrtJdnWeFSnA", "review_count": 40, "categories": [{"alias": "mexican", "title": "Mexican"}], "rating": 4.0, "coordinates": {"latitude": 33.0208074168596, "longitude": -117.123957005188}, "transactions": [], "location": {"address1": "16480 Paseo Del Sur", "address2": "", "address3": null, "city": "San Diego", "zip_code": "92127", "country": "US", "state": "CA", "display_address": ["16480 Paseo Del Sur", "San Diego, CA 92127"]}, "phone": "+18583121114", "display_phone": "(858) 312-1114", "distance": 12445.344266003398}, {"id": "SjCIJF3gFxYzdjgx6GDQlg", "alias": "wahoos-fish-tacos-encinitas", "name": "Wahoo's Fish Tacos", "image_url": "https://s3-media3.fl.yelpcdn.com/bphoto/vtvrEdRgnjCWOIDSyCnjkw/o.jpg", "is_closed": false, "url": "https://www.yelp.com/biz/wahoos-fish-tacos-encinitas?adjust_creative=oncXGL2aPIKrtJdnWeFSnA&utm_campaign=yelp_api_v3&utm_medium=api_v3_business_search&utm_source=oncXGL2aPIKrtJdnWeFSnA", "review_count": 163, "categories": [{"alias": "mexican", "title": "Mexican"}, {"alias": "seafood", "title": "Seafood"}], "rating": 3.5, "coordinates": {"latitude": 33.0644, "longitude": -117.26417}, "transactions": ["delivery"], "price": "$", "location": {"address1": "1006 N El Camino Real", "address2": "Ste C", "address3": "", "city": "Encinitas", "zip_code": "92024", "country": "US", "state": "CA", "display_address": ["1006 N El Camino Real", "Ste C", "Encinitas, CA 92024"]}, "phone": "+17607535060", "display_phone": "(760) 753-5060", "distance": 2346.5083643510434}, {"id": "hU3fuUNW_aqOOjG-xHXX9g", "alias": "chipotle-mexican-grill-encinitas", "name": "Chipotle Mexican Grill", "image_url": "https://s3-media1.fl.yelpcdn.com/bphoto/HcTyKCBUKZuW1MuQxOzIog/o.jpg", "is_closed": false, "url": "https://www.yelp.com/biz/chipotle-mexican-grill-encinitas?adjust_creative=oncXGL2aPIKrtJdnWeFSnA&utm_campaign=yelp_api_v3&utm_medium=api_v3_business_search&utm_source=oncXGL2aPIKrtJdnWeFSnA", "review_count": 124, "categories": [{"alias": "mexican", "title": "Mexican"}, {"alias": "hotdogs", "title": "Fast Food"}], "rating": 3.5, "coordinates": {"latitude": 33.052259407957, "longitude": -117.261572691785}, "transactions": [], "price": "$", "location": {"address1": "268 N El Camino Real", "address2": "", "address3": "", "city": "Encinitas", "zip_code": "92024", "country": "US", "state": "CA", "display_address": ["268 N El Camino Real", "Encinitas, CA 92024"]}, "phone": "+17606353863", "display_phone": "(760) 635-3863", "distance": 1061.4844591626256}, {"id": "QPUrjq9j2aYSQGNibhghkg", "alias": "el-pueblo-authentic-mexican-food-carlsbad", "name": "El Pueblo Authentic Mexican Food", "image_url": "https://s3-media2.fl.yelpcdn.com/bphoto/RRcwIaON-SjpfBg6IjAtNg/o.jpg", "is_closed": false, "url": "https://www.yelp.com/biz/el-pueblo-authentic-mexican-food-carlsbad?adjust_creative=oncXGL2aPIKrtJdnWeFSnA&utm_campaign=yelp_api_v3&utm_medium=api_v3_business_search&utm_source=oncXGL2aPIKrtJdnWeFSnA", "review_count": 136, "categories": [{"alias": "mexican", "title": "Mexican"}], "rating": 4.0, "coordinates": {"latitude": 33.0808713411585, "longitude": -117.236894314219}, "transactions": [], "price": "$", "location": {"address1": "7720 Rancho Santa Fe Rd", "address2": "Ste 125", "address3": null, "city": "Carlsbad", "zip_code": "92009", "country": "US", "state": "CA", "display_address": ["7720 Rancho Santa Fe Rd", "Ste 125", "Carlsbad, CA 92009"]}, "phone": "+17604875810", "display_phone": "(760) 487-5810", "distance": 4318.410384703177}, {"id": "JvJaaBehO-3E9iFgVgvgtg", "alias": "rudys-taco-shop-solana-beach", "name": "Rudy's Taco Shop", "image_url": "https://s3-media3.fl.yelpcdn.com/bphoto/SAkWMHdot80UT_ujWM2L1Q/o.jpg", "is_closed": false, "url": "https://www.yelp.com/biz/rudys-taco-shop-solana-beach?adjust_creative=oncXGL2aPIKrtJdnWeFSnA&utm_campaign=yelp_api_v3&utm_medium=api_v3_business_search&utm_source=oncXGL2aPIKrtJdnWeFSnA", "review_count": 507, "categories": [{"alias": "mexican", "title": "Mexican"}, {"alias": "breakfast_brunch", "title": "Breakfast & Brunch"}], "rating": 4.0, "coordinates": {"latitude": 32.990363818473, "longitude": -117.260798633}, "transactions": [], "price": "$", "location": {"address1": "524 Stevens Ave", "address2": "Ste 1", "address3": "", "city": "Solana Beach", "zip_code": "92075", "country": "US", "state": "CA", "display_address": ["524 Stevens Ave", "Ste 1", "Solana Beach, CA 92075"]}, "phone": "+18587550788", "display_phone": "(858) 755-0788", "distance": 6092.911090998863}, {"id": "udhkGC-o7midaFIvEwkbUw", "alias": "lourdes-mexican-food-san-marcos", "name": "Lourdes Mexican Food", "image_url": "", "is_closed": false, "url": "https://www.yelp.com/biz/lourdes-mexican-food-san-marcos?adjust_creative=oncXGL2aPIKrtJdnWeFSnA&utm_campaign=yelp_api_v3&utm_medium=api_v3_business_search&utm_source=oncXGL2aPIKrtJdnWeFSnA", "review_count": 1, "categories": [{"alias": "mexican", "title": "Mexican"}, {"alias": "hotdogs", "title": "Fast Food"}], "rating": 5.0, "coordinates": {"latitude": 33.0945172, "longitude": -117.2069865}, "transactions": [], "location": {"address1": "1646 San Elijo Rd", "address2": null, "address3": "", "city": "San Marcos", "zip_code": "92078", "country": "US", "state": "CA", "display_address": ["1646 San Elijo Rd", "San Marcos, CA 92078"]}, "phone": "+17602903684", "display_phone": "(760) 290-3684", "distance": 7643.481353210299}, {"id": "vhABKp8FD5Z_ZAMbhrBcUA", "alias": "craft-and-taco-lounge-escondido-3", "name": "Craft and Taco Lounge", "image_url": "https://s3-media3.fl.yelpcdn.com/bphoto/K23aaxFpbpndyZ5Rp5gnCQ/o.jpg", "is_closed": false, "url": "https://www.yelp.com/biz/craft-and-taco-lounge-escondido-3?adjust_creative=oncXGL2aPIKrtJdnWeFSnA&utm_campaign=yelp_api_v3&utm_medium=api_v3_business_search&utm_source=oncXGL2aPIKrtJdnWeFSnA", "review_count": 170, "categories": [{"alias": "tacos", "title": "Tacos"}], "rating": 4.5, "coordinates": {"latitude": 33.1194380523185, "longitude": -117.087490707636}, "transactions": [], "price": "$", "location": {"address1": "511 W Valley Pkwy", "address2": null, "address3": "", "city": "Escondido", "zip_code": "92025", "country": "US", "state": "CA", "display_address": ["511 W Valley Pkwy", "Escondido, CA 92025"]}, "phone": "+14429995858", "display_phone": "(442) 999-5858", "distance": 17616.6561866002}, {"id": "L9kXxpkX5bkYJkGd_fCqkg", "alias": "los-morales-taco-shop-solana-beach", "name": "Los Morales Taco Shop", "image_url": "https://s3-media2.fl.yelpcdn.com/bphoto/5A_KzrlyJu0qbhkVpgDj9Q/o.jpg", "is_closed": false, "url": "https://www.yelp.com/biz/los-morales-taco-shop-solana-beach?adjust_creative=oncXGL2aPIKrtJdnWeFSnA&utm_campaign=yelp_api_v3&utm_medium=api_v3_business_search&utm_source=oncXGL2aPIKrtJdnWeFSnA", "review_count": 33, "categories": [{"alias": "tacos", "title": "Tacos"}], "rating": 4.5, "coordinates": {"latitude": 32.98785, "longitude": -117.25816}, "transactions": [], "price": "$", "location": {"address1": "650 Valley Ave", "address2": "", "address3": null, "city": "Solana Beach", "zip_code": "92075", "country": "US", "state": "CA", "display_address": ["650 Valley Ave", "Solana Beach, CA 92075"]}, "phone": "+18583451133", "display_phone": "(858) 345-1133", "distance": 6350.341373413614}, {"id": "ctojIMhafieoAbBhdxjrQQ", "alias": "mexico-viejo-restaurant-encinitas", "name": "Mexico Viejo Restaurant", "image_url": "https://s3-media1.fl.yelpcdn.com/bphoto/GD2IUdpmgSzOE0MUVfWzNg/o.jpg", "is_closed": false, "url": "https://www.yelp.com/biz/mexico-viejo-restaurant-encinitas?adjust_creative=oncXGL2aPIKrtJdnWeFSnA&utm_campaign=yelp_api_v3&utm_medium=api_v3_business_search&utm_source=oncXGL2aPIKrtJdnWeFSnA", "review_count": 35, "categories": [{"alias": "mexican", "title": "Mexican"}], "rating": 3.5, "coordinates": {"latitude": 33.0452041625977, "longitude": -117.25715637207}, "transactions": [], "price": "$", "location": {"address1": "1465 Encinitas Blvd", "address2": "", "address3": "", "city": "Encinitas", "zip_code": "92024", "country": "US", "state": "CA", "display_address": ["1465 Encinitas Blvd", "Encinitas, CA 92024"]}, "phone": "+17609449556", "display_phone": "(760) 944-9556", "distance": 276.71851595703606}, {"id": "KP9G_h3AzV9E2wHOpMQ9lw", "alias": "mariscos-german-encinitas", "name": "Mariscos German", "image_url": "https://s3-media3.fl.yelpcdn.com/bphoto/jMga9MERt1sWQWc_ghnb1A/o.jpg", "is_closed": false, "url": "https://www.yelp.com/biz/mariscos-german-encinitas?adjust_creative=oncXGL2aPIKrtJdnWeFSnA&utm_campaign=yelp_api_v3&utm_medium=api_v3_business_search&utm_source=oncXGL2aPIKrtJdnWeFSnA", "review_count": 5, "categories": [{"alias": "foodtrucks", "title": "Food Trucks"}, {"alias": "seafood", "title": "Seafood"}, {"alias": "mexican", "title": "Mexican"}], "rating": 4.5, "coordinates": {"latitude": 33.04653, "longitude": -117.28963}, "transactions": [], "location": {"address1": "", "address2": "", "address3": null, "city": "Encinitas", "zip_code": "92024", "country": "US", "state": "CA", "display_address": ["Encinitas, CA 92024"]}, "phone": "", "display_phone": "", "distance": 2466.652384616346}, {"id": "4STdwkh8JQEiweWmxR0lHg", "alias": "alfonsos-of-la-jolla-solana-beach-2", "name": "Alfonso's of La Jolla", "image_url": "https://s3-media1.fl.yelpcdn.com/bphoto/1eyKogUvYKarNy743kTt3w/o.jpg", "is_closed": false, "url": "https://www.yelp.com/biz/alfonsos-of-la-jolla-solana-beach-2?adjust_creative=oncXGL2aPIKrtJdnWeFSnA&utm_campaign=yelp_api_v3&utm_medium=api_v3_business_search&utm_source=oncXGL2aPIKrtJdnWeFSnA", "review_count": 164, "categories": [{"alias": "mexican", "title": "Mexican"}], "rating": 4.0, "coordinates": {"latitude": 32.986609, "longitude": -117.270785}, "transactions": [], "price": "$$", "location": {"address1": "437 Highway 101", "address2": "", "address3": null, "city": "Solana Beach", "zip_code": "92075", "country": "US", "state": "CA", "display_address": ["437 Highway 101", "Solana Beach, CA 92075"]}, "phone": "+18584542232", "display_phone": "(858) 454-2232", "distance": 6659.599919606148}, {"id": "SbnFep7WVPSDeC-1sZEdZA", "alias": "filibertos-mexican-food-encinitas-6", "name": "Filiberto's Mexican Food", "image_url": "https://s3-media2.fl.yelpcdn.com/bphoto/p08twi7HUkg8XhbyPUYzZw/o.jpg", "is_closed": false, "url": "https://www.yelp.com/biz/filibertos-mexican-food-encinitas-6?adjust_creative=oncXGL2aPIKrtJdnWeFSnA&utm_campaign=yelp_api_v3&utm_medium=api_v3_business_search&utm_source=oncXGL2aPIKrtJdnWeFSnA", "review_count": 162, "categories": [{"alias": "mexican", "title": "Mexican"}], "rating": 3.0, "coordinates": {"latitude": 33.04622, "longitude": -117.29417}, "transactions": [], "price": "$", "location": {"address1": "476 S. Coast Hwy. 101", "address2": "", "address3": "", "city": "Encinitas", "zip_code": "92024", "country": "US", "state": "CA", "display_address": ["476 S. Coast Hwy. 101", "Encinitas, CA 92024"]}, "phone": "+17607539515", "display_phone": "(760) 753-9515", "distance": 3712.909209778601}, {"id": "kbcV7HHNmva-_qCS20jXXA", "alias": "se\u00f1or-grubbys-carlsbad-2", "name": "Se\u00f1or Grubby's", "image_url": "https://s3-media4.fl.yelpcdn.com/bphoto/lzXu2_Urp4SEVZvO--enfw/o.jpg", "is_closed": false, "url": "https://www.yelp.com/biz/se%C3%B1or-grubbys-carlsbad-2?adjust_creative=oncXGL2aPIKrtJdnWeFSnA&utm_campaign=yelp_api_v3&utm_medium=api_v3_business_search&utm_source=oncXGL2aPIKrtJdnWeFSnA", "review_count": 912, "categories": [{"alias": "mexican", "title": "Mexican"}, {"alias": "breakfast_brunch", "title": "Breakfast & Brunch"}, {"alias": "beerbar", "title": "Beer Bar"}], "rating": 4.0, "coordinates": {"latitude": 33.1586417, "longitude": -117.349929329448}, "transactions": ["delivery"], "price": "$", "location": {"address1": "377 Carlsbad Village Dr", "address2": "", "address3": "", "city": "Carlsbad", "zip_code": "92008", "country": "US", "state": "CA", "display_address": ["377 Carlsbad Village Dr", "Carlsbad, CA 92008"]}, "phone": "+17607296040", "display_phone": "(760) 729-6040", "distance": 15468.630801431227}, {"id": "PwjsXljywhaNEr-lpD3KMQ", "alias": "rubios-coastal-grill-encinitas", "name": "Rubio's Coastal Grill", "image_url": "https://s3-media1.fl.yelpcdn.com/bphoto/2O_MUpsornVjhj5Dw0-ABw/o.jpg", "is_closed": false, "url": "https://www.yelp.com/biz/rubios-coastal-grill-encinitas?adjust_creative=oncXGL2aPIKrtJdnWeFSnA&utm_campaign=yelp_api_v3&utm_medium=api_v3_business_search&utm_source=oncXGL2aPIKrtJdnWeFSnA", "review_count": 113, "categories": [{"alias": "mexican", "title": "Mexican"}, {"alias": "seafood", "title": "Seafood"}, {"alias": "salad", "title": "Salad"}], "rating": 3.0, "coordinates": {"latitude": 33.050325585603, "longitude": -117.260774048706}, "transactions": ["delivery"], "price": "$", "location": {"address1": "252 N El Camino Real", "address2": "", "address3": "", "city": "Encinitas", "zip_code": "92024", "country": "US", "state": "CA", "display_address": ["252 N El Camino Real", "Encinitas, CA 92024"]}, "phone": "+17606327395", "display_phone": "(760) 632-7395", "distance": 851.8648639757433}, {"id": "2DAu0jVOZyVSbrNLuPv5hw", "alias": "la-michoacana-disco-vista", "name": "La Michoacana Disco", "image_url": "https://s3-media4.fl.yelpcdn.com/bphoto/Sdd8pueiaPOyyJ42R3vlBQ/o.jpg", "is_closed": false, "url": "https://www.yelp.com/biz/la-michoacana-disco-vista?adjust_creative=oncXGL2aPIKrtJdnWeFSnA&utm_campaign=yelp_api_v3&utm_medium=api_v3_business_search&utm_source=oncXGL2aPIKrtJdnWeFSnA", "review_count": 6, "categories": [{"alias": "icecream", "title": "Ice Cream & Frozen Yogurt"}, {"alias": "musicvenues", "title": "Music Venues"}, {"alias": "mexican", "title": "Mexican"}], "rating": 5.0, "coordinates": {"latitude": 33.16534, "longitude": -117.2463851}, "transactions": [], "location": {"address1": "1651 South Melrose Dr", "address2": "Ste A", "address3": "", "city": "Vista", "zip_code": "92078", "country": "US", "state": "CA", "display_address": ["1651 South Melrose Dr", "Ste A", "Vista, CA 92078"]}, "phone": "+17607984416", "display_phone": "(760) 798-4416", "distance": 13352.25536397937}, {"id": "T2QDQbxAdjMpoo0Krka8wA", "alias": "angelos-burgers-encinitas-2", "name": "Angelo's Burgers", "image_url": "https://s3-media3.fl.yelpcdn.com/bphoto/v5Cmqk87IIvDcYZzTtKPeA/o.jpg", "is_closed": false, "url": "https://www.yelp.com/biz/angelos-burgers-encinitas-2?adjust_creative=oncXGL2aPIKrtJdnWeFSnA&utm_campaign=yelp_api_v3&utm_medium=api_v3_business_search&utm_source=oncXGL2aPIKrtJdnWeFSnA", "review_count": 154, "categories": [{"alias": "burgers", "title": "Burgers"}, {"alias": "breakfast_brunch", "title": "Breakfast & Brunch"}, {"alias": "mexican", "title": "Mexican"}], "rating": 4.0, "coordinates": {"latitude": 33.04442, "longitude": -117.29393}, "transactions": [], "price": "$", "location": {"address1": "608 S Coast Highway 101", "address2": null, "address3": "", "city": "Encinitas", "zip_code": "92024", "country": "US", "state": "CA", "display_address": ["608 S Coast Highway 101", "Encinitas, CA 92024"]}, "phone": "+17609439115", "display_phone": "(760) 943-9115", "distance": 3690.6579179682058}, {"id": "WnlUq-RFgxM43Iyv27HXAw", "alias": "fulanos-mexican-cafe-encinitas", "name": "Fulano's Mexican Cafe", "image_url": "https://s3-media3.fl.yelpcdn.com/bphoto/8Ilax3NtY0N_q0L-YMkMHA/o.jpg", "is_closed": false, "url": "https://www.yelp.com/biz/fulanos-mexican-cafe-encinitas?adjust_creative=oncXGL2aPIKrtJdnWeFSnA&utm_campaign=yelp_api_v3&utm_medium=api_v3_business_search&utm_source=oncXGL2aPIKrtJdnWeFSnA", "review_count": 52, "categories": [{"alias": "mexican", "title": "Mexican"}], "rating": 3.5, "coordinates": {"latitude": 33.0644866, "longitude": -117.300855}, "transactions": [], "price": "$$", "location": {"address1": "145 Leucadia Blvd", "address2": "", "address3": "", "city": "Encinitas", "zip_code": "92024", "country": "US", "state": "CA", "display_address": ["145 Leucadia Blvd", "Encinitas, CA 92024"]}, "phone": "+17607531711", "display_phone": "(760) 753-1711", "distance": 4842.202549420305}, {"id": "QJOGlIP2h0YiPyXeCfueLA", "alias": "kotija-jr-taco-shop-del-mar", "name": "Kotija Jr Taco Shop", "image_url": "https://s3-media2.fl.yelpcdn.com/bphoto/M81qiqQuYFx1_GJ7afJL6g/o.jpg", "is_closed": false, "url": "https://www.yelp.com/biz/kotija-jr-taco-shop-del-mar?adjust_creative=oncXGL2aPIKrtJdnWeFSnA&utm_campaign=yelp_api_v3&utm_medium=api_v3_business_search&utm_source=oncXGL2aPIKrtJdnWeFSnA", "review_count": 383, "categories": [{"alias": "tacos", "title": "Tacos"}, {"alias": "soup", "title": "Soup"}], "rating": 4.0, "coordinates": {"latitude": 32.9497011908661, "longitude": -117.246254664469}, "transactions": [], "price": "$", "location": {"address1": "2668 Del Mar Heights Rd", "address2": "Ste B", "address3": "", "city": "Del Mar", "zip_code": "92014", "country": "US", "state": "CA", "display_address": ["2668 Del Mar Heights Rd", "Ste B", "Del Mar, CA 92014"]}, "phone": "+18587930059", "display_phone": "(858) 793-0059", "distance": 10611.273594640757}, {"id": "W_OWgB0oi8tAbQZGfRvRwA", "alias": "robertos-taco-shop-encinitas", "name": "Roberto's Taco Shop", "image_url": "https://s3-media3.fl.yelpcdn.com/bphoto/0ht4XDOiF4aRdg8V09tKVw/o.jpg", "is_closed": false, "url": "https://www.yelp.com/biz/robertos-taco-shop-encinitas?adjust_creative=oncXGL2aPIKrtJdnWeFSnA&utm_campaign=yelp_api_v3&utm_medium=api_v3_business_search&utm_source=oncXGL2aPIKrtJdnWeFSnA", "review_count": 58, "categories": [{"alias": "mexican", "title": "Mexican"}], "rating": 3.0, "coordinates": {"latitude": 33.046178, "longitude": -117.282368}, "transactions": [], "price": "$", "location": {"address1": "471 Encinitas Blvd", "address2": null, "address3": "", "city": "Encinitas", "zip_code": "92024", "country": "US", "state": "CA", "display_address": ["471 Encinitas Blvd", "Encinitas, CA 92024"]}, "phone": "+17604875688", "display_phone": "(760) 487-5688", "distance": 2616.952622756219}, {"id": "6gny4J1hEnO_4rbuCsovgw", "alias": "rockin-baja-lobster-oceanside-3", "name": "Rockin' Baja Lobster", "image_url": "https://s3-media4.fl.yelpcdn.com/bphoto/w67Lg2w1D6jHobo01zAkpg/o.jpg", "is_closed": false, "url": "https://www.yelp.com/biz/rockin-baja-lobster-oceanside-3?adjust_creative=oncXGL2aPIKrtJdnWeFSnA&utm_campaign=yelp_api_v3&utm_medium=api_v3_business_search&utm_source=oncXGL2aPIKrtJdnWeFSnA", "review_count": 1002, "categories": [{"alias": "mexican", "title": "Mexican"}, {"alias": "seafood", "title": "Seafood"}, {"alias": "bars", "title": "Bars"}], "rating": 4.0, "coordinates": {"latitude": 33.20421, "longitude": -117.39027}, "transactions": ["delivery", "pickup"], "price": "$$", "location": {"address1": "258 Harbor Dr S", "address2": "", "address3": "", "city": "Oceanside", "zip_code": "92054", "country": "US", "state": "CA", "display_address": ["258 Harbor Dr S", "Oceanside, CA 92054"]}, "phone": "+17609676199", "display_phone": "(760) 967-6199", "distance": 21793.16021646029}, {"id": "BpSnbrLNq7EXxskucmh1gw", "alias": "fidels-little-mexico-solana-beach", "name": "Fidel's Little Mexico", "image_url": "https://s3-media2.fl.yelpcdn.com/bphoto/Bkm05byYAV1UEiiG3EB3Pg/o.jpg", "is_closed": false, "url": "https://www.yelp.com/biz/fidels-little-mexico-solana-beach?adjust_creative=oncXGL2aPIKrtJdnWeFSnA&utm_campaign=yelp_api_v3&utm_medium=api_v3_business_search&utm_source=oncXGL2aPIKrtJdnWeFSnA", "review_count": 735, "categories": [{"alias": "mexican", "title": "Mexican"}, {"alias": "cocktailbars", "title": "Cocktail Bars"}], "rating": 3.5, "coordinates": {"latitude": 32.9891700744629, "longitude": -117.259101867676}, "transactions": [], "price": "$$", "location": {"address1": "749 Genevieve St", "address2": "", "address3": "", "city": "Solana Beach", "zip_code": "92075", "country": "US", "state": "CA", "display_address": ["749 Genevieve St", "Solana Beach, CA 92075"]}, "phone": "+18587555292", "display_phone": "(858) 755-5292", "distance": 6241.361209821841}, {"id": "Dv9aFbavvTXseYuXs2hOFQ", "alias": "taco-bell-encinitas", "name": "Taco Bell", "image_url": "https://s3-media4.fl.yelpcdn.com/bphoto/DpdSav2t5lE2qMlxe8Tt3A/o.jpg", "is_closed": false, "url": "https://www.yelp.com/biz/taco-bell-encinitas?adjust_creative=oncXGL2aPIKrtJdnWeFSnA&utm_campaign=yelp_api_v3&utm_medium=api_v3_business_search&utm_source=oncXGL2aPIKrtJdnWeFSnA", "review_count": 51, "categories": [{"alias": "hotdogs", "title": "Fast Food"}, {"alias": "mexican", "title": "Mexican"}, {"alias": "tex-mex", "title": "Tex-Mex"}], "rating": 2.0, "coordinates": {"latitude": 33.046120044418, "longitude": -117.25648519217}, "transactions": ["delivery"], "price": "$", "location": {"address1": "1502 Encinitas Blvd", "address2": "", "address3": "", "city": "Encinitas", "zip_code": "92024", "country": "US", "state": "CA", "display_address": ["1502 Encinitas Blvd", "Encinitas, CA 92024"]}, "phone": "+17604368033", "display_phone": "(760) 436-8033", "distance": 242.75850008861119}, {"id": "cAzSUuyk4O9cWTQREzhwDw", "alias": "robertos-mexican-food-encinitas-2", "name": "Robertos Mexican Food", "image_url": "https://s3-media1.fl.yelpcdn.com/bphoto/gjZqwfveP6qLH1_tJgwlvw/o.jpg", "is_closed": false, "url": "https://www.yelp.com/biz/robertos-mexican-food-encinitas-2?adjust_creative=oncXGL2aPIKrtJdnWeFSnA&utm_campaign=yelp_api_v3&utm_medium=api_v3_business_search&utm_source=oncXGL2aPIKrtJdnWeFSnA", "review_count": 80, "categories": [{"alias": "mexican", "title": "Mexican"}], "rating": 3.5, "coordinates": {"latitude": 33.0524035813037, "longitude": -117.262289524061}, "transactions": [], "price": "$", "location": {"address1": "274 N El Camino Real", "address2": "Ste B", "address3": "", "city": "Encinitas", "zip_code": "92024", "country": "US", "state": "CA", "display_address": ["274 N El Camino Real", "Ste B", "Encinitas, CA 92024"]}, "phone": "+17602306488", "display_phone": "(760) 230-6488", "distance": 1117.0954635509265}], "total": 449, "region": {"center": {"longitude": -117.25433349609375, "latitude": 33.04488992556048}}}