{"businesses": [{"id": "a3yfBL2Nlm6Z6-1Yzl4ncw", "alias": "din-tai-fung-san-diego-3", "name": "Din Tai Fung", "image_url": "https://s3-media2.fl.yelpcdn.com/bphoto/ZNATGHB0-khY7Q10awdKgQ/o.jpg", "is_closed": false, "url": "https://www.yelp.com/biz/din-tai-fung-san-diego-3?adjust_creative=oncXGL2aPIKrtJdnWeFSnA&utm_campaign=yelp_api_v3&utm_medium=api_v3_business_search&utm_source=oncXGL2aPIKrtJdnWeFSnA", "review_count": 304, "categories": [{"alias": "taiwanese", "title": "Taiwanese"}, {"alias": "dimsum", "title": "Dim Sum"}, {"alias": "noodles", "title": "Noodles"}], "rating": 4.5, "coordinates": {"latitude": 32.8724184, "longitude": -117.213775}, "transactions": ["restaurant_reservation"], "location": {"address1": "4301 La Jolla Village Dr", "address2": "Bldg P Unit 2000", "address3": null, "city": "San Diego", "zip_code": "92122", "country": "US", "state": "CA", "display_address": ["4301 La Jolla Village Dr", "Bldg P Unit 2000", "San Diego, CA 92122"]}, "phone": "+18583755988", "display_phone": "(858) 375-5988", "distance": 19564.36987593627}, {"id": "KJ0jp7cjL_v95VWr__isiw", "alias": "noodles-and-company-encinitas", "name": "Noodles & Company", "image_url": "https://s3-media2.fl.yelpcdn.com/bphoto/FoIYhXym3IUpIXPTznC9mw/o.jpg", "is_closed": false, "url": "https://www.yelp.com/biz/noodles-and-company-encinitas?adjust_creative=oncXGL2aPIKrtJdnWeFSnA&utm_campaign=yelp_api_v3&utm_medium=api_v3_business_search&utm_source=oncXGL2aPIKrtJdnWeFSnA", "review_count": 151, "categories": [{"alias": "noodles", "title": "Noodles"}], "rating": 3.5, "coordinates": {"latitude": 33.051687617811, "longitude": -117.261314149}, "transactions": [], "price": "$", "location": {"address1": "260 N El Camino Real", "address2": "", "address3": "", "city": "Encinitas", "zip_code": "92024", "country": "US", "state": "CA", "display_address": ["260 N El Camino Real", "Encinitas, CA 92024"]}, "phone": "+17606343010", "display_phone": "(760) 634-3010", "distance": 997.3243125780579}, {"id": "uJbBxJnGhXkAXtLCmxrszg", "alias": "menya-ultra-san-diego-4", "name": "Menya Ultra", "image_url": "https://s3-media4.fl.yelpcdn.com/bphoto/uqARAaWhz9l-OpG7uVokIg/o.jpg", "is_closed": false, "url": "https://www.yelp.com/biz/menya-ultra-san-diego-4?adjust_creative=oncXGL2aPIKrtJdnWeFSnA&utm_campaign=yelp_api_v3&utm_medium=api_v3_business_search&utm_source=oncXGL2aPIKrtJdnWeFSnA", "review_count": 39, "categories": [{"alias": "ramen", "title": "Ramen"}, {"alias": "noodles", "title": "Noodles"}], "rating": 4.5, "coordinates": {"latitude": 32.9112446910774, "longitude": -117.148219498148}, "transactions": [], "location": {"address1": "8141 Mira Mesa Blvd", "address2": null, "address3": "", "city": "San Diego", "zip_code": "92126", "country": "US", "state": "CA", "display_address": ["8141 Mira Mesa Blvd", "San Diego, CA 92126"]}, "phone": "+18582055494", "display_phone": "(858) 205-5494", "distance": 17855.348124321914}, {"id": "PT7mWAroPG42aRPaD0rTew", "alias": "umi-restaurant-encinitas", "name": "UMI-Restaurant", "image_url": "https://s3-media2.fl.yelpcdn.com/bphoto/SikavGkLyi5dY1xkb0Vztg/o.jpg", "is_closed": false, "url": "https://www.yelp.com/biz/umi-restaurant-encinitas?adjust_creative=oncXGL2aPIKrtJdnWeFSnA&utm_campaign=yelp_api_v3&utm_medium=api_v3_business_search&utm_source=oncXGL2aPIKrtJdnWeFSnA", "review_count": 76, "categories": [{"alias": "sushi", "title": "Sushi Bars"}, {"alias": "ramen", "title": "Ramen"}, {"alias": "noodles", "title": "Noodles"}], "rating": 4.0, "coordinates": {"latitude": 33.07045, "longitude": -117.30456}, "transactions": [], "price": "$$", "location": {"address1": "1246 North Coast Hwy 101", "address2": "", "address3": null, "city": "Encinitas", "zip_code": "92024", "country": "US", "state": "CA", "display_address": ["1246 North Coast Hwy 101", "Encinitas, CA 92024"]}, "phone": "+17604421900", "display_phone": "(760) 442-1900", "distance": 5477.506857214152}, {"id": "SHl93rFlUCUBvG9-oydu_Q", "alias": "benihana-carlsbad", "name": "Benihana", "image_url": "https://s3-media1.fl.yelpcdn.com/bphoto/LJnYAW1kgVkNGbMJPEiPHw/o.jpg", "is_closed": false, "url": "https://www.yelp.com/biz/benihana-carlsbad?adjust_creative=oncXGL2aPIKrtJdnWeFSnA&utm_campaign=yelp_api_v3&utm_medium=api_v3_business_search&utm_source=oncXGL2aPIKrtJdnWeFSnA", "review_count": 558, "categories": [{"alias": "sushi", "title": "Sushi Bars"}, {"alias": "japanese", "title": "Japanese"}, {"alias": "noodles", "title": "Noodles"}], "rating": 3.0, "coordinates": {"latitude": 33.1041784658514, "longitude": -117.3126635}, "transactions": ["delivery", "pickup"], "price": "$$", "location": {"address1": "755 Raintree Dr", "address2": "", "address3": "", "city": "Carlsbad", "zip_code": "92009", "country": "US", "state": "CA", "display_address": ["755 Raintree Dr", "Carlsbad, CA 92009"]}, "phone": "+17609298311", "display_phone": "(760) 929-8311", "distance": 8544.087139660405}, {"id": "mKWRJcfv5QSVXMLrs7RCDQ", "alias": "noodles-and-company-carlsbad", "name": "Noodles & Company", "image_url": "https://s3-media1.fl.yelpcdn.com/bphoto/nSJ7juhfaS9RhAE9UUpHGA/o.jpg", "is_closed": false, "url": "https://www.yelp.com/biz/noodles-and-company-carlsbad?adjust_creative=oncXGL2aPIKrtJdnWeFSnA&utm_campaign=yelp_api_v3&utm_medium=api_v3_business_search&utm_source=oncXGL2aPIKrtJdnWeFSnA", "review_count": 113, "categories": [{"alias": "noodles", "title": "Noodles"}], "rating": 3.5, "coordinates": {"latitude": 33.1272367733298, "longitude": -117.269913563507}, "transactions": [], "price": "$", "location": {"address1": "2521 Palomar Airport Rd", "address2": "", "address3": "", "city": "Carlsbad", "zip_code": "92011", "country": "US", "state": "CA", "display_address": ["2521 Palomar Airport Rd", "Carlsbad, CA 92011"]}, "phone": "+17609301369", "display_phone": "(760) 930-1369", "distance": 9270.875997557912}, {"id": "0VRf2BzRjtbl_s6wJH4z4g", "alias": "teri-cafe-oceanside", "name": "Teri Cafe", "image_url": "https://s3-media2.fl.yelpcdn.com/bphoto/ohSXu2p6wAiFBwzgnrAKlQ/o.jpg", "is_closed": false, "url": "https://www.yelp.com/biz/teri-cafe-oceanside?adjust_creative=oncXGL2aPIKrtJdnWeFSnA&utm_campaign=yelp_api_v3&utm_medium=api_v3_business_search&utm_source=oncXGL2aPIKrtJdnWeFSnA", "review_count": 784, "categories": [{"alias": "ramen", "title": "Ramen"}, {"alias": "sushi", "title": "Sushi Bars"}, {"alias": "noodles", "title": "Noodles"}], "rating": 4.0, "coordinates": {"latitude": 33.1856468732919, "longitude": -117.327160384656}, "transactions": [], "price": "$", "location": {"address1": "2216 S El Camino Real", "address2": "Ste 123", "address3": "", "city": "Oceanside", "zip_code": "92054", "country": "US", "state": "CA", "display_address": ["2216 S El Camino Real", "Ste 123", "Oceanside, CA 92054"]}, "phone": "+17607228399", "display_phone": "(760) 722-8399", "distance": 17057.895796580502}, {"id": "7DyWbyCm0g1FmsE7rjglVA", "alias": "mama-cinia-rice-and-noodles-san-diego", "name": "Mama Cinia Rice & Noodles", "image_url": "https://s3-media3.fl.yelpcdn.com/bphoto/jVFoq4sqiLYKQQOs1UX8fA/o.jpg", "is_closed": false, "url": "https://www.yelp.com/biz/mama-cinia-rice-and-noodles-san-diego?adjust_creative=oncXGL2aPIKrtJdnWeFSnA&utm_campaign=yelp_api_v3&utm_medium=api_v3_business_search&utm_source=oncXGL2aPIKrtJdnWeFSnA", "review_count": 129, "categories": [{"alias": "filipino", "title": "Filipino"}, {"alias": "noodles", "title": "Noodles"}, {"alias": "seafood", "title": "Seafood"}], "rating": 4.0, "coordinates": {"latitude": 32.9173372, "longitude": -117.1268268}, "transactions": [], "price": "$", "location": {"address1": "9178 Mira Mesa Blvd", "address2": "", "address3": null, "city": "San Diego", "zip_code": "92126", "country": "US", "state": "CA", "display_address": ["9178 Mira Mesa Blvd", "San Diego, CA 92126"]}, "phone": "+18588605125", "display_phone": "(858) 860-5125", "distance": 18473.49952622564}, {"id": "sArABJUXGPbv746vdCQ5Cg", "alias": "the-whet-noodle-oceanside", "name": "The Whet Noodle", "image_url": "https://s3-media1.fl.yelpcdn.com/bphoto/M6KW-Ze-5fpzf26XWIYS9g/o.jpg", "is_closed": false, "url": "https://www.yelp.com/biz/the-whet-noodle-oceanside?adjust_creative=oncXGL2aPIKrtJdnWeFSnA&utm_campaign=yelp_api_v3&utm_medium=api_v3_business_search&utm_source=oncXGL2aPIKrtJdnWeFSnA", "review_count": 178, "categories": [{"alias": "noodles", "title": "Noodles"}], "rating": 3.5, "coordinates": {"latitude": 33.1745972, "longitude": -117.3619361}, "transactions": [], "price": "$$", "location": {"address1": "1813 S Coast Hwy", "address2": "", "address3": "", "city": "Oceanside", "zip_code": "92054", "country": "US", "state": "CA", "display_address": ["1813 S Coast Hwy", "Oceanside, CA 92054"]}, "phone": "+17604532738", "display_phone": "(760) 453-2738", "distance": 17562.97729596683}, {"id": "xHC_I6WOxB6Og5IEFQIM4Q", "alias": "tim-ky-noodle-san-diego", "name": "Tim Ky Noodle", "image_url": "https://s3-media4.fl.yelpcdn.com/bphoto/E9IOokkuLZu-ff5F77_vOA/o.jpg", "is_closed": false, "url": "https://www.yelp.com/biz/tim-ky-noodle-san-diego?adjust_creative=oncXGL2aPIKrtJdnWeFSnA&utm_campaign=yelp_api_v3&utm_medium=api_v3_business_search&utm_source=oncXGL2aPIKrtJdnWeFSnA", "review_count": 359, "categories": [{"alias": "vietnamese", "title": "Vietnamese"}, {"alias": "chinese", "title": "Chinese"}, {"alias": "noodles", "title": "Noodles"}], "rating": 4.0, "coordinates": {"latitude": 32.918898, "longitude": -117.1236}, "transactions": [], "price": "$", "location": {"address1": "9330 Mira Mesa Blvd", "address2": "Ste A", "address3": "", "city": "San Diego", "zip_code": "92126", "country": "US", "state": "CA", "display_address": ["9330 Mira Mesa Blvd", "Ste A", "San Diego, CA 92126"]}, "phone": "+18582718887", "display_phone": "(858) 271-8887", "distance": 18573.3030315029}, {"id": "1GaXdsO3ZfwC8NhVjbKR1Q", "alias": "noodles-and-company-san-marcos", "name": "Noodles & Company", "image_url": "https://s3-media4.fl.yelpcdn.com/bphoto/wEXem4lOyZ15ScMzAgwyHw/o.jpg", "is_closed": false, "url": "https://www.yelp.com/biz/noodles-and-company-san-marcos?adjust_creative=oncXGL2aPIKrtJdnWeFSnA&utm_campaign=yelp_api_v3&utm_medium=api_v3_business_search&utm_source=oncXGL2aPIKrtJdnWeFSnA", "review_count": 194, "categories": [{"alias": "noodles", "title": "Noodles"}], "rating": 3.5, "coordinates": {"latitude": 33.13634, "longitude": -117.17656}, "transactions": [], "price": "$", "location": {"address1": "591 Grand Ave", "address2": "", "address3": "", "city": "San Marcos", "zip_code": "92069", "country": "US", "state": "CA", "display_address": ["591 Grand Ave", "San Marcos, CA 92069"]}, "phone": "+17605919854", "display_phone": "(760) 591-9854", "distance": 12435.477115408825}, {"id": "2yvwJ41L4Xws1-v4O-6S8A", "alias": "spices-thai-cafe-san-diego", "name": "Spices Thai Cafe", "image_url": "https://s3-media1.fl.yelpcdn.com/bphoto/JvOmbS70YKZhok2_Ok9CSQ/o.jpg", "is_closed": false, "url": "https://www.yelp.com/biz/spices-thai-cafe-san-diego?adjust_creative=oncXGL2aPIKrtJdnWeFSnA&utm_campaign=yelp_api_v3&utm_medium=api_v3_business_search&utm_source=oncXGL2aPIKrtJdnWeFSnA", "review_count": 557, "categories": [{"alias": "thai", "title": "Thai"}, {"alias": "noodles", "title": "Noodles"}, {"alias": "breakfast_brunch", "title": "Breakfast & Brunch"}], "rating": 3.5, "coordinates": {"latitude": 32.9065177234206, "longitude": -117.171498835087}, "transactions": [], "price": "$$", "location": {"address1": "6785 Mira Mesa Blvd", "address2": "Ste 143", "address3": "", "city": "San Diego", "zip_code": "92121", "country": "US", "state": "CA", "display_address": ["6785 Mira Mesa Blvd", "Ste 143", "San Diego, CA 92121"]}, "phone": "+18585528845", "display_phone": "(858) 552-8845", "distance": 17217.515196850232}, {"id": "gMzI-Dcl1pjkURYcuFYdtw", "alias": "bun-ca-cali-san-diego", "name": "Bun Ca Cali", "image_url": "https://s3-media3.fl.yelpcdn.com/bphoto/tfbWDYixdc0PLBDgxbk7zg/o.jpg", "is_closed": false, "url": "https://www.yelp.com/biz/bun-ca-cali-san-diego?adjust_creative=oncXGL2aPIKrtJdnWeFSnA&utm_campaign=yelp_api_v3&utm_medium=api_v3_business_search&utm_source=oncXGL2aPIKrtJdnWeFSnA", "review_count": 10, "categories": [{"alias": "seafood", "title": "Seafood"}, {"alias": "noodles", "title": "Noodles"}, {"alias": "soup", "title": "Soup"}], "rating": 3.5, "coordinates": {"latitude": 32.9166502780833, "longitude": -117.125658877194}, "transactions": [], "location": {"address1": "9225 Mira Mesa Blvd", "address2": "Ste 106", "address3": null, "city": "San Diego", "zip_code": "92126", "country": "US", "state": "CA", "display_address": ["9225 Mira Mesa Blvd", "Ste 106", "San Diego, CA 92126"]}, "phone": "+18588605006", "display_phone": "(858) 860-5006", "distance": 18638.402034047016}, {"id": "0PJ6xIShOaj1erA43l_gfw", "alias": "son-tra-sandwiches-escondido-2", "name": "Son Tra Sandwiches", "image_url": "https://s3-media4.fl.yelpcdn.com/bphoto/_Cj-pV7q1vJPVmqmz2gw6w/o.jpg", "is_closed": false, "url": "https://www.yelp.com/biz/son-tra-sandwiches-escondido-2?adjust_creative=oncXGL2aPIKrtJdnWeFSnA&utm_campaign=yelp_api_v3&utm_medium=api_v3_business_search&utm_source=oncXGL2aPIKrtJdnWeFSnA", "review_count": 78, "categories": [{"alias": "sandwiches", "title": "Sandwiches"}, {"alias": "vietnamese", "title": "Vietnamese"}, {"alias": "noodles", "title": "Noodles"}], "rating": 4.5, "coordinates": {"latitude": 33.12868, "longitude": -117.0717}, "transactions": [], "price": "$", "location": {"address1": "840 E Valley Pkwy", "address2": null, "address3": "", "city": "Escondido", "zip_code": "92025", "country": "US", "state": "CA", "display_address": ["840 E Valley Pkwy", "Escondido, CA 92025"]}, "phone": "+17602946995", "display_phone": "(760) 294-6995", "distance": 19379.806802633815}, {"id": "MjBpPlEDodxJrl0nCfHqwg", "alias": "noodles-and-company-oceanside", "name": "Noodles & Company", "image_url": "https://s3-media1.fl.yelpcdn.com/bphoto/LQNnyvM8UhpM3CxCEQmP_A/o.jpg", "is_closed": false, "url": "https://www.yelp.com/biz/noodles-and-company-oceanside?adjust_creative=oncXGL2aPIKrtJdnWeFSnA&utm_campaign=yelp_api_v3&utm_medium=api_v3_business_search&utm_source=oncXGL2aPIKrtJdnWeFSnA", "review_count": 125, "categories": [{"alias": "noodles", "title": "Noodles"}], "rating": 3.5, "coordinates": {"latitude": 33.1845037181756, "longitude": -117.328169398393}, "transactions": [], "price": "$", "location": {"address1": "2267 S El Camino Real", "address2": "", "address3": "", "city": "Oceanside", "zip_code": "92054", "country": "US", "state": "CA", "display_address": ["2267 S El Camino Real", "Oceanside, CA 92054"]}, "phone": "+17604335700", "display_phone": "(760) 433-5700", "distance": 16979.198636128094}, {"id": "y4BgbZgpyhGNJbN_fwmOYA", "alias": "3-go-sushi-escondido", "name": "3 Go Sushi", "image_url": "https://s3-media1.fl.yelpcdn.com/bphoto/LzEfvnC5OIqx6VmUgwMlFQ/o.jpg", "is_closed": false, "url": "https://www.yelp.com/biz/3-go-sushi-escondido?adjust_creative=oncXGL2aPIKrtJdnWeFSnA&utm_campaign=yelp_api_v3&utm_medium=api_v3_business_search&utm_source=oncXGL2aPIKrtJdnWeFSnA", "review_count": 209, "categories": [{"alias": "sushi", "title": "Sushi Bars"}, {"alias": "japanese", "title": "Japanese"}, {"alias": "noodles", "title": "Noodles"}], "rating": 4.5, "coordinates": {"latitude": 33.1210735587764, "longitude": -117.085277626752}, "transactions": ["delivery", "pickup"], "price": "$$", "location": {"address1": "324 W Valley Pkwy", "address2": null, "address3": "", "city": "Escondido", "zip_code": "92025", "country": "US", "state": "CA", "display_address": ["324 W Valley Pkwy", "Escondido, CA 92025"]}, "phone": "+17607384808", "display_phone": "(760) 738-4808", "distance": 17883.364810999905}, {"id": "BCIQLTtHlweGgT7suUKXrQ", "alias": "ahi-sushi-and-grill-san-marcos", "name": "Ahi Sushi & Grill", "image_url": "https://s3-media4.fl.yelpcdn.com/bphoto/9l2I-CnNoCuC_Cprs1XaFA/o.jpg", "is_closed": false, "url": "https://www.yelp.com/biz/ahi-sushi-and-grill-san-marcos?adjust_creative=oncXGL2aPIKrtJdnWeFSnA&utm_campaign=yelp_api_v3&utm_medium=api_v3_business_search&utm_source=oncXGL2aPIKrtJdnWeFSnA", "review_count": 275, "categories": [{"alias": "sushi", "title": "Sushi Bars"}, {"alias": "desserts", "title": "Desserts"}, {"alias": "noodles", "title": "Noodles"}], "rating": 3.5, "coordinates": {"latitude": 33.1405499572154, "longitude": -117.163243383975}, "transactions": [], "price": "$$", "location": {"address1": "157 N Twin Oaks Valley Rd", "address2": "", "address3": "", "city": "San Marcos", "zip_code": "92069", "country": "US", "state": "CA", "display_address": ["157 N Twin Oaks Valley Rd", "San Marcos, CA 92069"]}, "phone": "+17607610238", "display_phone": "(760) 761-0238", "distance": 13607.035402970365}, {"id": "jwoGuqLcRnJK14z-yHGTIQ", "alias": "pho-poway-noodle-house-poway", "name": "Pho Poway Noodle House", "image_url": "https://s3-media3.fl.yelpcdn.com/bphoto/vlvmXZDXLWg-lNvpXi2gvw/o.jpg", "is_closed": false, "url": "https://www.yelp.com/biz/pho-poway-noodle-house-poway?adjust_creative=oncXGL2aPIKrtJdnWeFSnA&utm_campaign=yelp_api_v3&utm_medium=api_v3_business_search&utm_source=oncXGL2aPIKrtJdnWeFSnA", "review_count": 194, "categories": [{"alias": "vietnamese", "title": "Vietnamese"}, {"alias": "noodles", "title": "Noodles"}, {"alias": "chicken_wings", "title": "Chicken Wings"}], "rating": 3.5, "coordinates": {"latitude": 32.952336, "longitude": -117.065359}, "transactions": [], "price": "$", "location": {"address1": "12316 Poway Rd", "address2": null, "address3": "", "city": "Poway", "zip_code": "92064", "country": "US", "state": "CA", "display_address": ["12316 Poway Rd", "Poway, CA 92064"]}, "phone": "+18584866300", "display_phone": "(858) 486-6300", "distance": 20408.181549761794}, {"id": "lPrvUs4oSFpJolgA1917Iw", "alias": "pearl-chinese-cuisine-san-diego", "name": "Pearl Chinese Cuisine", "image_url": "https://s3-media2.fl.yelpcdn.com/bphoto/vYVu4-OpeFlHQ4rgncmlEQ/o.jpg", "is_closed": false, "url": "https://www.yelp.com/biz/pearl-chinese-cuisine-san-diego?adjust_creative=oncXGL2aPIKrtJdnWeFSnA&utm_campaign=yelp_api_v3&utm_medium=api_v3_business_search&utm_source=oncXGL2aPIKrtJdnWeFSnA", "review_count": 791, "categories": [{"alias": "dimsum", "title": "Dim Sum"}, {"alias": "cantonese", "title": "Cantonese"}, {"alias": "noodles", "title": "Noodles"}], "rating": 3.0, "coordinates": {"latitude": 33.0173, "longitude": -117.07715}, "transactions": [], "price": "$$", "location": {"address1": "11666 Avena Pl", "address2": null, "address3": "", "city": "San Diego", "zip_code": "92128", "country": "US", "state": "CA", "display_address": ["11666 Avena Pl", "San Diego, CA 92128"]}, "phone": "+18584873388", "display_phone": "(858) 487-3388", "distance": 16787.868061976125}, {"id": "y5cp6Qa9dMF4hxUHL_rxJQ", "alias": "pailin-thai-cafe-san-diego", "name": "Pailin Thai Cafe", "image_url": "https://s3-media2.fl.yelpcdn.com/bphoto/jF4delOlxE3jcOC7X37Lbg/o.jpg", "is_closed": false, "url": "https://www.yelp.com/biz/pailin-thai-cafe-san-diego?adjust_creative=oncXGL2aPIKrtJdnWeFSnA&utm_campaign=yelp_api_v3&utm_medium=api_v3_business_search&utm_source=oncXGL2aPIKrtJdnWeFSnA", "review_count": 168, "categories": [{"alias": "thai", "title": "Thai"}, {"alias": "noodles", "title": "Noodles"}, {"alias": "soup", "title": "Soup"}], "rating": 4.0, "coordinates": {"latitude": 33.012244, "longitude": -117.07827317214}, "transactions": ["pickup"], "price": "$$", "location": {"address1": "16441 Bernardo Center Dr", "address2": "", "address3": "", "city": "San Diego", "zip_code": "92128", "country": "US", "state": "CA", "display_address": ["16441 Bernardo Center Dr", "San Diego, CA 92128"]}, "phone": "+18586744665", "display_phone": "(858) 674-4665", "distance": 16809.95625862473}], "total": 20, "region": {"center": {"longitude": -117.25433349609375, "latitude": 33.04488992556048}}}