{"businesses": [{"id": "aRacnEURw6oTkrijdeUZXA", "alias": "buona-forchetta-encinitas", "name": "Buona Forchetta", "image_url": "https://s3-media3.fl.yelpcdn.com/bphoto/WXve-tSW9FcOXICtSENE9g/o.jpg", "is_closed": false, "url": "https://www.yelp.com/biz/buona-forchetta-encinitas?adjust_creative=oncXGL2aPIKrtJdnWeFSnA&utm_campaign=yelp_api_v3&utm_medium=api_v3_business_search&utm_source=oncXGL2aPIKrtJdnWeFSnA", "review_count": 29, "categories": [{"alias": "pizza", "title": "Pizza"}, {"alias": "italian", "title": "Italian"}, {"alias": "wine_bars", "title": "Wine Bars"}], "rating": 5.0, "coordinates": {"latitude": 33.05359, "longitude": -117.29659}, "transactions": [], "location": {"address1": "250 N Coast Hwy 101", "address2": "", "address3": null, "city": "Encinitas", "zip_code": "92024", "country": "US", "state": "CA", "display_address": ["250 N Coast Hwy 101", "Encinitas, CA 92024"]}, "phone": "+17607048070", "display_phone": "(760) 704-8070", "distance": 4058.020215047268}, {"id": "nqv_l0D5AsFoL2NHwwMLcg", "alias": "blue-ribbon-artisan-pizzeria-encinitas-2", "name": "Blue Ribbon Artisan Pizzeria", "image_url": "https://s3-media3.fl.yelpcdn.com/bphoto/VYFxOirhj1BV1hBCq4rRQA/o.jpg", "is_closed": false, "url": "https://www.yelp.com/biz/blue-ribbon-artisan-pizzeria-encinitas-2?adjust_creative=oncXGL2aPIKrtJdnWeFSnA&utm_campaign=yelp_api_v3&utm_medium=api_v3_business_search&utm_source=oncXGL2aPIKrtJdnWeFSnA", "review_count": 734, "categories": [{"alias": "pizza", "title": "Pizza"}, {"alias": "salad", "title": "Salad"}, {"alias": "soup", "title": "Soup"}], "rating": 4.0, "coordinates": {"latitude": 33.0421671982666, "longitude": -117.289921863477}, "transactions": ["restaurant_reservation"], "price": "$$", "location": {"address1": "897 S Coast Hwy 101", "address2": "Ste F102", "address3": "", "city": "Encinitas", "zip_code": "92024", "country": "US", "state": "CA", "display_address": ["897 S Coast Hwy 101", "Ste F102", "Encinitas, CA 92024"]}, "phone": "+17606347671", "display_phone": "(760) 634-7671", "distance": 3330.9708216301356}, {"id": "KtynJLrjOM1aPWjc0Gy4Qg", "alias": "hammers-ny-pizza-encinitas", "name": "Hammer's NY Pizza", "image_url": "https://s3-media2.fl.yelpcdn.com/bphoto/J9-tW19u2xD8hVvrjxm4Ig/o.jpg", "is_closed": false, "url": "https://www.yelp.com/biz/hammers-ny-pizza-encinitas?adjust_creative=oncXGL2aPIKrtJdnWeFSnA&utm_campaign=yelp_api_v3&utm_medium=api_v3_business_search&utm_source=oncXGL2aPIKrtJdnWeFSnA", "review_count": 181, "categories": [{"alias": "pizza", "title": "Pizza"}], "rating": 4.5, "coordinates": {"latitude": 33.04989, "longitude": -117.25968}, "transactions": [], "price": "$", "location": {"address1": "199 N El Camino Real", "address2": "Ste F", "address3": "", "city": "Encinitas", "zip_code": "92024", "country": "US", "state": "CA", "display_address": ["199 N El Camino Real", "Ste F", "Encinitas, CA 92024"]}, "phone": "+17604875429", "display_phone": "(760) 487-5429", "distance": 754.0257785385495}, {"id": "ZOaV2dsPKgfa1spWEXl4FA", "alias": "duffs-at-the-beach-encinitas-2", "name": "Duffs At the Beach", "image_url": "https://s3-media3.fl.yelpcdn.com/bphoto/cF7nt9RfAGywqNHVRy9N7g/o.jpg", "is_closed": false, "url": "https://www.yelp.com/biz/duffs-at-the-beach-encinitas-2?adjust_creative=oncXGL2aPIKrtJdnWeFSnA&utm_campaign=yelp_api_v3&utm_medium=api_v3_business_search&utm_source=oncXGL2aPIKrtJdnWeFSnA", "review_count": 120, "categories": [{"alias": "pizza", "title": "Pizza"}, {"alias": "scottish", "title": "Scottish"}, {"alias": "beerbar", "title": "Beer Bar"}], "rating": 4.5, "coordinates": {"latitude": 33.0497874, "longitude": -117.2945725}, "transactions": ["delivery", "pickup"], "price": "$$", "location": {"address1": "90 N Coast Hwy 101", "address2": "Ste 208", "address3": null, "city": "Encinitas", "zip_code": "92024", "country": "US", "state": "CA", "display_address": ["90 N Coast Hwy 101", "Ste 208", "Encinitas, CA 92024"]}, "phone": "+17604875922", "display_phone": "(760) 487-5922", "distance": 3789.8359828566145}, {"id": "Qlue-v1qqcBwqFWi6qq3CQ", "alias": "rosatis-encinitas-encinitas", "name": "Rosati's Encinitas", "image_url": "https://s3-media1.fl.yelpcdn.com/bphoto/Fbi8TsDEkwRyCcrcmeLdRQ/o.jpg", "is_closed": false, "url": "https://www.yelp.com/biz/rosatis-encinitas-encinitas?adjust_creative=oncXGL2aPIKrtJdnWeFSnA&utm_campaign=yelp_api_v3&utm_medium=api_v3_business_search&utm_source=oncXGL2aPIKrtJdnWeFSnA", "review_count": 257, "categories": [{"alias": "pizza", "title": "Pizza"}, {"alias": "italian", "title": "Italian"}, {"alias": "sportsbars", "title": "Sports Bars"}], "rating": 4.0, "coordinates": {"latitude": 33.0557654984971, "longitude": -117.261638827622}, "transactions": [], "price": "$$", "location": {"address1": "337 N El Camino Real", "address2": "", "address3": "", "city": "Encinitas", "zip_code": "92024", "country": "US", "state": "CA", "display_address": ["337 N El Camino Real", "Encinitas, CA 92024"]}, "phone": "+17604522007", "display_phone": "(760) 452-2007", "distance": 1387.8096546160048}, {"id": "w-nAhi3UkLc86Ot9CHPWDQ", "alias": "urbn-encinitas-encinitas", "name": "URBN Encinitas", "image_url": "https://s3-media3.fl.yelpcdn.com/bphoto/gmT8tBqChT4lsxVQTRRCeA/o.jpg", "is_closed": false, "url": "https://www.yelp.com/biz/urbn-encinitas-encinitas?adjust_creative=oncXGL2aPIKrtJdnWeFSnA&utm_campaign=yelp_api_v3&utm_medium=api_v3_business_search&utm_source=oncXGL2aPIKrtJdnWeFSnA", "review_count": 206, "categories": [{"alias": "pizza", "title": "Pizza"}, {"alias": "salad", "title": "Salad"}], "rating": 4.0, "coordinates": {"latitude": 33.0424805, "longitude": -117.2935333}, "transactions": ["delivery", "pickup"], "price": "$$", "location": {"address1": "764 S Coast Hwy 101", "address2": "", "address3": "", "city": "Encinitas", "zip_code": "92024", "country": "US", "state": "CA", "display_address": ["764 S Coast Hwy 101", "Encinitas, CA 92024"]}, "phone": "+17609438620", "display_phone": "(760) 943-8620", "distance": 3672.7311600170533}, {"id": "O_2Gx9n5zp7hBrqmROjLew", "alias": "pizzaiolo-encinitas", "name": "Pizzaiolo", "image_url": "https://s3-media3.fl.yelpcdn.com/bphoto/z5im45PoO6-64sXjILS24A/o.jpg", "is_closed": false, "url": "https://www.yelp.com/biz/pizzaiolo-encinitas?adjust_creative=oncXGL2aPIKrtJdnWeFSnA&utm_campaign=yelp_api_v3&utm_medium=api_v3_business_search&utm_source=oncXGL2aPIKrtJdnWeFSnA", "review_count": 91, "categories": [{"alias": "pizza", "title": "Pizza"}, {"alias": "italian", "title": "Italian"}], "rating": 4.0, "coordinates": {"latitude": 33.0370615, "longitude": -117.280196}, "transactions": ["delivery", "pickup"], "price": "$", "location": {"address1": "554 Santa Fe Dr", "address2": "", "address3": "", "city": "Encinitas", "zip_code": "92024", "country": "US", "state": "CA", "display_address": ["554 Santa Fe Dr", "Encinitas, CA 92024"]}, "phone": "+17607532885", "display_phone": "(760) 753-2885", "distance": 2563.054573006113}, {"id": "N00mMr9eRmxBJQqxdl2_SA", "alias": "blaze-fast-fired-pizza-encinitas-2", "name": "Blaze Fast-Fire'd Pizza", "image_url": "https://s3-media1.fl.yelpcdn.com/bphoto/A9Uy6N2lJXNTkME4paCE6g/o.jpg", "is_closed": false, "url": "https://www.yelp.com/biz/blaze-fast-fired-pizza-encinitas-2?adjust_creative=oncXGL2aPIKrtJdnWeFSnA&utm_campaign=yelp_api_v3&utm_medium=api_v3_business_search&utm_source=oncXGL2aPIKrtJdnWeFSnA", "review_count": 270, "categories": [{"alias": "pizza", "title": "Pizza"}, {"alias": "salad", "title": "Salad"}, {"alias": "hotdogs", "title": "Fast Food"}], "rating": 4.5, "coordinates": {"latitude": 33.0484911, "longitude": -117.259474}, "transactions": [], "price": "$", "location": {"address1": "127 North El Camino Real", "address2": "", "address3": "", "city": "Encinitas", "zip_code": "92024", "country": "US", "state": "CA", "display_address": ["127 North El Camino Real", "Encinitas, CA 92024"]}, "phone": "+17604528025", "display_phone": "(760) 452-8025", "distance": 478.66384743220135}, {"id": "oGqdGBCABJzVS2BrBHKzyQ", "alias": "best-pizza-and-brew-cardiff", "name": "Best Pizza & Brew", "image_url": "https://s3-media3.fl.yelpcdn.com/bphoto/1QzaSg950ujmYa9vzU8Tjw/o.jpg", "is_closed": false, "url": "https://www.yelp.com/biz/best-pizza-and-brew-cardiff?adjust_creative=oncXGL2aPIKrtJdnWeFSnA&utm_campaign=yelp_api_v3&utm_medium=api_v3_business_search&utm_source=oncXGL2aPIKrtJdnWeFSnA", "review_count": 162, "categories": [{"alias": "pizza", "title": "Pizza"}, {"alias": "italian", "title": "Italian"}, {"alias": "beerbar", "title": "Beer Bar"}], "rating": 4.0, "coordinates": {"latitude": 33.02063, "longitude": -117.2819}, "transactions": [], "price": "$$", "location": {"address1": "102 Aberdeen Dr", "address2": "", "address3": "", "city": "Cardiff", "zip_code": "92007", "country": "US", "state": "CA", "display_address": ["102 Aberdeen Dr", "Cardiff, CA 92007"]}, "phone": "+17604367000", "display_phone": "(760) 436-7000", "distance": 3735.1662935527233}, {"id": "zw9c0RUdFlCbAih3J0xMyA", "alias": "pandoras-pizza-encinitas", "name": "Pandora's Pizza", "image_url": "https://s3-media4.fl.yelpcdn.com/bphoto/6V8LN6L58l7hV6_BEdQ1Kw/o.jpg", "is_closed": false, "url": "https://www.yelp.com/biz/pandoras-pizza-encinitas?adjust_creative=oncXGL2aPIKrtJdnWeFSnA&utm_campaign=yelp_api_v3&utm_medium=api_v3_business_search&utm_source=oncXGL2aPIKrtJdnWeFSnA", "review_count": 354, "categories": [{"alias": "pizza", "title": "Pizza"}], "rating": 4.5, "coordinates": {"latitude": 33.0635505, "longitude": -117.3022674}, "transactions": ["pickup"], "price": "$$", "location": {"address1": "828 N Coast Hwy 101", "address2": null, "address3": "", "city": "Encinitas", "zip_code": "92024", "country": "US", "state": "CA", "display_address": ["828 N Coast Hwy 101", "Encinitas, CA 92024"]}, "phone": "+17602302323", "display_phone": "(760) 230-2323", "distance": 4925.729549672003}, {"id": "cj0-W-t1oIOrV1cQ4Y3CZw", "alias": "napizza-encinitas", "name": "Napizza", "image_url": "https://s3-media1.fl.yelpcdn.com/bphoto/EtstORP3JTH707ybTudtIg/o.jpg", "is_closed": false, "url": "https://www.yelp.com/biz/napizza-encinitas?adjust_creative=oncXGL2aPIKrtJdnWeFSnA&utm_campaign=yelp_api_v3&utm_medium=api_v3_business_search&utm_source=oncXGL2aPIKrtJdnWeFSnA", "review_count": 146, "categories": [{"alias": "pizza", "title": "Pizza"}, {"alias": "italian", "title": "Italian"}], "rating": 4.0, "coordinates": {"latitude": 33.04432, "longitude": -117.29332}, "transactions": ["delivery", "pickup"], "price": "$$", "location": {"address1": "615 S Coast Hwy 101", "address2": null, "address3": "", "city": "Encinitas", "zip_code": "92024", "country": "US", "state": "CA", "display_address": ["615 S Coast Hwy 101", "Encinitas, CA 92024"]}, "phone": "+17604522340", "display_phone": "(760) 452-2340", "distance": 3644.236770139288}, {"id": "REs-IYie1ERpX21kkYE8Pw", "alias": "cucina-enoteca-del-mar-del-mar-2", "name": "Cucina Enoteca Del Mar", "image_url": "https://s3-media4.fl.yelpcdn.com/bphoto/mO9Bw_jgW16ilsikoiWMCA/o.jpg", "is_closed": false, "url": "https://www.yelp.com/biz/cucina-enoteca-del-mar-del-mar-2?adjust_creative=oncXGL2aPIKrtJdnWeFSnA&utm_campaign=yelp_api_v3&utm_medium=api_v3_business_search&utm_source=oncXGL2aPIKrtJdnWeFSnA", "review_count": 930, "categories": [{"alias": "italian", "title": "Italian"}, {"alias": "wine_bars", "title": "Wine Bars"}, {"alias": "pizza", "title": "Pizza"}], "rating": 4.0, "coordinates": {"latitude": 32.9810134249869, "longitude": -117.248989232541}, "transactions": [], "price": "$$", "location": {"address1": "2730 Via De La Valle", "address2": "", "address3": "", "city": "Del Mar", "zip_code": "92014", "country": "US", "state": "CA", "display_address": ["2730 Via De La Valle", "Del Mar, CA 92014"]}, "phone": "+18587044500", "display_phone": "(858) 704-4500", "distance": 7120.19357577403}, {"id": "MAN8n9Jw9DhKqnPSt-Y64w", "alias": "leucadia-pizzeria-and-italian-restaurant-encinitas-6", "name": "Leucadia Pizzeria & Italian Restaurant", "image_url": "https://s3-media1.fl.yelpcdn.com/bphoto/lyf5qMjDTg-dRUWYNAW-1w/o.jpg", "is_closed": false, "url": "https://www.yelp.com/biz/leucadia-pizzeria-and-italian-restaurant-encinitas-6?adjust_creative=oncXGL2aPIKrtJdnWeFSnA&utm_campaign=yelp_api_v3&utm_medium=api_v3_business_search&utm_source=oncXGL2aPIKrtJdnWeFSnA", "review_count": 457, "categories": [{"alias": "italian", "title": "Italian"}, {"alias": "pizza", "title": "Pizza"}, {"alias": "cocktailbars", "title": "Cocktail Bars"}], "rating": 3.5, "coordinates": {"latitude": 33.04835, "longitude": -117.29369}, "transactions": ["delivery"], "price": "$$", "location": {"address1": "315 S Coast Hwy 101", "address2": "", "address3": "", "city": "Encinitas", "zip_code": "92024", "country": "US", "state": "CA", "display_address": ["315 S Coast Hwy 101", "Encinitas, CA 92024"]}, "phone": "+17609422222", "display_phone": "(760) 942-2222", "distance": 3706.5623217698426}, {"id": "zUvpU9O2jkL5ETMBxMeiIg", "alias": "pie-craft-encinitas-2", "name": "Pie Craft", "image_url": "https://s3-media1.fl.yelpcdn.com/bphoto/6J_BxnSU7VznbJG-XHr6NQ/o.jpg", "is_closed": false, "url": "https://www.yelp.com/biz/pie-craft-encinitas-2?adjust_creative=oncXGL2aPIKrtJdnWeFSnA&utm_campaign=yelp_api_v3&utm_medium=api_v3_business_search&utm_source=oncXGL2aPIKrtJdnWeFSnA", "review_count": 190, "categories": [{"alias": "pizza", "title": "Pizza"}, {"alias": "italian", "title": "Italian"}], "rating": 4.0, "coordinates": {"latitude": 33.0515732, "longitude": -117.2610449}, "transactions": ["delivery", "pickup"], "price": "$$", "location": {"address1": "252 N El Camino Real", "address2": "Suite 5", "address3": "", "city": "Encinitas", "zip_code": "92024", "country": "US", "state": "CA", "display_address": ["252 N El Camino Real", "Suite 5", "Encinitas, CA 92024"]}, "phone": "+17606352800", "display_phone": "(760) 635-2800", "distance": 861.1916317943428}, {"id": "do9Q-Voyj5wu1AxmR52WzA", "alias": "east-coast-pizza-cardiff", "name": "East Coast Pizza", "image_url": "https://s3-media3.fl.yelpcdn.com/bphoto/4jYdsKxFiecn6LIe7-ua4g/o.jpg", "is_closed": false, "url": "https://www.yelp.com/biz/east-coast-pizza-cardiff?adjust_creative=oncXGL2aPIKrtJdnWeFSnA&utm_campaign=yelp_api_v3&utm_medium=api_v3_business_search&utm_source=oncXGL2aPIKrtJdnWeFSnA", "review_count": 284, "categories": [{"alias": "pizza", "title": "Pizza"}], "rating": 4.5, "coordinates": {"latitude": 33.022447, "longitude": -117.2822619}, "transactions": [], "price": "$", "location": {"address1": "2015 San Elijo Ave", "address2": null, "address3": "", "city": "Cardiff", "zip_code": "92007", "country": "US", "state": "CA", "display_address": ["2015 San Elijo Ave", "Cardiff, CA 92007"]}, "phone": "+17609441599", "display_phone": "(760) 944-1599", "distance": 3606.3654026547433}, {"id": "YGQ3IUftvDAhpOT-B4NrBg", "alias": "bongiornos-new-york-pizzeria-solana-beach", "name": "Bongiorno's New York Pizzeria", "image_url": "https://s3-media2.fl.yelpcdn.com/bphoto/zNf0PbdyE_1itBokTZLB6A/o.jpg", "is_closed": false, "url": "https://www.yelp.com/biz/bongiornos-new-york-pizzeria-solana-beach?adjust_creative=oncXGL2aPIKrtJdnWeFSnA&utm_campaign=yelp_api_v3&utm_medium=api_v3_business_search&utm_source=oncXGL2aPIKrtJdnWeFSnA", "review_count": 471, "categories": [{"alias": "pizza", "title": "Pizza"}, {"alias": "italian", "title": "Italian"}], "rating": 4.5, "coordinates": {"latitude": 32.99051, "longitude": -117.2606}, "transactions": [], "price": "$", "location": {"address1": "524 Stevens Ave", "address2": "Ste 10", "address3": "", "city": "Solana Beach", "zip_code": "92075", "country": "US", "state": "CA", "display_address": ["524 Stevens Ave", "Ste 10", "Solana Beach, CA 92075"]}, "phone": "+18587552646", "display_phone": "(858) 755-2646", "distance": 6087.476638471088}, {"id": "Dufn2sTES6eKdnMGv7gV0Q", "alias": "pizza-port-solana-beach-solana-beach", "name": "Pizza Port Solana Beach", "image_url": "https://s3-media2.fl.yelpcdn.com/bphoto/fgSw-lpI7wYp5hoBD0yW-w/o.jpg", "is_closed": false, "url": "https://www.yelp.com/biz/pizza-port-solana-beach-solana-beach?adjust_creative=oncXGL2aPIKrtJdnWeFSnA&utm_campaign=yelp_api_v3&utm_medium=api_v3_business_search&utm_source=oncXGL2aPIKrtJdnWeFSnA", "review_count": 1348, "categories": [{"alias": "pizza", "title": "Pizza"}, {"alias": "breweries", "title": "Breweries"}], "rating": 4.0, "coordinates": {"latitude": 32.9929237365723, "longitude": -117.272216796875}, "transactions": [], "price": "$$", "location": {"address1": "135 N Hwy 101", "address2": "", "address3": "", "city": "Solana Beach", "zip_code": "92075", "country": "US", "state": "CA", "display_address": ["135 N Hwy 101", "Solana Beach, CA 92075"]}, "phone": "+18584817332", "display_phone": "(858) 481-7332", "distance": 6014.180201953206}, {"id": "0wYGE4bT5zLc8JgloNLmCg", "alias": "besta-wan-pizza-house-cardiff-by-the-sea", "name": "Besta-Wan Pizza House", "image_url": "https://s3-media2.fl.yelpcdn.com/bphoto/WCP9xICwzzkh6NuozZqeog/o.jpg", "is_closed": false, "url": "https://www.yelp.com/biz/besta-wan-pizza-house-cardiff-by-the-sea?adjust_creative=oncXGL2aPIKrtJdnWeFSnA&utm_campaign=yelp_api_v3&utm_medium=api_v3_business_search&utm_source=oncXGL2aPIKrtJdnWeFSnA", "review_count": 416, "categories": [{"alias": "newamerican", "title": "American (New)"}, {"alias": "pizza", "title": "Pizza"}], "rating": 4.0, "coordinates": {"latitude": 33.02091, "longitude": -117.28123}, "transactions": [], "price": "$$", "location": {"address1": "148 Aberdeen Dr", "address2": null, "address3": "", "city": "Cardiff By The Sea", "zip_code": "92007", "country": "US", "state": "CA", "display_address": ["148 Aberdeen Dr", "Cardiff By The Sea, CA 92007"]}, "phone": "+17607536707", "display_phone": "(760) 753-6707", "distance": 3662.7209737040916}, {"id": "z1ALpZAmW-32-9LaMyOL0g", "alias": "flippin-pizza-encinitas-2", "name": "Flippin' Pizza", "image_url": "https://s3-media2.fl.yelpcdn.com/bphoto/o_1LVZ_JPTFhQ2EoIZoQeg/o.jpg", "is_closed": false, "url": "https://www.yelp.com/biz/flippin-pizza-encinitas-2?adjust_creative=oncXGL2aPIKrtJdnWeFSnA&utm_campaign=yelp_api_v3&utm_medium=api_v3_business_search&utm_source=oncXGL2aPIKrtJdnWeFSnA", "review_count": 155, "categories": [{"alias": "pizza", "title": "Pizza"}], "rating": 4.0, "coordinates": {"latitude": 33.0421245, "longitude": -117.2594251}, "transactions": [], "price": "$", "location": {"address1": "215 S El Camino Real", "address2": "Ste H", "address3": "", "city": "Encinitas", "zip_code": "92024", "country": "US", "state": "CA", "display_address": ["215 S El Camino Real", "Ste H", "Encinitas, CA 92024"]}, "phone": "+17606321497", "display_phone": "(760) 632-1497", "distance": 466.8602855668299}, {"id": "UPGYeMQGPyKahAsW0AMorw", "alias": "mangia-e-bevi-oceanside", "name": "Mangia e Bevi", "image_url": "https://s3-media2.fl.yelpcdn.com/bphoto/JyNc7RZ6xSYKdnkOArHM2Q/o.jpg", "is_closed": false, "url": "https://www.yelp.com/biz/mangia-e-bevi-oceanside?adjust_creative=oncXGL2aPIKrtJdnWeFSnA&utm_campaign=yelp_api_v3&utm_medium=api_v3_business_search&utm_source=oncXGL2aPIKrtJdnWeFSnA", "review_count": 16, "categories": [{"alias": "italian", "title": "Italian"}, {"alias": "pizza", "title": "Pizza"}, {"alias": "wine_bars", "title": "Wine Bars"}], "rating": 5.0, "coordinates": {"latitude": 33.21011, "longitude": -117.31162}, "transactions": [], "location": {"address1": "3613 Ocean Ranch Blvd", "address2": "Ste 100", "address3": "", "city": "Oceanside", "zip_code": "92056", "country": "US", "state": "CA", "display_address": ["3613 Ocean Ranch Blvd", "Ste 100", "Oceanside, CA 92056"]}, "phone": "+17602311225", "display_phone": "(760) 231-1225", "distance": 19124.214908026843}, {"id": "Pk1RB_ymVaY1ZK4XcskvYQ", "alias": "bjs-restaurant-and-brewhouse-carlsbad-2", "name": "BJ's Restaurant & Brewhouse", "image_url": "https://s3-media2.fl.yelpcdn.com/bphoto/bpLbi_sIatXNr6NLy87DLg/o.jpg", "is_closed": false, "url": "https://www.yelp.com/biz/bjs-restaurant-and-brewhouse-carlsbad-2?adjust_creative=oncXGL2aPIKrtJdnWeFSnA&utm_campaign=yelp_api_v3&utm_medium=api_v3_business_search&utm_source=oncXGL2aPIKrtJdnWeFSnA", "review_count": 847, "categories": [{"alias": "breweries", "title": "Breweries"}, {"alias": "newamerican", "title": "American (New)"}, {"alias": "pizza", "title": "Pizza"}], "rating": 3.0, "coordinates": {"latitude": 33.127135, "longitude": -117.324024}, "transactions": ["delivery"], "price": "$$", "location": {"address1": "5613 Paseo Del Norte", "address2": "", "address3": "", "city": "Carlsbad", "zip_code": "92008", "country": "US", "state": "CA", "display_address": ["5613 Paseo Del Norte", "Carlsbad, CA 92008"]}, "phone": "+17605794440", "display_phone": "(760) 579-4440", "distance": 11215.626954859392}, {"id": "yl1yhRtYLHqk-ZSDueZ1UA", "alias": "crust-pizzeria-solana-beach", "name": "Crust Pizzeria", "image_url": "https://s3-media3.fl.yelpcdn.com/bphoto/Z66G9rI_RT_mFzIoVWedvg/o.jpg", "is_closed": false, "url": "https://www.yelp.com/biz/crust-pizzeria-solana-beach?adjust_creative=oncXGL2aPIKrtJdnWeFSnA&utm_campaign=yelp_api_v3&utm_medium=api_v3_business_search&utm_source=oncXGL2aPIKrtJdnWeFSnA", "review_count": 55, "categories": [{"alias": "pizza", "title": "Pizza"}, {"alias": "italian", "title": "Italian"}, {"alias": "bars", "title": "Bars"}], "rating": 4.5, "coordinates": {"latitude": 32.9949911, "longitude": -117.2583178}, "transactions": [], "price": "$$", "location": {"address1": "124 S Solana Hills Dr", "address2": null, "address3": "", "city": "Solana Beach", "zip_code": "92075", "country": "US", "state": "CA", "display_address": ["124 S Solana Hills Dr", "Solana Beach, CA 92075"]}, "phone": "+18583569925", "display_phone": "(858) 356-9925", "distance": 5508.001173366027}, {"id": "7pLLJYvncPB6iAuUAudPHg", "alias": "schooner-station-pizzeria-and-sports-pub-encinitas-2", "name": "Schooner Station Pizzeria & Sports Pub", "image_url": "https://s3-media1.fl.yelpcdn.com/bphoto/_aRBlfH1nfhRpqm4t_U6Mg/o.jpg", "is_closed": false, "url": "https://www.yelp.com/biz/schooner-station-pizzeria-and-sports-pub-encinitas-2?adjust_creative=oncXGL2aPIKrtJdnWeFSnA&utm_campaign=yelp_api_v3&utm_medium=api_v3_business_search&utm_source=oncXGL2aPIKrtJdnWeFSnA", "review_count": 106, "categories": [{"alias": "sportsbars", "title": "Sports Bars"}, {"alias": "gluten_free", "title": "Gluten-Free"}, {"alias": "pizza", "title": "Pizza"}], "rating": 3.5, "coordinates": {"latitude": 33.0362206, "longitude": -117.2857666}, "transactions": ["pickup"], "price": "$$", "location": {"address1": "481 Sante Fe Dr", "address2": "", "address3": "", "city": "Encinitas", "zip_code": "92024", "country": "US", "state": "CA", "display_address": ["481 Sante Fe Dr", "Encinitas, CA 92024"]}, "phone": "+17607539700", "display_phone": "(760) 753-9700", "distance": 2811.6991450057244}, {"id": "d7BWosg1jl0TSI325fFMAw", "alias": "7-mile-kitchen-carlsbad", "name": "7 Mile Kitchen", "image_url": "https://s3-media2.fl.yelpcdn.com/bphoto/-MrjKPdeIX99iMbyxBIVPw/o.jpg", "is_closed": false, "url": "https://www.yelp.com/biz/7-mile-kitchen-carlsbad?adjust_creative=oncXGL2aPIKrtJdnWeFSnA&utm_campaign=yelp_api_v3&utm_medium=api_v3_business_search&utm_source=oncXGL2aPIKrtJdnWeFSnA", "review_count": 85, "categories": [{"alias": "newamerican", "title": "American (New)"}, {"alias": "pizza", "title": "Pizza"}, {"alias": "burgers", "title": "Burgers"}], "rating": 3.5, "coordinates": {"latitude": 33.1327473, "longitude": -117.3118966}, "transactions": [], "price": "$$", "location": {"address1": "5420 Grand Pacific Dr", "address2": null, "address3": "", "city": "Carlsbad", "zip_code": "92008", "country": "US", "state": "CA", "display_address": ["5420 Grand Pacific Dr", "Carlsbad, CA 92008"]}, "phone": "+17608272514", "display_phone": "(760) 827-2514", "distance": 11144.382371037509}, {"id": "GqsoLyxkqh_ZJ7AbSY7cdg", "alias": "borrellis-pizza-and-italian-restaurant-encinitas", "name": "Borrelli's Pizza & Italian Restaurant", "image_url": "https://s3-media4.fl.yelpcdn.com/bphoto/kW1j_sjvgjoFxam_NMjzxg/o.jpg", "is_closed": false, "url": "https://www.yelp.com/biz/borrellis-pizza-and-italian-restaurant-encinitas?adjust_creative=oncXGL2aPIKrtJdnWeFSnA&utm_campaign=yelp_api_v3&utm_medium=api_v3_business_search&utm_source=oncXGL2aPIKrtJdnWeFSnA", "review_count": 195, "categories": [{"alias": "pizza", "title": "Pizza"}, {"alias": "italian", "title": "Italian"}], "rating": 3.0, "coordinates": {"latitude": 33.053208, "longitude": -117.261107}, "transactions": ["delivery", "pickup"], "price": "$$", "location": {"address1": "285 N El Camino Real", "address2": "Ste 106", "address3": "", "city": "Encinitas", "zip_code": "92024", "country": "US", "state": "CA", "display_address": ["285 N El Camino Real", "Ste 106", "Encinitas, CA 92024"]}, "phone": "+17604361501", "display_phone": "(760) 436-1501", "distance": 1119.8440512627014}, {"id": "3GsXr0QB3olbteXRU38Epw", "alias": "rosaria-pizza-oceanside", "name": "Rosaria Pizza", "image_url": "https://s3-media1.fl.yelpcdn.com/bphoto/5qlTdYUXchi1q07pY9YOIA/o.jpg", "is_closed": false, "url": "https://www.yelp.com/biz/rosaria-pizza-oceanside?adjust_creative=oncXGL2aPIKrtJdnWeFSnA&utm_campaign=yelp_api_v3&utm_medium=api_v3_business_search&utm_source=oncXGL2aPIKrtJdnWeFSnA", "review_count": 5, "categories": [{"alias": "pizza", "title": "Pizza"}], "rating": 5.0, "coordinates": {"latitude": 33.19566, "longitude": -117.38085}, "transactions": ["delivery", "pickup"], "location": {"address1": "209 N Tremont St", "address2": null, "address3": "", "city": "Oceanside", "zip_code": "92054", "country": "US", "state": "CA", "display_address": ["209 N Tremont St", "Oceanside, CA 92054"]}, "phone": "+17607221949", "display_phone": "(760) 722-1949", "distance": 20490.556875810384}, {"id": "9Gwpo1tINvmEC71hZNEWMA", "alias": "oggis-sports-i-brewhouse-i-pizza-encinitas", "name": "Oggi's Sports I Brewhouse I Pizza", "image_url": "https://s3-media3.fl.yelpcdn.com/bphoto/cwxClRpV4A6T6-iPEB39rQ/o.jpg", "is_closed": false, "url": "https://www.yelp.com/biz/oggis-sports-i-brewhouse-i-pizza-encinitas?adjust_creative=oncXGL2aPIKrtJdnWeFSnA&utm_campaign=yelp_api_v3&utm_medium=api_v3_business_search&utm_source=oncXGL2aPIKrtJdnWeFSnA", "review_count": 228, "categories": [{"alias": "pizza", "title": "Pizza"}, {"alias": "breweries", "title": "Breweries"}, {"alias": "sportsbars", "title": "Sports Bars"}], "rating": 3.0, "coordinates": {"latitude": 33.0477981567383, "longitude": -117.285514831543}, "transactions": ["delivery", "pickup"], "price": "$$", "location": {"address1": "305 Encinitas Blvd", "address2": "", "address3": "", "city": "Encinitas", "zip_code": "92024", "country": "US", "state": "CA", "display_address": ["305 Encinitas Blvd", "Encinitas, CA 92024"]}, "phone": "+17609448170", "display_phone": "(760) 944-8170", "distance": 2921.2790785835896}, {"id": "cJIcN2kZHiOvuvQrH_Ep8g", "alias": "benitos-cafe-oceanside", "name": "Benito's Cafe", "image_url": "https://s3-media2.fl.yelpcdn.com/bphoto/n4K1JC7Z18MNUFaxXir-YA/o.jpg", "is_closed": false, "url": "https://www.yelp.com/biz/benitos-cafe-oceanside?adjust_creative=oncXGL2aPIKrtJdnWeFSnA&utm_campaign=yelp_api_v3&utm_medium=api_v3_business_search&utm_source=oncXGL2aPIKrtJdnWeFSnA", "review_count": 18, "categories": [{"alias": "pizza", "title": "Pizza"}, {"alias": "pastashops", "title": "Pasta Shops"}, {"alias": "chickenshop", "title": "Chicken Shop"}], "rating": 4.5, "coordinates": {"latitude": 33.19667, "longitude": -117.37853}, "transactions": [], "location": {"address1": "610 Mission Ave", "address2": "", "address3": null, "city": "Oceanside", "zip_code": "92054", "country": "US", "state": "CA", "display_address": ["610 Mission Ave", "Oceanside, CA 92054"]}, "phone": "+17607213000", "display_phone": "(760) 721-3000", "distance": 20469.54051753148}, {"id": "iDqjGpLfBOUNBD0bZUPHTA", "alias": "pizza-hut-carlsbad-4", "name": "Pizza Hut", "image_url": "https://s3-media2.fl.yelpcdn.com/bphoto/rMVZqWULh1ri3noZ5FjIAw/o.jpg", "is_closed": false, "url": "https://www.yelp.com/biz/pizza-hut-carlsbad-4?adjust_creative=oncXGL2aPIKrtJdnWeFSnA&utm_campaign=yelp_api_v3&utm_medium=api_v3_business_search&utm_source=oncXGL2aPIKrtJdnWeFSnA", "review_count": 34, "categories": [{"alias": "pizza", "title": "Pizza"}, {"alias": "italian", "title": "Italian"}, {"alias": "chicken_wings", "title": "Chicken Wings"}], "rating": 4.0, "coordinates": {"latitude": 33.0825253, "longitude": -117.266711}, "transactions": [], "price": "$", "location": {"address1": "7750 El Camino Real", "address2": "Ste E", "address3": "", "city": "Carlsbad", "zip_code": "92009", "country": "US", "state": "CA", "display_address": ["7750 El Camino Real", "Ste E", "Carlsbad, CA 92009"]}, "phone": "+17609444222", "display_phone": "(760) 944-4222", "distance": 4340.905500914886}, {"id": "t93BSZqSbW7e6MpPXVhz2g", "alias": "primo-pizza-and-pasta-carlsbad-2", "name": "Primo Pizza & Pasta", "image_url": "https://s3-media2.fl.yelpcdn.com/bphoto/E7_2a5JKHkvutKdrriCcew/o.jpg", "is_closed": false, "url": "https://www.yelp.com/biz/primo-pizza-and-pasta-carlsbad-2?adjust_creative=oncXGL2aPIKrtJdnWeFSnA&utm_campaign=yelp_api_v3&utm_medium=api_v3_business_search&utm_source=oncXGL2aPIKrtJdnWeFSnA", "review_count": 316, "categories": [{"alias": "pizza", "title": "Pizza"}, {"alias": "italian", "title": "Italian"}, {"alias": "salad", "title": "Salad"}], "rating": 4.0, "coordinates": {"latitude": 33.10132, "longitude": -117.31131}, "transactions": ["delivery", "pickup"], "price": "$", "location": {"address1": "7110 Avenida Encinas", "address2": "Ste 103", "address3": "", "city": "Carlsbad", "zip_code": "92011", "country": "US", "state": "CA", "display_address": ["7110 Avenida Encinas", "Ste 103", "Carlsbad, CA 92011"]}, "phone": "+17604317155", "display_phone": "(760) 431-7155", "distance": 8241.570361603795}, {"id": "oC6zWdHOnVe4tCRr2Uj01w", "alias": "round-table-pizza-encinitas", "name": "Round Table Pizza", "image_url": "https://s3-media1.fl.yelpcdn.com/bphoto/uBTHFlVDc2kNC0jNomxH9A/o.jpg", "is_closed": false, "url": "https://www.yelp.com/biz/round-table-pizza-encinitas?adjust_creative=oncXGL2aPIKrtJdnWeFSnA&utm_campaign=yelp_api_v3&utm_medium=api_v3_business_search&utm_source=oncXGL2aPIKrtJdnWeFSnA", "review_count": 67, "categories": [{"alias": "pizza", "title": "Pizza"}, {"alias": "buffets", "title": "Buffets"}], "rating": 3.0, "coordinates": {"latitude": 33.044713439575, "longitude": -117.26119945923}, "transactions": [], "price": "$$", "location": {"address1": "1321 Encinitas Blvd.", "address2": "", "address3": "", "city": "Encinitas", "zip_code": "92024", "country": "US", "state": "CA", "display_address": ["1321 Encinitas Blvd.", "Encinitas, CA 92024"]}, "phone": "+17607538303", "display_phone": "(760) 753-8303", "distance": 640.2664288391074}, {"id": "cQO3sfIMxpo3DLxDCG13VQ", "alias": "pizza-nova-solana-beach", "name": "Pizza Nova", "image_url": "https://s3-media1.fl.yelpcdn.com/bphoto/kWIGD6UNrkbIF9ENNTK9lA/o.jpg", "is_closed": false, "url": "https://www.yelp.com/biz/pizza-nova-solana-beach?adjust_creative=oncXGL2aPIKrtJdnWeFSnA&utm_campaign=yelp_api_v3&utm_medium=api_v3_business_search&utm_source=oncXGL2aPIKrtJdnWeFSnA", "review_count": 215, "categories": [{"alias": "pizza", "title": "Pizza"}], "rating": 4.0, "coordinates": {"latitude": 32.9955336, "longitude": -117.2536919}, "transactions": [], "price": "$$", "location": {"address1": "945 Lomas Santa Fe Dr", "address2": "", "address3": "", "city": "Solana Beach", "zip_code": "92075", "country": "US", "state": "CA", "display_address": ["945 Lomas Santa Fe Dr", "Solana Beach, CA 92075"]}, "phone": "+18582590666", "display_phone": "(858) 259-0666", "distance": 5611.6443605278655}, {"id": "3HwghixraHhQaG5GAChmsw", "alias": "bites-pints-taphouse-carlsbad", "name": "Bites + Pints Taphouse", "image_url": "https://s3-media2.fl.yelpcdn.com/bphoto/npuXcrqFlA6N8RsDvTzNlw/o.jpg", "is_closed": false, "url": "https://www.yelp.com/biz/bites-pints-taphouse-carlsbad?adjust_creative=oncXGL2aPIKrtJdnWeFSnA&utm_campaign=yelp_api_v3&utm_medium=api_v3_business_search&utm_source=oncXGL2aPIKrtJdnWeFSnA", "review_count": 23, "categories": [{"alias": "pizza", "title": "Pizza"}, {"alias": "tradamerican", "title": "American (Traditional)"}, {"alias": "salad", "title": "Salad"}], "rating": 3.5, "coordinates": {"latitude": 33.17993, "longitude": -117.32715}, "transactions": ["delivery", "pickup"], "location": {"address1": "2501 El Camino Real", "address2": "Ste 210", "address3": null, "city": "Carlsbad", "zip_code": "92008", "country": "US", "state": "CA", "display_address": ["2501 El Camino Real", "Ste 210", "Carlsbad, CA 92008"]}, "phone": "+17607291904", "display_phone": "(760) 729-1904", "distance": 16412.165547822322}, {"id": "d1WKFhg5l_LCgnMHs140hQ", "alias": "pieology-pizzeria-carlsbad", "name": "Pieology Pizzeria", "image_url": "https://s3-media2.fl.yelpcdn.com/bphoto/EqC44ep-lYF3vLMwIQNM3Q/o.jpg", "is_closed": false, "url": "https://www.yelp.com/biz/pieology-pizzeria-carlsbad?adjust_creative=oncXGL2aPIKrtJdnWeFSnA&utm_campaign=yelp_api_v3&utm_medium=api_v3_business_search&utm_source=oncXGL2aPIKrtJdnWeFSnA", "review_count": 200, "categories": [{"alias": "pizza", "title": "Pizza"}], "rating": 4.0, "coordinates": {"latitude": 33.1272292, "longitude": -117.253689}, "transactions": [], "price": "$", "location": {"address1": "2647 Gateway Rd", "address2": "Ste 101", "address3": null, "city": "Carlsbad", "zip_code": "92009", "country": "US", "state": "CA", "display_address": ["2647 Gateway Rd", "Ste 101", "Carlsbad, CA 92009"]}, "phone": "+17609308988", "display_phone": "(760) 930-8988", "distance": 9087.612818627247}, {"id": "eTiQGScV5TbUfFeH4etwMQ", "alias": "blaze-fast-fired-pizza-carlsbad", "name": "Blaze Fast-Fire'd Pizza", "image_url": "https://s3-media4.fl.yelpcdn.com/bphoto/RdiWPOGfcK5C4bmnuL0MvA/o.jpg", "is_closed": false, "url": "https://www.yelp.com/biz/blaze-fast-fired-pizza-carlsbad?adjust_creative=oncXGL2aPIKrtJdnWeFSnA&utm_campaign=yelp_api_v3&utm_medium=api_v3_business_search&utm_source=oncXGL2aPIKrtJdnWeFSnA", "review_count": 686, "categories": [{"alias": "pizza", "title": "Pizza"}, {"alias": "salad", "title": "Salad"}, {"alias": "hotdogs", "title": "Fast Food"}], "rating": 4.5, "coordinates": {"latitude": 33.1250977336068, "longitude": -117.320182059245}, "transactions": [], "price": "$", "location": {"address1": "5620 Paseo Del Norte", "address2": "", "address3": "", "city": "Carlsbad", "zip_code": "92008", "country": "US", "state": "CA", "display_address": ["5620 Paseo Del Norte", "Carlsbad, CA 92008"]}, "phone": "+17608945029", "display_phone": "(760) 894-5029", "distance": 10824.938166583852}, {"id": "cVVxcRO-m-ObsuYD3thxLQ", "alias": "crust-pizzeria-carlsbad", "name": "Crust Pizzeria", "image_url": "https://s3-media3.fl.yelpcdn.com/bphoto/CVNKSesTTLGh52dCBMR7iQ/o.jpg", "is_closed": false, "url": "https://www.yelp.com/biz/crust-pizzeria-carlsbad?adjust_creative=oncXGL2aPIKrtJdnWeFSnA&utm_campaign=yelp_api_v3&utm_medium=api_v3_business_search&utm_source=oncXGL2aPIKrtJdnWeFSnA", "review_count": 357, "categories": [{"alias": "pizza", "title": "Pizza"}, {"alias": "wine_bars", "title": "Wine Bars"}, {"alias": "italian", "title": "Italian"}], "rating": 4.0, "coordinates": {"latitude": 33.0757914, "longitude": -117.2378596}, "transactions": ["delivery"], "price": "$$", "location": {"address1": "3263 Camino De Los Coches", "address2": "Ste 105", "address3": "", "city": "Carlsbad", "zip_code": "92009", "country": "US", "state": "CA", "display_address": ["3263 Camino De Los Coches", "Ste 105", "Carlsbad, CA 92009"]}, "phone": "+17609441111", "display_phone": "(760) 944-1111", "distance": 3748.844315815337}, {"id": "cto_W4jjMqI6dU7G7JaKTA", "alias": "pizza-port-carlsbad-3", "name": "Pizza Port", "image_url": "https://s3-media2.fl.yelpcdn.com/bphoto/DT_E8CKJE-BlqKzXfiaDbA/o.jpg", "is_closed": false, "url": "https://www.yelp.com/biz/pizza-port-carlsbad-3?adjust_creative=oncXGL2aPIKrtJdnWeFSnA&utm_campaign=yelp_api_v3&utm_medium=api_v3_business_search&utm_source=oncXGL2aPIKrtJdnWeFSnA", "review_count": 1854, "categories": [{"alias": "pizza", "title": "Pizza"}, {"alias": "breweries", "title": "Breweries"}, {"alias": "beerbar", "title": "Beer Bar"}], "rating": 3.5, "coordinates": {"latitude": 33.1598323, "longitude": -117.3478227}, "transactions": ["pickup"], "price": "$$", "location": {"address1": "571 Carlsbad Village Dr", "address2": "", "address3": "", "city": "Carlsbad", "zip_code": "92008", "country": "US", "state": "CA", "display_address": ["571 Carlsbad Village Dr", "Carlsbad, CA 92008"]}, "phone": "+17607207007", "display_phone": "(760) 720-7007", "distance": 15468.33627120767}, {"id": "eWIgR7DeS7BnKbFtIp-m4w", "alias": "pizza-port-bressi-ranch-carlsbad", "name": "Pizza Port Bressi Ranch", "image_url": "https://s3-media2.fl.yelpcdn.com/bphoto/I4DZ4hgRvvei0oqrTyvsXQ/o.jpg", "is_closed": false, "url": "https://www.yelp.com/biz/pizza-port-bressi-ranch-carlsbad?adjust_creative=oncXGL2aPIKrtJdnWeFSnA&utm_campaign=yelp_api_v3&utm_medium=api_v3_business_search&utm_source=oncXGL2aPIKrtJdnWeFSnA", "review_count": 518, "categories": [{"alias": "pizza", "title": "Pizza"}, {"alias": "pubs", "title": "Pubs"}], "rating": 3.5, "coordinates": {"latitude": 33.1283833252746, "longitude": -117.25021150388}, "transactions": ["pickup"], "price": "$$", "location": {"address1": "2730 Gateway Rd", "address2": null, "address3": "", "city": "Carlsbad", "zip_code": "92009", "country": "US", "state": "CA", "display_address": ["2730 Gateway Rd", "Carlsbad, CA 92009"]}, "phone": "+17607071655", "display_phone": "(760) 707-1655", "distance": 9291.971041301542}, {"id": "ALVZfVN77BNfXinDiJ41Ig", "alias": "urban-pi-del-mar", "name": "Urban Pi", "image_url": "https://s3-media1.fl.yelpcdn.com/bphoto/IDdX4_A8_Pme3Ulj8MoRCA/o.jpg", "is_closed": false, "url": "https://www.yelp.com/biz/urban-pi-del-mar?adjust_creative=oncXGL2aPIKrtJdnWeFSnA&utm_campaign=yelp_api_v3&utm_medium=api_v3_business_search&utm_source=oncXGL2aPIKrtJdnWeFSnA", "review_count": 419, "categories": [{"alias": "pizza", "title": "Pizza"}], "rating": 3.5, "coordinates": {"latitude": 32.9797911076175, "longitude": -117.249609612337}, "transactions": [], "price": "$$", "location": {"address1": "2673 Via De La Valle", "address2": "", "address3": "", "city": "Del Mar", "zip_code": "92014", "country": "US", "state": "CA", "display_address": ["2673 Via De La Valle", "Del Mar, CA 92014"]}, "phone": "+18587928000", "display_phone": "(858) 792-8000", "distance": 7252.038991703604}, {"id": "d4WsOuwHai77upepgywo7Q", "alias": "two-brothers-from-italy-san-marcos", "name": "Two Brothers from Italy", "image_url": "https://s3-media2.fl.yelpcdn.com/bphoto/Ek6xhEcKiBYcAIn3Ero0ag/o.jpg", "is_closed": false, "url": "https://www.yelp.com/biz/two-brothers-from-italy-san-marcos?adjust_creative=oncXGL2aPIKrtJdnWeFSnA&utm_campaign=yelp_api_v3&utm_medium=api_v3_business_search&utm_source=oncXGL2aPIKrtJdnWeFSnA", "review_count": 287, "categories": [{"alias": "pizza", "title": "Pizza"}], "rating": 4.0, "coordinates": {"latitude": 33.13634, "longitude": -117.17656}, "transactions": ["pickup"], "price": "$", "location": {"address1": "591 Grand Ave", "address2": "Ste 101", "address3": "", "city": "San Marcos", "zip_code": "92078", "country": "US", "state": "CA", "display_address": ["591 Grand Ave", "Ste 101", "San Marcos, CA 92078"]}, "phone": "+17605919119", "display_phone": "(760) 591-9119", "distance": 12435.477115408825}, {"id": "QkeyoOXj1V7I7_gkWsOhOg", "alias": "red-oven-artisanal-pizza-carlsbad-4", "name": "Red Oven Artisanal Pizza", "image_url": "https://s3-media2.fl.yelpcdn.com/bphoto/NObu10C3JQoIrM8wvJ13xw/o.jpg", "is_closed": false, "url": "https://www.yelp.com/biz/red-oven-artisanal-pizza-carlsbad-4?adjust_creative=oncXGL2aPIKrtJdnWeFSnA&utm_campaign=yelp_api_v3&utm_medium=api_v3_business_search&utm_source=oncXGL2aPIKrtJdnWeFSnA", "review_count": 165, "categories": [{"alias": "pizza", "title": "Pizza"}, {"alias": "catering", "title": "Caterers"}, {"alias": "foodtrucks", "title": "Food Trucks"}], "rating": 4.5, "coordinates": {"latitude": 33.0892333984375, "longitude": -117.254249572754}, "transactions": [], "price": "$$", "location": {"address1": "", "address2": "", "address3": "", "city": "Carlsbad", "zip_code": "92009", "country": "US", "state": "CA", "display_address": ["Carlsbad, CA 92009"]}, "phone": "+17608141688", "display_phone": "(760) 814-1688", "distance": 5635.781229723181}, {"id": "dYOccn1az0n0blBWuory1Q", "alias": "roosevelt-pizzeria-carlsbad-3", "name": "Roosevelt Pizzeria", "image_url": "https://s3-media1.fl.yelpcdn.com/bphoto/hntv0gM16K84bjR0MprHXA/o.jpg", "is_closed": false, "url": "https://www.yelp.com/biz/roosevelt-pizzeria-carlsbad-3?adjust_creative=oncXGL2aPIKrtJdnWeFSnA&utm_campaign=yelp_api_v3&utm_medium=api_v3_business_search&utm_source=oncXGL2aPIKrtJdnWeFSnA", "review_count": 179, "categories": [{"alias": "pizza", "title": "Pizza"}, {"alias": "italian", "title": "Italian"}], "rating": 4.5, "coordinates": {"latitude": 33.15929, "longitude": -117.34738}, "transactions": [], "price": "$$", "location": {"address1": "3067 Roosevelt St", "address2": "", "address3": "", "city": "Carlsbad", "zip_code": "92008", "country": "US", "state": "CA", "display_address": ["3067 Roosevelt St", "Carlsbad, CA 92008"]}, "phone": "+17607309105", "display_phone": "(760) 730-9105", "distance": 15391.990406295565}, {"id": "n3b6lsqXk3TYSXHuWlangQ", "alias": "piacere-mio-del-sur-san-diego-2", "name": "Piacere Mio Del sur", "image_url": "https://s3-media3.fl.yelpcdn.com/bphoto/CO6pJpZLxDE_WEzvQXlOCA/o.jpg", "is_closed": false, "url": "https://www.yelp.com/biz/piacere-mio-del-sur-san-diego-2?adjust_creative=oncXGL2aPIKrtJdnWeFSnA&utm_campaign=yelp_api_v3&utm_medium=api_v3_business_search&utm_source=oncXGL2aPIKrtJdnWeFSnA", "review_count": 306, "categories": [{"alias": "pizza", "title": "Pizza"}, {"alias": "italian", "title": "Italian"}, {"alias": "bars", "title": "Bars"}], "rating": 4.0, "coordinates": {"latitude": 33.0209346352993, "longitude": -117.124258128689}, "transactions": ["restaurant_reservation"], "price": "$$", "location": {"address1": "16490 Paseo Del Sur", "address2": "Ste 135", "address3": "Del Sur Town Center", "city": "San Diego", "zip_code": "92127", "country": "US", "state": "CA", "display_address": ["16490 Paseo Del Sur", "Ste 135", "Del Sur Town Center", "San Diego, CA 92127"]}, "phone": "+18583128390", "display_phone": "(858) 312-8390", "distance": 12414.88083072529}, {"id": "4Mi3mL8_8bM39b_cuwoGKg", "alias": "flippin-pizza-san-diego-5", "name": "Flippin' Pizza", "image_url": "https://s3-media2.fl.yelpcdn.com/bphoto/m4hJd_h5E1P2u4qNF6GWkg/o.jpg", "is_closed": false, "url": "https://www.yelp.com/biz/flippin-pizza-san-diego-5?adjust_creative=oncXGL2aPIKrtJdnWeFSnA&utm_campaign=yelp_api_v3&utm_medium=api_v3_business_search&utm_source=oncXGL2aPIKrtJdnWeFSnA", "review_count": 8, "categories": [{"alias": "pizza", "title": "Pizza"}], "rating": 4.0, "coordinates": {"latitude": 32.90377, "longitude": -117.09952}, "transactions": [], "location": {"address1": "10006 Scripps Ranch Blvd", "address2": "Ste 102", "address3": "", "city": "San Diego", "zip_code": "92131", "country": "US", "state": "CA", "display_address": ["10006 Scripps Ranch Blvd", "Ste 102", "San Diego, CA 92131"]}, "phone": "+18588605007", "display_phone": "(858) 860-5007", "distance": 21361.019689738558}, {"id": "5OTTzfZdp5ld_L5xCN3RAQ", "alias": "cucina-amore-san-marcos-5", "name": "Cucina Amore", "image_url": "https://s3-media2.fl.yelpcdn.com/bphoto/abc7nXpH2KyWcTIO6lnvmg/o.jpg", "is_closed": false, "url": "https://www.yelp.com/biz/cucina-amore-san-marcos-5?adjust_creative=oncXGL2aPIKrtJdnWeFSnA&utm_campaign=yelp_api_v3&utm_medium=api_v3_business_search&utm_source=oncXGL2aPIKrtJdnWeFSnA", "review_count": 245, "categories": [{"alias": "italian", "title": "Italian"}, {"alias": "gelato", "title": "Gelato"}, {"alias": "pizza", "title": "Pizza"}], "rating": 4.0, "coordinates": {"latitude": 33.1318662450634, "longitude": -117.205854914526}, "transactions": ["delivery", "pickup"], "price": "$$", "location": {"address1": "679 S Rancho Santa Fe Rd", "address2": "", "address3": "", "city": "San Marcos", "zip_code": "92078", "country": "US", "state": "CA", "display_address": ["679 S Rancho Santa Fe Rd", "San Marcos, CA 92078"]}, "phone": "+17603046939", "display_phone": "(760) 304-6939", "distance": 10673.891784191073}, {"id": "TLHo4G8AlLYZe7NWIxbwoA", "alias": "brothers-provisions-san-diego", "name": "Brothers Provisions", "image_url": "https://s3-media2.fl.yelpcdn.com/bphoto/g6sFPSpMoLJcvoCxqNEBhg/o.jpg", "is_closed": false, "url": "https://www.yelp.com/biz/brothers-provisions-san-diego?adjust_creative=oncXGL2aPIKrtJdnWeFSnA&utm_campaign=yelp_api_v3&utm_medium=api_v3_business_search&utm_source=oncXGL2aPIKrtJdnWeFSnA", "review_count": 545, "categories": [{"alias": "sandwiches", "title": "Sandwiches"}, {"alias": "wine_bars", "title": "Wine Bars"}, {"alias": "pizza", "title": "Pizza"}], "rating": 4.0, "coordinates": {"latitude": 33.0126977, "longitude": -117.0780015}, "transactions": [], "price": "$$", "location": {"address1": "16451 Bernardo Center Dr", "address2": "", "address3": "", "city": "San Diego", "zip_code": "92127", "country": "US", "state": "CA", "display_address": ["16451 Bernardo Center Dr", "San Diego, CA 92127"]}, "phone": "+18558502767", "display_phone": "(855) 850-2767", "distance": 16823.838828770575}, {"id": "FRQ6rb-uvF5CGO_KhNXt0A", "alias": "flippin-pizza-la-costa", "name": "Flippin' Pizza", "image_url": "https://s3-media2.fl.yelpcdn.com/bphoto/4l7W4UG2XcxuxhA8WUy1DQ/o.jpg", "is_closed": false, "url": "https://www.yelp.com/biz/flippin-pizza-la-costa?adjust_creative=oncXGL2aPIKrtJdnWeFSnA&utm_campaign=yelp_api_v3&utm_medium=api_v3_business_search&utm_source=oncXGL2aPIKrtJdnWeFSnA", "review_count": 179, "categories": [{"alias": "pizza", "title": "Pizza"}], "rating": 3.5, "coordinates": {"latitude": 33.0858811396586, "longitude": -117.266553096787}, "transactions": ["delivery"], "price": "$", "location": {"address1": "7662 El Camino Real", "address2": "", "address3": "", "city": "La Costa", "zip_code": "92009", "country": "US", "state": "CA", "display_address": ["7662 El Camino Real", "La Costa, CA 92009"]}, "phone": "+17604367499", "display_phone": "(760) 436-7499", "distance": 4698.0954189203485}, {"id": "rhVaTqNvOWjZfXlM_siHRg", "alias": "sublime-alehouse-san-marcos", "name": "Sublime AleHouse", "image_url": "https://s3-media1.fl.yelpcdn.com/bphoto/dzJzsNB_Fp2wcoKr-rIazw/o.jpg", "is_closed": false, "url": "https://www.yelp.com/biz/sublime-alehouse-san-marcos?adjust_creative=oncXGL2aPIKrtJdnWeFSnA&utm_campaign=yelp_api_v3&utm_medium=api_v3_business_search&utm_source=oncXGL2aPIKrtJdnWeFSnA", "review_count": 1087, "categories": [{"alias": "pizza", "title": "Pizza"}, {"alias": "burgers", "title": "Burgers"}, {"alias": "bars", "title": "Bars"}], "rating": 4.0, "coordinates": {"latitude": 33.1343623, "longitude": -117.1901704}, "transactions": ["delivery", "pickup"], "price": "$$", "location": {"address1": "1020 W San Marcos Blvd", "address2": "", "address3": "", "city": "San Marcos", "zip_code": "92078", "country": "US", "state": "CA", "display_address": ["1020 W San Marcos Blvd", "San Marcos, CA 92078"]}, "phone": "+17605109220", "display_phone": "(760) 510-9220", "distance": 11606.477227883639}, {"id": "tUMvfEBvvXjOxiQC2XCsYw", "alias": "urbn-vista", "name": "URBN", "image_url": "https://s3-media3.fl.yelpcdn.com/bphoto/GdWL7mWTKOYPLYkIgYVdDQ/o.jpg", "is_closed": false, "url": "https://www.yelp.com/biz/urbn-vista?adjust_creative=oncXGL2aPIKrtJdnWeFSnA&utm_campaign=yelp_api_v3&utm_medium=api_v3_business_search&utm_source=oncXGL2aPIKrtJdnWeFSnA", "review_count": 791, "categories": [{"alias": "pizza", "title": "Pizza"}], "rating": 4.0, "coordinates": {"latitude": 33.202535, "longitude": -117.242428}, "transactions": ["delivery", "pickup"], "price": "$$", "location": {"address1": "203 Main St", "address2": "", "address3": "", "city": "Vista", "zip_code": "92084", "country": "US", "state": "CA", "display_address": ["203 Main St", "Vista, CA 92084"]}, "phone": "+17607248840", "display_phone": "(760) 724-8840", "distance": 17564.33954870617}, {"id": "EUWF4__8fj7VUWq9c19OoA", "alias": "pizza-on-tap-vista", "name": "Pizza On Tap", "image_url": "https://s3-media4.fl.yelpcdn.com/bphoto/ZUeijKmujSPFlluSTFwmMQ/o.jpg", "is_closed": false, "url": "https://www.yelp.com/biz/pizza-on-tap-vista?adjust_creative=oncXGL2aPIKrtJdnWeFSnA&utm_campaign=yelp_api_v3&utm_medium=api_v3_business_search&utm_source=oncXGL2aPIKrtJdnWeFSnA", "review_count": 216, "categories": [{"alias": "pizza", "title": "Pizza"}, {"alias": "salad", "title": "Salad"}, {"alias": "sportsbars", "title": "Sports Bars"}], "rating": 4.5, "coordinates": {"latitude": 33.1887288, "longitude": -117.2802999}, "transactions": ["delivery", "pickup"], "price": "$", "location": {"address1": "1825 W Vista Way", "address2": "", "address3": "", "city": "Vista", "zip_code": "92083", "country": "US", "state": "CA", "display_address": ["1825 W Vista Way", "Vista, CA 92083"]}, "phone": "+17606304105", "display_phone": "(760) 630-4105", "distance": 16267.187497292198}], "total": 238, "region": {"center": {"longitude": -117.25433349609375, "latitude": 33.04488992556048}}}