{"businesses": [{"id": "SciTFfN0WQ-iXxsbwYnlMA", "alias": "taste-of-denmark-san-diego", "name": "Taste Of Denmark", "image_url": "https://s3-media2.fl.yelpcdn.com/bphoto/GR9CBqB97kL3posgw9Zb1w/o.jpg", "is_closed": false, "url": "https://www.yelp.com/biz/taste-of-denmark-san-diego?adjust_creative=oncXGL2aPIKrtJdnWeFSnA&utm_campaign=yelp_api_v3&utm_medium=api_v3_business_search&utm_source=oncXGL2aPIKrtJdnWeFSnA", "review_count": 35, "categories": [{"alias": "scandinavian", "title": "Scandinavian"}, {"alias": "cafes", "title": "Cafes"}], "rating": 5.0, "coordinates": {"latitude": 32.74841, "longitude": -117.16308}, "transactions": [], "location": {"address1": "142 University Ave", "address2": "", "address3": null, "city": "San Diego", "zip_code": "92103", "country": "US", "state": "CA", "display_address": ["142 University Ave", "San Diego, CA 92103"]}, "phone": "+16192093636", "display_phone": "(619) 209-3636", "distance": 34046.07206446363}, {"id": "LoepJ26KHh6n895jueBWww", "alias": "ikea-restaurant-san-diego", "name": "IKEA Restaurant", "image_url": "https://s3-media4.fl.yelpcdn.com/bphoto/KKUlg9ggBJ1R30ju2Td2lA/o.jpg", "is_closed": false, "url": "https://www.yelp.com/biz/ikea-restaurant-san-diego?adjust_creative=oncXGL2aPIKrtJdnWeFSnA&utm_campaign=yelp_api_v3&utm_medium=api_v3_business_search&utm_source=oncXGL2aPIKrtJdnWeFSnA", "review_count": 251, "categories": [{"alias": "diners", "title": "Diners"}, {"alias": "scandinavian", "title": "Scandinavian"}], "rating": 3.5, "coordinates": {"latitude": 32.7804405394614, "longitude": -117.126286414818}, "transactions": [], "price": "$", "location": {"address1": "2149 Fenton Pkwy", "address2": "", "address3": "", "city": "San Diego", "zip_code": "92108", "country": "US", "state": "CA", "display_address": ["2149 Fenton Pkwy", "San Diego, CA 92108"]}, "phone": "+18888884532", "display_phone": "(888) 888-4532", "distance": 31741.921776088482}, {"id": "d1dFdY2Fs4WMIMiyR1v2fQ", "alias": "ikea-restaurant-costa-mesa", "name": "IKEA Restaurant", "image_url": "https://s3-media2.fl.yelpcdn.com/bphoto/VyZE8MHkpmqg-nSSi0O6iA/o.jpg", "is_closed": false, "url": "https://www.yelp.com/biz/ikea-restaurant-costa-mesa?adjust_creative=oncXGL2aPIKrtJdnWeFSnA&utm_campaign=yelp_api_v3&utm_medium=api_v3_business_search&utm_source=oncXGL2aPIKrtJdnWeFSnA", "review_count": 385, "categories": [{"alias": "scandinavian", "title": "Scandinavian"}, {"alias": "tradamerican", "title": "American (Traditional)"}], "rating": 3.5, "coordinates": {"latitude": 33.6908818, "longitude": -117.9164273}, "transactions": [], "price": "$", "location": {"address1": "1475 S Coast Dr", "address2": "", "address3": "", "city": "Costa Mesa", "zip_code": "92626", "country": "US", "state": "CA", "display_address": ["1475 S Coast Dr", "Costa Mesa, CA 92626"]}, "phone": "+18888884532", "display_phone": "(888) 888-4532", "distance": 94551.72775021238}], "total": 3, "region": {"center": {"longitude": -117.25433349609375, "latitude": 33.04488992556048}}}