{"businesses": [{"id": "PWdxcU5rjBIunreW8NKU2Q", "alias": "costa-brava-san-diego", "name": "Costa Brava", "image_url": "https://s3-media2.fl.yelpcdn.com/bphoto/6VXw6QIi-SVn4p4kEubr7A/o.jpg", "is_closed": false, "url": "https://www.yelp.com/biz/costa-brava-san-diego?adjust_creative=oncXGL2aPIKrtJdnWeFSnA&utm_campaign=yelp_api_v3&utm_medium=api_v3_business_search&utm_source=oncXGL2aPIKrtJdnWeFSnA", "review_count": 1476, "categories": [{"alias": "tapas", "title": "Tapas Bars"}, {"alias": "spanish", "title": "Spanish"}, {"alias": "basque", "title": "Basque"}], "rating": 4.5, "coordinates": {"latitude": 32.79978, "longitude": -117.23957}, "transactions": ["delivery", "restaurant_reservation"], "price": "$$", "location": {"address1": "1653 Garnet Ave", "address2": "", "address3": "", "city": "San Diego", "zip_code": "92109", "country": "US", "state": "CA", "display_address": ["1653 Garnet Ave", "San Diego, CA 92109"]}, "phone": "+18582731218", "display_phone": "(858) 273-1218", "distance": 27277.91637247247}, {"id": "7g8CKU-UqEJ4bnIH2G5HCQ", "alias": "cafe-sevilla-san-diego", "name": "Cafe Sevilla", "image_url": "https://s3-media2.fl.yelpcdn.com/bphoto/NRswkgB-Ql7hXHCDBPejHw/o.jpg", "is_closed": false, "url": "https://www.yelp.com/biz/cafe-sevilla-san-diego?adjust_creative=oncXGL2aPIKrtJdnWeFSnA&utm_campaign=yelp_api_v3&utm_medium=api_v3_business_search&utm_source=oncXGL2aPIKrtJdnWeFSnA", "review_count": 2682, "categories": [{"alias": "spanish", "title": "Spanish"}, {"alias": "latin", "title": "Latin American"}, {"alias": "tapasmallplates", "title": "Tapas/Small Plates"}], "rating": 4.0, "coordinates": {"latitude": 32.708977, "longitude": -117.159964}, "transactions": ["pickup", "delivery", "restaurant_reservation"], "price": "$$", "location": {"address1": "353 5th Ave", "address2": "", "address3": "", "city": "San Diego", "zip_code": "92101", "country": "US", "state": "CA", "display_address": ["353 5th Ave", "San Diego, CA 92101"]}, "phone": "+16192335979", "display_phone": "(619) 233-5979", "distance": 38377.324848015305}, {"id": "3xkTa59IzkTTAkvAg2hZ8w", "alias": "bar-bodega-san-diego", "name": "Bar Bodega", "image_url": "https://s3-media1.fl.yelpcdn.com/bphoto/8J0nX5QBKgLtA_kJkTYnLQ/o.jpg", "is_closed": false, "url": "https://www.yelp.com/biz/bar-bodega-san-diego?adjust_creative=oncXGL2aPIKrtJdnWeFSnA&utm_campaign=yelp_api_v3&utm_medium=api_v3_business_search&utm_source=oncXGL2aPIKrtJdnWeFSnA", "review_count": 213, "categories": [{"alias": "tapasmallplates", "title": "Tapas/Small Plates"}, {"alias": "wine_bars", "title": "Wine Bars"}, {"alias": "spanish", "title": "Spanish"}], "rating": 4.5, "coordinates": {"latitude": 32.72452, "longitude": -117.17001}, "transactions": ["restaurant_reservation"], "price": "$$", "location": {"address1": "1980 Kettner Blvd", "address2": null, "address3": "", "city": "San Diego", "zip_code": "92101", "country": "US", "state": "CA", "display_address": ["1980 Kettner Blvd", "San Diego, CA 92101"]}, "phone": "+16195440500", "display_phone": "(619) 544-0500", "distance": 36460.04138315915}, {"id": "1RQ-WJwH4SfKu8xtEaZqpw", "alias": "matador-paella-san-diego-2", "name": "Matador Paella", "image_url": "https://s3-media4.fl.yelpcdn.com/bphoto/USRIePYpLjnQ2rmFTOZgMg/o.jpg", "is_closed": false, "url": "https://www.yelp.com/biz/matador-paella-san-diego-2?adjust_creative=oncXGL2aPIKrtJdnWeFSnA&utm_campaign=yelp_api_v3&utm_medium=api_v3_business_search&utm_source=oncXGL2aPIKrtJdnWeFSnA", "review_count": 13, "categories": [{"alias": "catering", "title": "Caterers"}, {"alias": "tapas", "title": "Tapas Bars"}, {"alias": "spanish", "title": "Spanish"}], "rating": 5.0, "coordinates": {"latitude": 32.76155, "longitude": -117.12589}, "transactions": [], "location": {"address1": null, "address2": null, "address3": "", "city": "San Diego", "zip_code": "92116", "country": "US", "state": "CA", "display_address": ["San Diego, CA 92116"]}, "phone": "+16195647537", "display_phone": "(619) 564-7537", "distance": 33130.21663781025}, {"id": "ufTlWnzrWSqdsy5c5RE5TQ", "alias": "chez-loma-coronado", "name": "Chez Loma", "image_url": "https://s3-media3.fl.yelpcdn.com/bphoto/aTLZVV8BDrdAZXpasGRykQ/o.jpg", "is_closed": false, "url": "https://www.yelp.com/biz/chez-loma-coronado?adjust_creative=oncXGL2aPIKrtJdnWeFSnA&utm_campaign=yelp_api_v3&utm_medium=api_v3_business_search&utm_source=oncXGL2aPIKrtJdnWeFSnA", "review_count": 321, "categories": [{"alias": "french", "title": "French"}, {"alias": "spanish", "title": "Spanish"}], "rating": 4.0, "coordinates": {"latitude": 32.6835610160565, "longitude": -117.179253101349}, "transactions": [], "price": "$$$", "location": {"address1": "1132 Loma Ave", "address2": "", "address3": "", "city": "Coronado", "zip_code": "92118", "country": "US", "state": "CA", "display_address": ["1132 Loma Ave", "Coronado, CA 92118"]}, "phone": "+16194350661", "display_phone": "(619) 435-0661", "distance": 40785.258736068026}, {"id": "Z4eYmbJjF5QD8zGj3xMQTA", "alias": "pata-negra-market-san-diego", "name": "Pata Negra Market", "image_url": "https://s3-media2.fl.yelpcdn.com/bphoto/xA8pvASkFh6B0aFW3B8cSw/o.jpg", "is_closed": false, "url": "https://www.yelp.com/biz/pata-negra-market-san-diego?adjust_creative=oncXGL2aPIKrtJdnWeFSnA&utm_campaign=yelp_api_v3&utm_medium=api_v3_business_search&utm_source=oncXGL2aPIKrtJdnWeFSnA", "review_count": 43, "categories": [{"alias": "gourmet", "title": "Specialty Food"}, {"alias": "spanish", "title": "Spanish"}, {"alias": "basque", "title": "Basque"}], "rating": 4.5, "coordinates": {"latitude": 32.8000192344189, "longitude": -117.239512950182}, "transactions": [], "price": "$$", "location": {"address1": "1657 Garnet Ave", "address2": "", "address3": "", "city": "San Diego", "zip_code": "92109", "country": "US", "state": "CA", "display_address": ["1657 Garnet Ave", "San Diego, CA 92109"]}, "phone": "+18582747282", "display_phone": "(858) 274-7282", "distance": 27269.171484059574}, {"id": "z8LW3YrwyEZfpUhWE3Yg2g", "alias": "sunset-by-the-park-chula-vista", "name": "Sunset By the Park", "image_url": "https://s3-media2.fl.yelpcdn.com/bphoto/OyDIxLY-OOU-JySlSNeCOQ/o.jpg", "is_closed": false, "url": "https://www.yelp.com/biz/sunset-by-the-park-chula-vista?adjust_creative=oncXGL2aPIKrtJdnWeFSnA&utm_campaign=yelp_api_v3&utm_medium=api_v3_business_search&utm_source=oncXGL2aPIKrtJdnWeFSnA", "review_count": 63, "categories": [{"alias": "breakfast_brunch", "title": "Breakfast & Brunch"}, {"alias": "spanish", "title": "Spanish"}, {"alias": "newamerican", "title": "American (New)"}], "rating": 3.5, "coordinates": {"latitude": 32.6402260944237, "longitude": -117.079113163054}, "transactions": [], "price": "$", "location": {"address1": "333 3rd Ave Chula Vista", "address2": "", "address3": "", "city": "Chula Vista", "zip_code": "91910", "country": "US", "state": "CA", "display_address": ["333 3rd Ave Chula Vista", "Chula Vista, CA 91910"]}, "phone": "+16195850485", "display_phone": "(619) 585-0485", "distance": 47881.53540820029}, {"id": "YLmnM4GNumviqklTPiwMdg", "alias": "roble-de-ra\u00edz-a-la-mesa-rosarito", "name": "Roble de Ra\u00edz a la Mesa", "image_url": "https://s3-media1.fl.yelpcdn.com/bphoto/Tk7z8EkSuS_DDbsX7tCXaQ/o.jpg", "is_closed": false, "url": "https://www.yelp.com/biz/roble-de-ra%C3%ADz-a-la-mesa-rosarito?adjust_creative=oncXGL2aPIKrtJdnWeFSnA&utm_campaign=yelp_api_v3&utm_medium=api_v3_business_search&utm_source=oncXGL2aPIKrtJdnWeFSnA", "review_count": 23, "categories": [{"alias": "spanish", "title": "Spanish"}], "rating": 4.5, "coordinates": {"latitude": 32.36113, "longitude": -117.05918}, "transactions": [], "price": "$$", "location": {"address1": "Bvld. Benito Ju\u00e1rez 748", "address2": "Fracc Hda Floresta del Mar", "address3": null, "city": "Rosarito", "zip_code": "22703", "country": "MX", "state": "BCN", "display_address": ["Bvld. Benito Ju\u00e1rez 748", "Fracc Hda Floresta del Mar", "22703 Rosarito, Baja California", "Mexico"]}, "phone": "+526611002246", "display_phone": "+52 661 100 2246", "distance": 78192.52567428548}, {"id": "AGb_DZf7m6VTn34McbXVeg", "alias": "el-arte-en-paella-tijuana", "name": "El Arte en Paella", "image_url": "", "is_closed": false, "url": "https://www.yelp.com/biz/el-arte-en-paella-tijuana?adjust_creative=oncXGL2aPIKrtJdnWeFSnA&utm_campaign=yelp_api_v3&utm_medium=api_v3_business_search&utm_source=oncXGL2aPIKrtJdnWeFSnA", "review_count": 2, "categories": [{"alias": "spanish", "title": "Spanish"}], "rating": 5.0, "coordinates": {"latitude": 32.523318, "longitude": -117.026023}, "transactions": [], "location": {"address1": "Blvd. Agua Caliente S/N", "address2": "", "address3": null, "city": "Tijuana", "zip_code": "22000", "country": "MX", "state": "BCN", "display_address": ["Blvd. Agua Caliente S/N", "22000 Tijuana, Baja California", "Mexico"]}, "phone": "+526646340011", "display_phone": "+52 664 634 0011", "distance": 61798.643821221674}, {"id": "LZYrJQu2tcEjt84osAPctg", "alias": "lorca-tijuana", "name": "Lorca", "image_url": "https://s3-media4.fl.yelpcdn.com/bphoto/5h4El2-jErSrCr1MJZd21w/o.jpg", "is_closed": false, "url": "https://www.yelp.com/biz/lorca-tijuana?adjust_creative=oncXGL2aPIKrtJdnWeFSnA&utm_campaign=yelp_api_v3&utm_medium=api_v3_business_search&utm_source=oncXGL2aPIKrtJdnWeFSnA", "review_count": 19, "categories": [{"alias": "mediterranean", "title": "Mediterranean"}, {"alias": "spanish", "title": "Spanish"}], "rating": 4.0, "coordinates": {"latitude": 32.52166, "longitude": -117.030019}, "transactions": [], "price": "$$$", "location": {"address1": "Brasil 8630", "address2": "Col. Cacho", "address3": "", "city": "Tijuana", "zip_code": "22040", "country": "MX", "state": "BCN", "display_address": ["Brasil 8630", "Col. Cacho", "22040 Tijuana, Baja California", "Mexico"]}, "phone": "+526646340366", "display_phone": "+52 664 634 0366", "distance": 61844.10096865473}, {"id": "5MkpW-dXYDEPJ2IOA1Tzrw", "alias": "tapas-restaurant-and-nightclub-mission-viejo", "name": "Tapas Restaurant and Nightclub", "image_url": "https://s3-media4.fl.yelpcdn.com/bphoto/w3VluXOI7xOPxOkQ_Aa-Aw/o.jpg", "is_closed": false, "url": "https://www.yelp.com/biz/tapas-restaurant-and-nightclub-mission-viejo?adjust_creative=oncXGL2aPIKrtJdnWeFSnA&utm_campaign=yelp_api_v3&utm_medium=api_v3_business_search&utm_source=oncXGL2aPIKrtJdnWeFSnA", "review_count": 119, "categories": [{"alias": "spanish", "title": "Spanish"}, {"alias": "tapas", "title": "Tapas Bars"}], "rating": 3.5, "coordinates": {"latitude": 33.56098, "longitude": -117.67143}, "transactions": ["restaurant_reservation"], "price": "$$", "location": {"address1": "27741 Crown Valley Pkwy", "address2": "Ste 221", "address3": null, "city": "Mission Viejo", "zip_code": "92691", "country": "US", "state": "CA", "display_address": ["27741 Crown Valley Pkwy", "Ste 221", "Mission Viejo, CA 92691"]}, "phone": "+19493670373", "display_phone": "(949) 367-0373", "distance": 69281.87737137933}, {"id": "dgWGOThHpxvKxgqLEwDfTw", "alias": "tapas-and-beer-rancho-santa-margarita", "name": "Tapas & Beer", "image_url": "https://s3-media3.fl.yelpcdn.com/bphoto/4yKHnMAjqvUSgKElakOLHA/o.jpg", "is_closed": false, "url": "https://www.yelp.com/biz/tapas-and-beer-rancho-santa-margarita?adjust_creative=oncXGL2aPIKrtJdnWeFSnA&utm_campaign=yelp_api_v3&utm_medium=api_v3_business_search&utm_source=oncXGL2aPIKrtJdnWeFSnA", "review_count": 277, "categories": [{"alias": "sportsbars", "title": "Sports Bars"}, {"alias": "tapas", "title": "Tapas Bars"}, {"alias": "spanish", "title": "Spanish"}], "rating": 4.0, "coordinates": {"latitude": 33.63885, "longitude": -117.59366}, "transactions": [], "price": "$$", "location": {"address1": "22307 El Paseo", "address2": "Ste C", "address3": "", "city": "Rancho Santa Margarita", "zip_code": "92688", "country": "US", "state": "CA", "display_address": ["22307 El Paseo", "Ste C", "Rancho Santa Margarita, CA 92688"]}, "phone": "+19498881896", "display_phone": "(949) 888-1896", "distance": 73145.17486427829}, {"id": "Gv5Nxyz5kXzoRJv2kqLrqg", "alias": "restaurante-chiki-jai-tijuana", "name": "Restaurante Chiki Jai", "image_url": "https://s3-media2.fl.yelpcdn.com/bphoto/ONQJTTtjvAKO5qvOiQhEjw/o.jpg", "is_closed": false, "url": "https://www.yelp.com/biz/restaurante-chiki-jai-tijuana?adjust_creative=oncXGL2aPIKrtJdnWeFSnA&utm_campaign=yelp_api_v3&utm_medium=api_v3_business_search&utm_source=oncXGL2aPIKrtJdnWeFSnA", "review_count": 10, "categories": [{"alias": "spanish", "title": "Spanish"}], "rating": 4.5, "coordinates": {"latitude": 32.5297318, "longitude": -117.0362167}, "transactions": [], "location": {"address1": "Calle Revoluci\u00f3n1388", "address2": "", "address3": "", "city": "Tijuana", "zip_code": "22000", "country": "MX", "state": "BCN", "display_address": ["Calle Revoluci\u00f3n1388", "22000 Tijuana, Baja California", "Mexico"]}, "phone": "+526646854955", "display_phone": "+52 664 685 4955", "distance": 60807.26326794215}, {"id": "g2sBNGu3LFBA0l5pRXHGyg", "alias": "asador-pamplona-tijuana", "name": "Asador Pamplona", "image_url": "https://s3-media2.fl.yelpcdn.com/bphoto/l09rLqRpCnm60zEjfo3sqA/o.jpg", "is_closed": false, "url": "https://www.yelp.com/biz/asador-pamplona-tijuana?adjust_creative=oncXGL2aPIKrtJdnWeFSnA&utm_campaign=yelp_api_v3&utm_medium=api_v3_business_search&utm_source=oncXGL2aPIKrtJdnWeFSnA", "review_count": 5, "categories": [{"alias": "spanish", "title": "Spanish"}], "rating": 4.5, "coordinates": {"latitude": 32.5240578176034, "longitude": -117.02335156287}, "transactions": [], "price": "$$", "location": {"address1": "Av. R\u00edo Suchiate 9430", "address2": "Colonia Marr\u00f3n", "address3": "", "city": "Tijuana", "zip_code": "22010", "country": "MX", "state": "BCN", "display_address": ["Av. R\u00edo Suchiate 9430", "Colonia Marr\u00f3n", "22010 Tijuana, Baja California", "Mexico"]}, "phone": "+526646818888", "display_phone": "+52 664 681 8888", "distance": 61808.21800784736}, {"id": "MVCoHT2y9q4NrC-qzG-1bg", "alias": "casa-plasencia-tijuana-2", "name": "Casa Plasencia", "image_url": "https://s3-media1.fl.yelpcdn.com/bphoto/Y3FPBgQWDC09bAfcx2V_1w/o.jpg", "is_closed": false, "url": "https://www.yelp.com/biz/casa-plasencia-tijuana-2?adjust_creative=oncXGL2aPIKrtJdnWeFSnA&utm_campaign=yelp_api_v3&utm_medium=api_v3_business_search&utm_source=oncXGL2aPIKrtJdnWeFSnA", "review_count": 4, "categories": [{"alias": "mediterranean", "title": "Mediterranean"}, {"alias": "spanish", "title": "Spanish"}, {"alias": "tapasmallplates", "title": "Tapas/Small Plates"}], "rating": 4.5, "coordinates": {"latitude": 32.5136766634997, "longitude": -117.007234606229}, "transactions": [], "price": "$$", "location": {"address1": "Robirosa 250", "address2": "Col. Aviacion", "address3": null, "city": "Tijuana", "zip_code": "22014", "country": "MX", "state": "BCN", "display_address": ["Robirosa 250", "Col. Aviacion", "22014 Tijuana, Baja California", "Mexico"]}, "phone": "+526646863604", "display_phone": "+52 664 686 3604", "distance": 63424.67028929959}, {"id": "SUkExQtMa2UkWrzhesbr8g", "alias": "pintxos-san-diego-2", "name": "Pintxos", "image_url": "https://s3-media1.fl.yelpcdn.com/bphoto/wUyxfdziHjG1VdC7VAYkvQ/o.jpg", "is_closed": false, "url": "https://www.yelp.com/biz/pintxos-san-diego-2?adjust_creative=oncXGL2aPIKrtJdnWeFSnA&utm_campaign=yelp_api_v3&utm_medium=api_v3_business_search&utm_source=oncXGL2aPIKrtJdnWeFSnA", "review_count": 2, "categories": [{"alias": "foodstands", "title": "Food Stands"}, {"alias": "spanish", "title": "Spanish"}, {"alias": "tapasmallplates", "title": "Tapas/Small Plates"}], "rating": 5.0, "coordinates": {"latitude": 32.71568, "longitude": -117.16171}, "transactions": [], "location": {"address1": "", "address2": "", "address3": "", "city": "San Diego", "zip_code": "22434", "country": "US", "state": "CA", "display_address": ["San Diego, CA 22434"]}, "phone": "+18337468967", "display_phone": "(833) 746-8967", "distance": 63005.39199650841}, {"id": "AUB3z7tV01RFpgBdwL_KaA", "alias": "paellas-to\u00f1ico-tijuana-2", "name": "Paellas To\u00f1ico", "image_url": "https://s3-media3.fl.yelpcdn.com/bphoto/SoHVVkWnBvovZFdh48T7gA/o.jpg", "is_closed": false, "url": "https://www.yelp.com/biz/paellas-to%C3%B1ico-tijuana-2?adjust_creative=oncXGL2aPIKrtJdnWeFSnA&utm_campaign=yelp_api_v3&utm_medium=api_v3_business_search&utm_source=oncXGL2aPIKrtJdnWeFSnA", "review_count": 12, "categories": [{"alias": "spanish", "title": "Spanish"}], "rating": 4.0, "coordinates": {"latitude": 32.521146, "longitude": -117.02416}, "transactions": [], "price": "$$", "location": {"address1": "Av. Jalisco 2433", "address2": null, "address3": null, "city": "Tijuana", "zip_code": "22044", "country": "MX", "state": "BCN", "display_address": ["Av. Jalisco 2433", "22044 Tijuana, Baja California", "Mexico"]}, "phone": "+526646840941", "display_phone": "+52 664 684 0941", "distance": 62085.58831649445}, {"id": "GXLnAgMbTor4iyroZvwnJg", "alias": "la-paella-de-alicia-tijuana", "name": "La Paella de Alicia", "image_url": "https://s3-media4.fl.yelpcdn.com/bphoto/bFIG078ngj5Mp9ErcEnXtA/o.jpg", "is_closed": false, "url": "https://www.yelp.com/biz/la-paella-de-alicia-tijuana?adjust_creative=oncXGL2aPIKrtJdnWeFSnA&utm_campaign=yelp_api_v3&utm_medium=api_v3_business_search&utm_source=oncXGL2aPIKrtJdnWeFSnA", "review_count": 7, "categories": [{"alias": "spanish", "title": "Spanish"}, {"alias": "tapasmallplates", "title": "Tapas/Small Plates"}], "rating": 4.0, "coordinates": {"latitude": 32.4981071, "longitude": -116.9876625}, "transactions": [], "price": "$$", "location": {"address1": "Av. Las Ferias 12713", "address2": "Col. Fraccionamiento Lomas Hip\u00f3dromo 2", "address3": "", "city": "Tijuana", "zip_code": "22080", "country": "MX", "state": "BCN", "display_address": ["Av. Las Ferias 12713", "Col. Fraccionamiento Lomas Hip\u00f3dromo 2", "22080 Tijuana, Baja California", "Mexico"]}, "phone": "+526646810019", "display_phone": "+52 664 681 0019", "distance": 65713.03634862421}, {"id": "asp1GD_M3CBLzeVEEAYY9A", "alias": "casa-franco-mission-viejo", "name": "Casa Franco", "image_url": "https://s3-media1.fl.yelpcdn.com/bphoto/7rFqRmOJXkNSQ2HybAhbxw/o.jpg", "is_closed": false, "url": "https://www.yelp.com/biz/casa-franco-mission-viejo?adjust_creative=oncXGL2aPIKrtJdnWeFSnA&utm_campaign=yelp_api_v3&utm_medium=api_v3_business_search&utm_source=oncXGL2aPIKrtJdnWeFSnA", "review_count": 210, "categories": [{"alias": "mexican", "title": "Mexican"}, {"alias": "spanish", "title": "Spanish"}], "rating": 4.0, "coordinates": {"latitude": 33.60783, "longitude": -117.69003}, "transactions": [], "price": "$$", "location": {"address1": "24395 Alicia Pkwy", "address2": "Ste E3", "address3": "", "city": "Mission Viejo", "zip_code": "92691", "country": "US", "state": "CA", "display_address": ["24395 Alicia Pkwy", "Ste E3", "Mission Viejo, CA 92691"]}, "phone": "+19493809693", "display_phone": "(949) 380-9693", "distance": 74546.7983695606}, {"id": "PyKG6pFmG64vg1tM42zq_A", "alias": "pan-y-vino-newport-beach-2", "name": "Pan y Vino", "image_url": "https://s3-media2.fl.yelpcdn.com/bphoto/DWO1vjdwNntPzHDhtzcBOw/o.jpg", "is_closed": false, "url": "https://www.yelp.com/biz/pan-y-vino-newport-beach-2?adjust_creative=oncXGL2aPIKrtJdnWeFSnA&utm_campaign=yelp_api_v3&utm_medium=api_v3_business_search&utm_source=oncXGL2aPIKrtJdnWeFSnA", "review_count": 40, "categories": [{"alias": "tapas", "title": "Tapas Bars"}, {"alias": "spanish", "title": "Spanish"}, {"alias": "catalan", "title": "Catalan"}], "rating": 4.5, "coordinates": {"latitude": 33.6022744, "longitude": -117.8998725}, "transactions": ["delivery", "pickup"], "price": "$$", "location": {"address1": "704 E Balboa Blvd", "address2": null, "address3": "", "city": "Newport Beach", "zip_code": "92661", "country": "US", "state": "CA", "display_address": ["704 E Balboa Blvd", "Newport Beach, CA 92661"]}, "phone": "+19498735870", "display_phone": "(949) 873-5870", "distance": 86250.81709104356}, {"id": "ZwkABJ3bpYwirX_WPUSpGQ", "alias": "vaca-costa-mesa", "name": "Vaca", "image_url": "https://s3-media3.fl.yelpcdn.com/bphoto/Zac8wo7QxtY2fGF_seb0EQ/o.jpg", "is_closed": false, "url": "https://www.yelp.com/biz/vaca-costa-mesa?adjust_creative=oncXGL2aPIKrtJdnWeFSnA&utm_campaign=yelp_api_v3&utm_medium=api_v3_business_search&utm_source=oncXGL2aPIKrtJdnWeFSnA", "review_count": 938, "categories": [{"alias": "tapasmallplates", "title": "Tapas/Small Plates"}, {"alias": "spanish", "title": "Spanish"}, {"alias": "steak", "title": "Steakhouses"}], "rating": 4.0, "coordinates": {"latitude": 33.6920504459841, "longitude": -117.884018211482}, "transactions": [], "price": "$$$", "location": {"address1": "695 Town Center Dr", "address2": "Ste 170", "address3": "", "city": "Costa Mesa", "zip_code": "92626", "country": "US", "state": "CA", "display_address": ["695 Town Center Dr", "Ste 170", "Costa Mesa, CA 92626"]}, "phone": "+17144636060", "display_phone": "(714) 463-6060", "distance": 92723.43886852304}, {"id": "GJIfeA5DrCa9jX5gprWhzw", "alias": "barcelona-onthego-costa-mesa", "name": "Barcelona OntheGo", "image_url": "https://s3-media4.fl.yelpcdn.com/bphoto/DI7y50C8QVqrNEAfOCfxqg/o.jpg", "is_closed": false, "url": "https://www.yelp.com/biz/barcelona-onthego-costa-mesa?adjust_creative=oncXGL2aPIKrtJdnWeFSnA&utm_campaign=yelp_api_v3&utm_medium=api_v3_business_search&utm_source=oncXGL2aPIKrtJdnWeFSnA", "review_count": 322, "categories": [{"alias": "spanish", "title": "Spanish"}, {"alias": "foodtrucks", "title": "Food Trucks"}], "rating": 3.5, "coordinates": {"latitude": 33.663890838623, "longitude": -117.902366638184}, "transactions": [], "price": "$", "location": {"address1": "", "address2": "", "address3": "", "city": "Costa Mesa", "zip_code": "92606", "country": "US", "state": "CA", "display_address": ["Costa Mesa, CA 92606"]}, "phone": "+19499396798", "display_phone": "(949) 939-6798", "distance": 89152.18559307742}, {"id": "1jxj6ooRURCfUTai1ccasg", "alias": "pueblo-costa-mesa-2", "name": "Pueblo", "image_url": "https://s3-media1.fl.yelpcdn.com/bphoto/rGJMul0v_HTH5Jgo84hJUQ/o.jpg", "is_closed": false, "url": "https://www.yelp.com/biz/pueblo-costa-mesa-2?adjust_creative=oncXGL2aPIKrtJdnWeFSnA&utm_campaign=yelp_api_v3&utm_medium=api_v3_business_search&utm_source=oncXGL2aPIKrtJdnWeFSnA", "review_count": 1252, "categories": [{"alias": "tapasmallplates", "title": "Tapas/Small Plates"}, {"alias": "spanish", "title": "Spanish"}, {"alias": "bars", "title": "Bars"}], "rating": 4.5, "coordinates": {"latitude": 33.695166, "longitude": -117.925862}, "transactions": ["restaurant_reservation"], "price": "$$", "location": {"address1": "3321 Hyland Ave", "address2": "Ste D", "address3": "", "city": "Costa Mesa", "zip_code": "92626", "country": "US", "state": "CA", "display_address": ["3321 Hyland Ave", "Ste D", "Costa Mesa, CA 92626"]}, "phone": "+17143405775", "display_phone": "(714) 340-5775", "distance": 95439.21058059011}, {"id": "YJwjdMTUJSlNzArjdEJjwA", "alias": "carnitas-quiroga-de-zaragoza-santa-ana", "name": "Carnitas Quiroga de Zaragoza", "image_url": "https://s3-media4.fl.yelpcdn.com/bphoto/oAZmk4x8hVSgaz0lxRAPdA/o.jpg", "is_closed": false, "url": "https://www.yelp.com/biz/carnitas-quiroga-de-zaragoza-santa-ana?adjust_creative=oncXGL2aPIKrtJdnWeFSnA&utm_campaign=yelp_api_v3&utm_medium=api_v3_business_search&utm_source=oncXGL2aPIKrtJdnWeFSnA", "review_count": 3, "categories": [{"alias": "mexican", "title": "Mexican"}, {"alias": "spanish", "title": "Spanish"}], "rating": 2.5, "coordinates": {"latitude": 33.72639, "longitude": -117.88798}, "transactions": [], "location": {"address1": "1523 S Pacfic Ave", "address2": null, "address3": "", "city": "Santa Ana", "zip_code": "92704", "country": "US", "state": "CA", "display_address": ["1523 S Pacfic Ave", "Santa Ana, CA 92704"]}, "phone": "+17145618846", "display_phone": "(714) 561-8846", "distance": 95935.30246805446}], "total": 24, "region": {"center": {"longitude": -117.25433349609375, "latitude": 33.04488992556048}}}