{"businesses": [{"id": "9N8vtWrudK9jUrPqi5WfRw", "alias": "kai-ola-sushi-encinitas", "name": "Kai Ola Sushi", "image_url": "https://s3-media1.fl.yelpcdn.com/bphoto/hxgb5EDARxlFHPpDUExijw/o.jpg", "is_closed": false, "url": "https://www.yelp.com/biz/kai-ola-sushi-encinitas?adjust_creative=oncXGL2aPIKrtJdnWeFSnA&utm_campaign=yelp_api_v3&utm_medium=api_v3_business_search&utm_source=oncXGL2aPIKrtJdnWeFSnA", "review_count": 148, "categories": [{"alias": "sushi", "title": "Sushi Bars"}, {"alias": "japanese", "title": "Japanese"}, {"alias": "seafood", "title": "Seafood"}], "rating": 4.5, "coordinates": {"latitude": 33.0649017433479, "longitude": -117.302544926373}, "transactions": [], "price": "$$", "location": {"address1": "918 N Coast Hwy", "address2": "", "address3": null, "city": "Encinitas", "zip_code": "92024", "country": "US", "state": "CA", "display_address": ["918 N Coast Hwy", "Encinitas, CA 92024"]}, "phone": "+17604522493", "display_phone": "(760) 452-2493", "distance": 5020.454803654742}, {"id": "d0uC582uvl_vMD6amLwPjw", "alias": "kaito-sushi-encinitas", "name": "Kaito Sushi", "image_url": "https://s3-media1.fl.yelpcdn.com/bphoto/wu-BqRAxP5w1oauho9pjrg/o.jpg", "is_closed": false, "url": "https://www.yelp.com/biz/kaito-sushi-encinitas?adjust_creative=oncXGL2aPIKrtJdnWeFSnA&utm_campaign=yelp_api_v3&utm_medium=api_v3_business_search&utm_source=oncXGL2aPIKrtJdnWeFSnA", "review_count": 491, "categories": [{"alias": "japanese", "title": "Japanese"}, {"alias": "sushi", "title": "Sushi Bars"}], "rating": 4.5, "coordinates": {"latitude": 33.0472144282918, "longitude": -117.25975364457}, "transactions": [], "price": "$$$", "location": {"address1": "130-A N El Camino Real", "address2": "", "address3": "", "city": "Encinitas", "zip_code": "92024", "country": "US", "state": "CA", "display_address": ["130-A N El Camino Real", "Encinitas, CA 92024"]}, "phone": "+17606342746", "display_phone": "(760) 634-2746", "distance": 628.3806794572073}, {"id": "_n8HJHY2tmqu_e7PJB5eVQ", "alias": "hoshi-japanese-steakhouse-and-sushi-encinitas-3", "name": "Hoshi Japanese Steakhouse & Sushi", "image_url": "https://s3-media2.fl.yelpcdn.com/bphoto/qGBChnPMjl3fpk6kD-jQXQ/o.jpg", "is_closed": false, "url": "https://www.yelp.com/biz/hoshi-japanese-steakhouse-and-sushi-encinitas-3?adjust_creative=oncXGL2aPIKrtJdnWeFSnA&utm_campaign=yelp_api_v3&utm_medium=api_v3_business_search&utm_source=oncXGL2aPIKrtJdnWeFSnA", "review_count": 24, "categories": [{"alias": "sushi", "title": "Sushi Bars"}, {"alias": "steak", "title": "Steakhouses"}, {"alias": "teppanyaki", "title": "Teppanyaki"}], "rating": 4.0, "coordinates": {"latitude": 33.0424258, "longitude": -117.2594351}, "transactions": ["delivery", "pickup"], "location": {"address1": "211 S El Camino Real", "address2": "Ste C", "address3": null, "city": "Encinitas", "zip_code": "92024", "country": "US", "state": "CA", "display_address": ["211 S El Camino Real", "Ste C", "Encinitas, CA 92024"]}, "phone": "+17606320888", "display_phone": "(760) 632-0888", "distance": 414.0217236357006}, {"id": "AHYdtDWNM84OmJ5wItPLIQ", "alias": "sushi-lounge-encinitas-encinitas", "name": "Sushi Lounge Encinitas", "image_url": "https://s3-media4.fl.yelpcdn.com/bphoto/d5V1T0PTjAvimpXUsWVwtQ/o.jpg", "is_closed": false, "url": "https://www.yelp.com/biz/sushi-lounge-encinitas-encinitas?adjust_creative=oncXGL2aPIKrtJdnWeFSnA&utm_campaign=yelp_api_v3&utm_medium=api_v3_business_search&utm_source=oncXGL2aPIKrtJdnWeFSnA", "review_count": 643, "categories": [{"alias": "sushi", "title": "Sushi Bars"}], "rating": 4.0, "coordinates": {"latitude": 33.0357129, "longitude": -117.2832199}, "transactions": ["delivery", "pickup"], "price": "$$", "location": {"address1": "461 Santa Fe Dr", "address2": "", "address3": "", "city": "Encinitas", "zip_code": "92024", "country": "US", "state": "CA", "display_address": ["461 Santa Fe Dr", "Encinitas, CA 92024"]}, "phone": "+17606332299", "display_phone": "(760) 633-2299", "distance": 2879.4711352805452}, {"id": "M4vCrliyV7_5a1oU_k9rpA", "alias": "hooked-on-sushi-encinitas-2", "name": "Hooked On Sushi", "image_url": "https://s3-media4.fl.yelpcdn.com/bphoto/-EVUhiTw4x6PrTa-2mNbPQ/o.jpg", "is_closed": false, "url": "https://www.yelp.com/biz/hooked-on-sushi-encinitas-2?adjust_creative=oncXGL2aPIKrtJdnWeFSnA&utm_campaign=yelp_api_v3&utm_medium=api_v3_business_search&utm_source=oncXGL2aPIKrtJdnWeFSnA", "review_count": 299, "categories": [{"alias": "japanese", "title": "Japanese"}, {"alias": "sushi", "title": "Sushi Bars"}, {"alias": "asianfusion", "title": "Asian Fusion"}], "rating": 4.5, "coordinates": {"latitude": 33.0526328, "longitude": -117.261493}, "transactions": ["pickup"], "price": "$$", "location": {"address1": "272 N El Camino Real", "address2": "Ste D", "address3": "", "city": "Encinitas", "zip_code": "92024", "country": "US", "state": "CA", "display_address": ["272 N El Camino Real", "Ste D", "Encinitas, CA 92024"]}, "phone": "+17604875410", "display_phone": "(760) 487-5410", "distance": 1089.2882657277223}, {"id": "UFI72-ClYhkriejJxoarDA", "alias": "sushi-brothers-encinitas", "name": "Sushi Brothers", "image_url": "https://s3-media3.fl.yelpcdn.com/bphoto/XUhxNMnh-Eyy6V1bEDAWFg/o.jpg", "is_closed": false, "url": "https://www.yelp.com/biz/sushi-brothers-encinitas?adjust_creative=oncXGL2aPIKrtJdnWeFSnA&utm_campaign=yelp_api_v3&utm_medium=api_v3_business_search&utm_source=oncXGL2aPIKrtJdnWeFSnA", "review_count": 259, "categories": [{"alias": "sushi", "title": "Sushi Bars"}, {"alias": "poke", "title": "Poke"}], "rating": 4.0, "coordinates": {"latitude": 33.0471695, "longitude": -117.2840536}, "transactions": [], "price": "$$", "location": {"address1": "429 Encinitas Blvd", "address2": "", "address3": "", "city": "Encinitas", "zip_code": "92024", "country": "US", "state": "CA", "display_address": ["429 Encinitas Blvd", "Encinitas, CA 92024"]}, "phone": "+17609446789", "display_phone": "(760) 944-6789", "distance": 2781.6983197424875}, {"id": "WqAdRkBQMLp0xXZud5-jCw", "alias": "hapifish-encinitas", "name": "HapiFish", "image_url": "https://s3-media4.fl.yelpcdn.com/bphoto/QVu2rgWenrqjibyKZz3Ofg/o.jpg", "is_closed": false, "url": "https://www.yelp.com/biz/hapifish-encinitas?adjust_creative=oncXGL2aPIKrtJdnWeFSnA&utm_campaign=yelp_api_v3&utm_medium=api_v3_business_search&utm_source=oncXGL2aPIKrtJdnWeFSnA", "review_count": 431, "categories": [{"alias": "sushi", "title": "Sushi Bars"}], "rating": 3.5, "coordinates": {"latitude": 33.05237, "longitude": -117.29614}, "transactions": [], "price": "$$", "location": {"address1": "190 N Coast Hwy 101", "address2": null, "address3": "", "city": "Encinitas", "zip_code": "92024", "country": "US", "state": "CA", "display_address": ["190 N Coast Hwy 101", "Encinitas, CA 92024"]}, "phone": "+17604527245", "display_phone": "(760) 452-7245", "distance": 3968.3991985460266}, {"id": "PT7mWAroPG42aRPaD0rTew", "alias": "umi-restaurant-encinitas", "name": "UMI-Restaurant", "image_url": "https://s3-media2.fl.yelpcdn.com/bphoto/SikavGkLyi5dY1xkb0Vztg/o.jpg", "is_closed": false, "url": "https://www.yelp.com/biz/umi-restaurant-encinitas?adjust_creative=oncXGL2aPIKrtJdnWeFSnA&utm_campaign=yelp_api_v3&utm_medium=api_v3_business_search&utm_source=oncXGL2aPIKrtJdnWeFSnA", "review_count": 76, "categories": [{"alias": "sushi", "title": "Sushi Bars"}, {"alias": "ramen", "title": "Ramen"}, {"alias": "noodles", "title": "Noodles"}], "rating": 4.0, "coordinates": {"latitude": 33.07045, "longitude": -117.30456}, "transactions": [], "price": "$$", "location": {"address1": "1246 North Coast Hwy 101", "address2": "", "address3": null, "city": "Encinitas", "zip_code": "92024", "country": "US", "state": "CA", "display_address": ["1246 North Coast Hwy 101", "Encinitas, CA 92024"]}, "phone": "+17604421900", "display_phone": "(760) 442-1900", "distance": 5477.506857214152}, {"id": "wmYqjGK8X7Qh8YZIDBfJkg", "alias": "sushi-bar-blue-fin-encinitas-2", "name": "Sushi Bar Blue Fin", "image_url": "https://s3-media3.fl.yelpcdn.com/bphoto/dyPqJsGknTn3DVU8dyugKQ/o.jpg", "is_closed": false, "url": "https://www.yelp.com/biz/sushi-bar-blue-fin-encinitas-2?adjust_creative=oncXGL2aPIKrtJdnWeFSnA&utm_campaign=yelp_api_v3&utm_medium=api_v3_business_search&utm_source=oncXGL2aPIKrtJdnWeFSnA", "review_count": 289, "categories": [{"alias": "sushi", "title": "Sushi Bars"}, {"alias": "japanese", "title": "Japanese"}, {"alias": "seafood", "title": "Seafood"}], "rating": 3.5, "coordinates": {"latitude": 33.0521409, "longitude": -117.2606864}, "transactions": [], "price": "$$", "location": {"address1": "257 N El Camino Real", "address2": "", "address3": "", "city": "Encinitas", "zip_code": "92024", "country": "US", "state": "CA", "display_address": ["257 N El Camino Real", "Encinitas, CA 92024"]}, "phone": "+17604791555", "display_phone": "(760) 479-1555", "distance": 989.5428811604093}, {"id": "pVeO7WPSaJDYhe228hDd-w", "alias": "seasalt-del-mar-del-mar", "name": "Seasalt Del Mar", "image_url": "https://s3-media4.fl.yelpcdn.com/bphoto/7edNN3Ysgx8m1g0qBIzNbw/o.jpg", "is_closed": false, "url": "https://www.yelp.com/biz/seasalt-del-mar-del-mar?adjust_creative=oncXGL2aPIKrtJdnWeFSnA&utm_campaign=yelp_api_v3&utm_medium=api_v3_business_search&utm_source=oncXGL2aPIKrtJdnWeFSnA", "review_count": 384, "categories": [{"alias": "seafood", "title": "Seafood"}, {"alias": "wine_bars", "title": "Wine Bars"}, {"alias": "sushi", "title": "Sushi Bars"}], "rating": 4.0, "coordinates": {"latitude": 32.9334587, "longitude": -117.2535969}, "transactions": ["delivery", "pickup"], "price": "$$", "location": {"address1": "2282 Carmel Valley Rd", "address2": "", "address3": "", "city": "Del Mar", "zip_code": "92014", "country": "US", "state": "CA", "display_address": ["2282 Carmel Valley Rd", "Del Mar, CA 92014"]}, "phone": "+18587557100", "display_phone": "(858) 755-7100", "distance": 12387.128217893414}, {"id": "i9ZYCprFuqRnl6EPuU0YcA", "alias": "wrench-and-rodent-seabasstropub-oceanside", "name": "Wrench & Rodent Seabasstropub", "image_url": "https://s3-media2.fl.yelpcdn.com/bphoto/UXVgIOCsAIR2ieooF_EqOg/o.jpg", "is_closed": false, "url": "https://www.yelp.com/biz/wrench-and-rodent-seabasstropub-oceanside?adjust_creative=oncXGL2aPIKrtJdnWeFSnA&utm_campaign=yelp_api_v3&utm_medium=api_v3_business_search&utm_source=oncXGL2aPIKrtJdnWeFSnA", "review_count": 722, "categories": [{"alias": "newamerican", "title": "American (New)"}, {"alias": "seafood", "title": "Seafood"}, {"alias": "sushi", "title": "Sushi Bars"}], "rating": 4.5, "coordinates": {"latitude": 33.174645, "longitude": -117.361908}, "transactions": [], "price": "$$", "location": {"address1": "1815 S Coast Hwy", "address2": "", "address3": "", "city": "Oceanside", "zip_code": "92054", "country": "US", "state": "CA", "display_address": ["1815 S Coast Hwy", "Oceanside, CA 92054"]}, "phone": "+17602710531", "display_phone": "(760) 271-0531", "distance": 17565.84781032034}, {"id": "3BIi2H0X5uDox9uAd-A-Lg", "alias": "lazy-tuna-sushi-solana-beach", "name": "Lazy Tuna Sushi", "image_url": "https://s3-media4.fl.yelpcdn.com/bphoto/qyf3Z8B3NMsDhma20yHx6w/o.jpg", "is_closed": false, "url": "https://www.yelp.com/biz/lazy-tuna-sushi-solana-beach?adjust_creative=oncXGL2aPIKrtJdnWeFSnA&utm_campaign=yelp_api_v3&utm_medium=api_v3_business_search&utm_source=oncXGL2aPIKrtJdnWeFSnA", "review_count": 82, "categories": [{"alias": "sushi", "title": "Sushi Bars"}], "rating": 4.0, "coordinates": {"latitude": 32.99067, "longitude": -117.27185}, "transactions": [], "price": "$$", "location": {"address1": "145 S Hwy 101", "address2": null, "address3": "", "city": "Solana Beach", "zip_code": "92075", "country": "US", "state": "CA", "display_address": ["145 S Hwy 101", "Solana Beach, CA 92075"]}, "phone": "+18584816363", "display_phone": "(858) 481-6363", "distance": 6238.661996998822}, {"id": "h7orHki9hAlthq4ZF6Sx4A", "alias": "sushi-kuchi-carlsbad-7", "name": "Sushi Kuchi", "image_url": "https://s3-media2.fl.yelpcdn.com/bphoto/Lnn6COKSNkrBk94LCewWpA/o.jpg", "is_closed": false, "url": "https://www.yelp.com/biz/sushi-kuchi-carlsbad-7?adjust_creative=oncXGL2aPIKrtJdnWeFSnA&utm_campaign=yelp_api_v3&utm_medium=api_v3_business_search&utm_source=oncXGL2aPIKrtJdnWeFSnA", "review_count": 436, "categories": [{"alias": "japanese", "title": "Japanese"}, {"alias": "sushi", "title": "Sushi Bars"}], "rating": 4.0, "coordinates": {"latitude": 33.1005245363228, "longitude": -117.309786877571}, "transactions": [], "price": "$$", "location": {"address1": "7180 Avenida Encinas", "address2": "Ste 100", "address3": "", "city": "Carlsbad", "zip_code": "92011", "country": "US", "state": "CA", "display_address": ["7180 Avenida Encinas", "Ste 100", "Carlsbad, CA 92011"]}, "phone": "+17604383222", "display_phone": "(760) 438-3222", "distance": 8060.323100607039}, {"id": "TSSfmgrpOfGomSz9fTQUmA", "alias": "yoshino-japanese-deli-carlsbad", "name": "Yoshino Japanese Deli", "image_url": "https://s3-media1.fl.yelpcdn.com/bphoto/8P632tFx8oym5M-7pqfemA/o.jpg", "is_closed": false, "url": "https://www.yelp.com/biz/yoshino-japanese-deli-carlsbad?adjust_creative=oncXGL2aPIKrtJdnWeFSnA&utm_campaign=yelp_api_v3&utm_medium=api_v3_business_search&utm_source=oncXGL2aPIKrtJdnWeFSnA", "review_count": 726, "categories": [{"alias": "japanese", "title": "Japanese"}, {"alias": "sushi", "title": "Sushi Bars"}, {"alias": "delis", "title": "Delis"}], "rating": 4.5, "coordinates": {"latitude": 33.1603163, "longitude": -117.3495182}, "transactions": [], "price": "$", "location": {"address1": "2913 State St", "address2": "", "address3": "", "city": "Carlsbad", "zip_code": "92008", "country": "US", "state": "CA", "display_address": ["2913 State St", "Carlsbad, CA 92008"]}, "phone": "+17608890309", "display_phone": "(760) 889-0309", "distance": 15607.586188578984}, {"id": "SHl93rFlUCUBvG9-oydu_Q", "alias": "benihana-carlsbad", "name": "Benihana", "image_url": "https://s3-media1.fl.yelpcdn.com/bphoto/LJnYAW1kgVkNGbMJPEiPHw/o.jpg", "is_closed": false, "url": "https://www.yelp.com/biz/benihana-carlsbad?adjust_creative=oncXGL2aPIKrtJdnWeFSnA&utm_campaign=yelp_api_v3&utm_medium=api_v3_business_search&utm_source=oncXGL2aPIKrtJdnWeFSnA", "review_count": 558, "categories": [{"alias": "sushi", "title": "Sushi Bars"}, {"alias": "japanese", "title": "Japanese"}, {"alias": "noodles", "title": "Noodles"}], "rating": 3.0, "coordinates": {"latitude": 33.1041784658514, "longitude": -117.3126635}, "transactions": ["delivery", "pickup"], "price": "$$", "location": {"address1": "755 Raintree Dr", "address2": "", "address3": "", "city": "Carlsbad", "zip_code": "92009", "country": "US", "state": "CA", "display_address": ["755 Raintree Dr", "Carlsbad, CA 92009"]}, "phone": "+17609298311", "display_phone": "(760) 929-8311", "distance": 8544.087139660405}, {"id": "MpBbBVux96dH36raE8mALQ", "alias": "ken-sushi-workshop-san-diego-3", "name": "Ken Sushi Workshop", "image_url": "https://s3-media3.fl.yelpcdn.com/bphoto/cjcrQi9eEUGDbevCKuAGAw/o.jpg", "is_closed": false, "url": "https://www.yelp.com/biz/ken-sushi-workshop-san-diego-3?adjust_creative=oncXGL2aPIKrtJdnWeFSnA&utm_campaign=yelp_api_v3&utm_medium=api_v3_business_search&utm_source=oncXGL2aPIKrtJdnWeFSnA", "review_count": 463, "categories": [{"alias": "japanese", "title": "Japanese"}, {"alias": "gourmet", "title": "Specialty Food"}, {"alias": "sushi", "title": "Sushi Bars"}], "rating": 4.5, "coordinates": {"latitude": 32.9264557231392, "longitude": -117.237016705725}, "transactions": [], "price": "$$$", "location": {"address1": "11375 El Camino Real", "address2": "", "address3": "", "city": "San Diego", "zip_code": "92130", "country": "US", "state": "CA", "display_address": ["11375 El Camino Real", "San Diego, CA 92130"]}, "phone": "+18587931200", "display_phone": "(858) 793-1200", "distance": 13267.943857977763}, {"id": "1vdHkdvH-tJUdMc01M2cvQ", "alias": "the-land-and-water-co-carlsbad", "name": "The Land & Water Co", "image_url": "https://s3-media3.fl.yelpcdn.com/bphoto/5_NVfdeImjfo54fbGKZjFA/o.jpg", "is_closed": false, "url": "https://www.yelp.com/biz/the-land-and-water-co-carlsbad?adjust_creative=oncXGL2aPIKrtJdnWeFSnA&utm_campaign=yelp_api_v3&utm_medium=api_v3_business_search&utm_source=oncXGL2aPIKrtJdnWeFSnA", "review_count": 713, "categories": [{"alias": "sushi", "title": "Sushi Bars"}, {"alias": "tapasmallplates", "title": "Tapas/Small Plates"}, {"alias": "newamerican", "title": "American (New)"}], "rating": 4.0, "coordinates": {"latitude": 33.1587965456973, "longitude": -117.35085560168}, "transactions": [], "price": "$$", "location": {"address1": "2978 Carlsbad Blvd", "address2": "Ste 110", "address3": "", "city": "Carlsbad", "zip_code": "92008", "country": "US", "state": "CA", "display_address": ["2978 Carlsbad Blvd", "Ste 110", "Carlsbad, CA 92008"]}, "phone": "+17607295263", "display_phone": "(760) 729-5263", "distance": 15532.491282267581}, {"id": "iczXD1EwZkPo9kAKKgKZlg", "alias": "shimbashi-izakaya-del-mar", "name": "Shimbashi Izakaya", "image_url": "https://s3-media4.fl.yelpcdn.com/bphoto/l5DcEhM8MSNMTL50sSBV0A/o.jpg", "is_closed": false, "url": "https://www.yelp.com/biz/shimbashi-izakaya-del-mar?adjust_creative=oncXGL2aPIKrtJdnWeFSnA&utm_campaign=yelp_api_v3&utm_medium=api_v3_business_search&utm_source=oncXGL2aPIKrtJdnWeFSnA", "review_count": 359, "categories": [{"alias": "sushi", "title": "Sushi Bars"}, {"alias": "japanese", "title": "Japanese"}], "rating": 4.0, "coordinates": {"latitude": 32.9606268951093, "longitude": -117.265101009262}, "transactions": ["delivery", "pickup"], "price": "$$$", "location": {"address1": "1555 Camino Del Mar", "address2": "Ste 201", "address3": "", "city": "Del Mar", "zip_code": "92014", "country": "US", "state": "CA", "display_address": ["1555 Camino Del Mar", "Ste 201", "Del Mar, CA 92014"]}, "phone": "+18585230479", "display_phone": "(858) 523-0479", "distance": 9423.260160341746}, {"id": "XdH2dcLoeXSF6W8QvnebkA", "alias": "sushi-house-encinitas", "name": "Sushi House", "image_url": "https://s3-media3.fl.yelpcdn.com/bphoto/nuNri9rznapzKNJ5-Iv_-Q/o.jpg", "is_closed": false, "url": "https://www.yelp.com/biz/sushi-house-encinitas?adjust_creative=oncXGL2aPIKrtJdnWeFSnA&utm_campaign=yelp_api_v3&utm_medium=api_v3_business_search&utm_source=oncXGL2aPIKrtJdnWeFSnA", "review_count": 218, "categories": [{"alias": "sushi", "title": "Sushi Bars"}, {"alias": "japanese", "title": "Japanese"}, {"alias": "poke", "title": "Poke"}], "rating": 3.5, "coordinates": {"latitude": 33.049252677154, "longitude": -117.26179165619}, "transactions": ["pickup"], "price": "$$", "location": {"address1": "214 N El Camino Real", "address2": "Ste A", "address3": "", "city": "Encinitas", "zip_code": "92024", "country": "US", "state": "CA", "display_address": ["214 N El Camino Real", "Ste A", "Encinitas, CA 92024"]}, "phone": "+17602746902", "display_phone": "(760) 274-6902", "distance": 847.6815728555196}, {"id": "aMW2YF4LQdzfaPrgQHP9Bw", "alias": "sushi-exchange-san-diego", "name": "Sushi Exchange", "image_url": "https://s3-media2.fl.yelpcdn.com/bphoto/r6tlFWVu6nx9K-VfDCoazQ/o.jpg", "is_closed": false, "url": "https://www.yelp.com/biz/sushi-exchange-san-diego?adjust_creative=oncXGL2aPIKrtJdnWeFSnA&utm_campaign=yelp_api_v3&utm_medium=api_v3_business_search&utm_source=oncXGL2aPIKrtJdnWeFSnA", "review_count": 217, "categories": [{"alias": "sushi", "title": "Sushi Bars"}, {"alias": "ramen", "title": "Ramen"}, {"alias": "poke", "title": "Poke"}], "rating": 4.5, "coordinates": {"latitude": 32.9703007078936, "longitude": -117.160718766759}, "transactions": ["delivery", "pickup"], "price": "$$", "location": {"address1": "13859 Carmel Valley Rd", "address2": "Ste A", "address3": null, "city": "San Diego", "zip_code": "92130", "country": "US", "state": "CA", "display_address": ["13859 Carmel Valley Rd", "Ste A", "San Diego, CA 92130"]}, "phone": "+18583657951", "display_phone": "(858) 365-7951", "distance": 12041.2261286882}, {"id": "jWVfnkJPGrmkZdrF06-5FA", "alias": "fresh-sushi-catering-solana-beach-6", "name": "Fresh Sushi Catering", "image_url": "https://s3-media1.fl.yelpcdn.com/bphoto/vlQcsF60_6SPQrvDcxlQQQ/o.jpg", "is_closed": false, "url": "https://www.yelp.com/biz/fresh-sushi-catering-solana-beach-6?adjust_creative=oncXGL2aPIKrtJdnWeFSnA&utm_campaign=yelp_api_v3&utm_medium=api_v3_business_search&utm_source=oncXGL2aPIKrtJdnWeFSnA", "review_count": 61, "categories": [{"alias": "sushi", "title": "Sushi Bars"}, {"alias": "catering", "title": "Caterers"}], "rating": 5.0, "coordinates": {"latitude": 32.98843, "longitude": -117.26695}, "transactions": [], "price": "$$$$", "location": {"address1": "", "address2": null, "address3": "", "city": "Solana Beach", "zip_code": "92075", "country": "US", "state": "CA", "display_address": ["Solana Beach, CA 92075"]}, "phone": "+18583447098", "display_phone": "(858) 344-7098", "distance": 5557.610212859781}, {"id": "0VRf2BzRjtbl_s6wJH4z4g", "alias": "teri-cafe-oceanside", "name": "Teri Cafe", "image_url": "https://s3-media2.fl.yelpcdn.com/bphoto/ohSXu2p6wAiFBwzgnrAKlQ/o.jpg", "is_closed": false, "url": "https://www.yelp.com/biz/teri-cafe-oceanside?adjust_creative=oncXGL2aPIKrtJdnWeFSnA&utm_campaign=yelp_api_v3&utm_medium=api_v3_business_search&utm_source=oncXGL2aPIKrtJdnWeFSnA", "review_count": 784, "categories": [{"alias": "ramen", "title": "Ramen"}, {"alias": "sushi", "title": "Sushi Bars"}, {"alias": "noodles", "title": "Noodles"}], "rating": 4.0, "coordinates": {"latitude": 33.1856468732919, "longitude": -117.327160384656}, "transactions": [], "price": "$", "location": {"address1": "2216 S El Camino Real", "address2": "Ste 123", "address3": "", "city": "Oceanside", "zip_code": "92054", "country": "US", "state": "CA", "display_address": ["2216 S El Camino Real", "Ste 123", "Oceanside, CA 92054"]}, "phone": "+17607228399", "display_phone": "(760) 722-8399", "distance": 17057.895796580502}, {"id": "Em8TfihBtB17pawo3xW9EA", "alias": "samurai-japanese-restaurant-solana-beach", "name": "Samurai Japanese Restaurant", "image_url": "https://s3-media1.fl.yelpcdn.com/bphoto/TIOUkmxbG6fHIjAZcixc4A/o.jpg", "is_closed": false, "url": "https://www.yelp.com/biz/samurai-japanese-restaurant-solana-beach?adjust_creative=oncXGL2aPIKrtJdnWeFSnA&utm_campaign=yelp_api_v3&utm_medium=api_v3_business_search&utm_source=oncXGL2aPIKrtJdnWeFSnA", "review_count": 289, "categories": [{"alias": "japanese", "title": "Japanese"}, {"alias": "sushi", "title": "Sushi Bars"}, {"alias": "steak", "title": "Steakhouses"}], "rating": 3.5, "coordinates": {"latitude": 32.994997, "longitude": -117.252217}, "transactions": [], "price": "$$", "location": {"address1": "979 Lomas Santa Fe Dr", "address2": null, "address3": "", "city": "Solana Beach", "zip_code": "92075", "country": "US", "state": "CA", "display_address": ["979 Lomas Santa Fe Dr", "Solana Beach, CA 92075"]}, "phone": "+18584810032", "display_phone": "(858) 481-0032", "distance": 5551.34236707798}, {"id": "nrqFHR5sjvXKKC2BtzR3gA", "alias": "blue-ocean-robata-and-sushi-bar-carlsbad-2", "name": "Blue Ocean Robata & Sushi Bar", "image_url": "https://s3-media3.fl.yelpcdn.com/bphoto/w1niqsSE0i5Oo7TJSWiO1g/o.jpg", "is_closed": false, "url": "https://www.yelp.com/biz/blue-ocean-robata-and-sushi-bar-carlsbad-2?adjust_creative=oncXGL2aPIKrtJdnWeFSnA&utm_campaign=yelp_api_v3&utm_medium=api_v3_business_search&utm_source=oncXGL2aPIKrtJdnWeFSnA", "review_count": 899, "categories": [{"alias": "asianfusion", "title": "Asian Fusion"}, {"alias": "sushi", "title": "Sushi Bars"}], "rating": 4.0, "coordinates": {"latitude": 33.1614177, "longitude": -117.3468266}, "transactions": [], "price": "$$", "location": {"address1": "2958 Madison St", "address2": "", "address3": "", "city": "Carlsbad", "zip_code": "92008", "country": "US", "state": "CA", "display_address": ["2958 Madison St", "Carlsbad, CA 92008"]}, "phone": "+17604344959", "display_phone": "(760) 434-4959", "distance": 15560.096044922093}, {"id": "eq93PJ6ZzQwlrH13VNVqWw", "alias": "sushi4reel-oceanside", "name": "Sushi4Reel", "image_url": "https://s3-media2.fl.yelpcdn.com/bphoto/JE4Gff12-fTwi44GJ8QrZQ/o.jpg", "is_closed": false, "url": "https://www.yelp.com/biz/sushi4reel-oceanside?adjust_creative=oncXGL2aPIKrtJdnWeFSnA&utm_campaign=yelp_api_v3&utm_medium=api_v3_business_search&utm_source=oncXGL2aPIKrtJdnWeFSnA", "review_count": 305, "categories": [{"alias": "sushi", "title": "Sushi Bars"}, {"alias": "seafood", "title": "Seafood"}, {"alias": "ramen", "title": "Ramen"}], "rating": 4.5, "coordinates": {"latitude": 33.2163251349678, "longitude": -117.271781936288}, "transactions": ["delivery", "pickup"], "price": "$$", "location": {"address1": "4750 Oceanside Blvd", "address2": "Ste A20", "address3": "", "city": "Oceanside", "zip_code": "92056", "country": "US", "state": "CA", "display_address": ["4750 Oceanside Blvd", "Ste A20", "Oceanside, CA 92056"]}, "phone": "+17606596784", "display_phone": "(760) 659-6784", "distance": 19131.819682745245}, {"id": "QkTOIpK34o6fhNVmhsk8TA", "alias": "hooked-on-sushi-carlsbad", "name": "Hooked on Sushi", "image_url": "https://s3-media2.fl.yelpcdn.com/bphoto/raaULEbjDztb_GtbeHWADg/o.jpg", "is_closed": false, "url": "https://www.yelp.com/biz/hooked-on-sushi-carlsbad?adjust_creative=oncXGL2aPIKrtJdnWeFSnA&utm_campaign=yelp_api_v3&utm_medium=api_v3_business_search&utm_source=oncXGL2aPIKrtJdnWeFSnA", "review_count": 932, "categories": [{"alias": "sushi", "title": "Sushi Bars"}, {"alias": "japanese", "title": "Japanese"}], "rating": 4.5, "coordinates": {"latitude": 33.1804747700058, "longitude": -117.325041890144}, "transactions": ["pickup"], "price": "$$", "location": {"address1": "Vons Shopping Ctr", "address2": "", "address3": "2508 El Camino Real", "city": "Carlsbad", "zip_code": "92008", "country": "US", "state": "CA", "display_address": ["Vons Shopping Ctr", "2508 El Camino Real", "Carlsbad, CA 92008"]}, "phone": "+17604348811", "display_phone": "(760) 434-8811", "distance": 16451.897793023763}, {"id": "OX1HQdopodfY29Ul8iQ0zg", "alias": "gami-sushi-san-diego", "name": "Gami Sushi", "image_url": "https://s3-media2.fl.yelpcdn.com/bphoto/hye9kI5J_uF2B9MYrBy3RQ/o.jpg", "is_closed": false, "url": "https://www.yelp.com/biz/gami-sushi-san-diego?adjust_creative=oncXGL2aPIKrtJdnWeFSnA&utm_campaign=yelp_api_v3&utm_medium=api_v3_business_search&utm_source=oncXGL2aPIKrtJdnWeFSnA", "review_count": 475, "categories": [{"alias": "sushi", "title": "Sushi Bars"}], "rating": 4.0, "coordinates": {"latitude": 32.938728, "longitude": -117.232533}, "transactions": [], "price": "$$", "location": {"address1": "3870 Valley Centre Dr", "address2": "Ste 302", "address3": "", "city": "San Diego", "zip_code": "92130", "country": "US", "state": "CA", "display_address": ["3870 Valley Centre Dr", "Ste 302", "San Diego, CA 92130"]}, "phone": "+18587925509", "display_phone": "(858) 792-5509", "distance": 11978.472902484475}, {"id": "eyHseN6JIgRUkTUSePNYfg", "alias": "harney-sushi-oceanside", "name": "Harney Sushi", "image_url": "https://s3-media1.fl.yelpcdn.com/bphoto/zLIS9Qbeu0s7oDpm55yjaQ/o.jpg", "is_closed": false, "url": "https://www.yelp.com/biz/harney-sushi-oceanside?adjust_creative=oncXGL2aPIKrtJdnWeFSnA&utm_campaign=yelp_api_v3&utm_medium=api_v3_business_search&utm_source=oncXGL2aPIKrtJdnWeFSnA", "review_count": 857, "categories": [{"alias": "sushi", "title": "Sushi Bars"}, {"alias": "japanese", "title": "Japanese"}], "rating": 4.0, "coordinates": {"latitude": 33.1946666, "longitude": -117.380578}, "transactions": ["restaurant_reservation", "pickup"], "price": "$$", "location": {"address1": "301 Mission Ave", "address2": "", "address3": "", "city": "Oceanside", "zip_code": "92054", "country": "US", "state": "CA", "display_address": ["301 Mission Ave", "Oceanside, CA 92054"]}, "phone": "+17609671820", "display_phone": "(760) 967-1820", "distance": 20386.17335850249}, {"id": "tSwwA5Vy0Iv3RtIw0uJlXg", "alias": "mikko-sushi-carlsbad-2", "name": "Mikko Sushi", "image_url": "https://s3-media2.fl.yelpcdn.com/bphoto/y-bWjcckWwxsJDar3gWOtg/o.jpg", "is_closed": false, "url": "https://www.yelp.com/biz/mikko-sushi-carlsbad-2?adjust_creative=oncXGL2aPIKrtJdnWeFSnA&utm_campaign=yelp_api_v3&utm_medium=api_v3_business_search&utm_source=oncXGL2aPIKrtJdnWeFSnA", "review_count": 420, "categories": [{"alias": "sushi", "title": "Sushi Bars"}, {"alias": "japanese", "title": "Japanese"}, {"alias": "hawaiian", "title": "Hawaiian"}], "rating": 4.5, "coordinates": {"latitude": 33.1624882511995, "longitude": -117.343036971947}, "transactions": ["delivery", "pickup"], "price": "$$", "location": {"address1": "1025 Carlsbad Village Dr", "address2": "", "address3": "", "city": "Carlsbad", "zip_code": "92008", "country": "US", "state": "CA", "display_address": ["1025 Carlsbad Village Dr", "Carlsbad, CA 92008"]}, "phone": "+17607300088", "display_phone": "(760) 730-0088", "distance": 15467.936672565927}, {"id": "Hy3u8n6Jm7ec4qd5Q48cKg", "alias": "station-sushi-solana-beach", "name": "Station Sushi", "image_url": "https://s3-media2.fl.yelpcdn.com/bphoto/IxT6TXI6r74qLtcNGSczPw/o.jpg", "is_closed": false, "url": "https://www.yelp.com/biz/station-sushi-solana-beach?adjust_creative=oncXGL2aPIKrtJdnWeFSnA&utm_campaign=yelp_api_v3&utm_medium=api_v3_business_search&utm_source=oncXGL2aPIKrtJdnWeFSnA", "review_count": 455, "categories": [{"alias": "sushi", "title": "Sushi Bars"}, {"alias": "japanese", "title": "Japanese"}, {"alias": "bars", "title": "Bars"}], "rating": 3.5, "coordinates": {"latitude": 32.99266, "longitude": -117.27215}, "transactions": [], "price": "$$", "location": {"address1": "125 N Hwy 101", "address2": "", "address3": "", "city": "Solana Beach", "zip_code": "92075", "country": "US", "state": "CA", "display_address": ["125 N Hwy 101", "Solana Beach, CA 92075"]}, "phone": "+18584819800", "display_phone": "(858) 481-9800", "distance": 6039.057764068877}, {"id": "3tU-fKas38YNzZ5akOJFkw", "alias": "boto-sushi-del-mar-del-mar-7", "name": "Boto Sushi Del Mar", "image_url": "https://s3-media2.fl.yelpcdn.com/bphoto/5K_-MZ8kA9QPabXHm3Z52w/o.jpg", "is_closed": false, "url": "https://www.yelp.com/biz/boto-sushi-del-mar-del-mar-7?adjust_creative=oncXGL2aPIKrtJdnWeFSnA&utm_campaign=yelp_api_v3&utm_medium=api_v3_business_search&utm_source=oncXGL2aPIKrtJdnWeFSnA", "review_count": 147, "categories": [{"alias": "sushi", "title": "Sushi Bars"}, {"alias": "japanese", "title": "Japanese"}, {"alias": "asianfusion", "title": "Asian Fusion"}], "rating": 4.0, "coordinates": {"latitude": 32.951247, "longitude": -117.246129}, "transactions": [], "price": "$$", "location": {"address1": "2628 Del Mar Heights Rd", "address2": null, "address3": "", "city": "Del Mar", "zip_code": "92014", "country": "US", "state": "CA", "display_address": ["2628 Del Mar Heights Rd", "Del Mar, CA 92014"]}, "phone": "+18588472828", "display_phone": "(858) 847-2828", "distance": 10440.680404740018}, {"id": "tyAK08taAaH7TJRDYmDNoA", "alias": "teri-cafe-oceanside-2", "name": "Teri Cafe", "image_url": "https://s3-media3.fl.yelpcdn.com/bphoto/EqgDweHE3dVyAl4oVYCk8Q/o.jpg", "is_closed": false, "url": "https://www.yelp.com/biz/teri-cafe-oceanside-2?adjust_creative=oncXGL2aPIKrtJdnWeFSnA&utm_campaign=yelp_api_v3&utm_medium=api_v3_business_search&utm_source=oncXGL2aPIKrtJdnWeFSnA", "review_count": 608, "categories": [{"alias": "sushi", "title": "Sushi Bars"}, {"alias": "hawaiian", "title": "Hawaiian"}, {"alias": "ramen", "title": "Ramen"}], "rating": 4.0, "coordinates": {"latitude": 33.181676135002, "longitude": -117.29310357791}, "transactions": [], "price": "$", "location": {"address1": "3809 Plaza Dr", "address2": "Ste101", "address3": "", "city": "Oceanside", "zip_code": "92056", "country": "US", "state": "CA", "display_address": ["3809 Plaza Dr", "Ste101", "Oceanside, CA 92056"]}, "phone": "+17609458888", "display_phone": "(760) 945-8888", "distance": 15632.658686418948}, {"id": "zWtGcIl_jsUHK3Dhmxu6jw", "alias": "yukiya-sushi-oceanside", "name": "Yukiya Sushi", "image_url": "https://s3-media2.fl.yelpcdn.com/bphoto/EOKGqDJaUBN5WTxXB2th9w/o.jpg", "is_closed": false, "url": "https://www.yelp.com/biz/yukiya-sushi-oceanside?adjust_creative=oncXGL2aPIKrtJdnWeFSnA&utm_campaign=yelp_api_v3&utm_medium=api_v3_business_search&utm_source=oncXGL2aPIKrtJdnWeFSnA", "review_count": 188, "categories": [{"alias": "sushi", "title": "Sushi Bars"}, {"alias": "cocktailbars", "title": "Cocktail Bars"}], "rating": 4.0, "coordinates": {"latitude": 33.1816485, "longitude": -117.3353747}, "transactions": [], "price": "$$", "location": {"address1": "2415 Vista Way", "address2": "", "address3": null, "city": "Oceanside", "zip_code": "92054", "country": "US", "state": "CA", "display_address": ["2415 Vista Way", "Oceanside, CA 92054"]}, "phone": "+17604393283", "display_phone": "(760) 439-3283", "distance": 16976.983746914007}, {"id": "qALKVt8zAt9ouag0cf1Rzw", "alias": "o-sushi-san-diego", "name": "O Sushi", "image_url": "https://s3-media3.fl.yelpcdn.com/bphoto/v0WUm_ducuV24jmtDIKmAw/o.jpg", "is_closed": false, "url": "https://www.yelp.com/biz/o-sushi-san-diego?adjust_creative=oncXGL2aPIKrtJdnWeFSnA&utm_campaign=yelp_api_v3&utm_medium=api_v3_business_search&utm_source=oncXGL2aPIKrtJdnWeFSnA", "review_count": 145, "categories": [{"alias": "sushi", "title": "Sushi Bars"}], "rating": 4.0, "coordinates": {"latitude": 32.93708, "longitude": -117.10077}, "transactions": [], "price": "$$", "location": {"address1": "10545 Scripps Poway Pkwy", "address2": "Ste A", "address3": "", "city": "San Diego", "zip_code": "92131", "country": "US", "state": "CA", "display_address": ["10545 Scripps Poway Pkwy", "Ste A", "San Diego, CA 92131"]}, "phone": "+18585369247", "display_phone": "(858) 536-9247", "distance": 18718.69005995018}, {"id": "gVEDdSfCVeIjdrDNXKblFg", "alias": "zen-modern-asian-san-diego", "name": "ZEN Modern Asian", "image_url": "https://s3-media1.fl.yelpcdn.com/bphoto/8aHUXskU2k_FL7QPzN49Kg/o.jpg", "is_closed": false, "url": "https://www.yelp.com/biz/zen-modern-asian-san-diego?adjust_creative=oncXGL2aPIKrtJdnWeFSnA&utm_campaign=yelp_api_v3&utm_medium=api_v3_business_search&utm_source=oncXGL2aPIKrtJdnWeFSnA", "review_count": 425, "categories": [{"alias": "asianfusion", "title": "Asian Fusion"}, {"alias": "sushi", "title": "Sushi Bars"}, {"alias": "chinese", "title": "Chinese"}], "rating": 4.0, "coordinates": {"latitude": 32.96267, "longitude": -117.09202}, "transactions": ["delivery", "pickup"], "price": "$$", "location": {"address1": "13510 Sabre Spring Pkwy", "address2": "Ste 103", "address3": "", "city": "San Diego", "zip_code": "92128", "country": "US", "state": "CA", "display_address": ["13510 Sabre Spring Pkwy", "Ste 103", "San Diego, CA 92128"]}, "phone": "+18582161068", "display_phone": "(858) 216-1068", "distance": 17674.57080185095}, {"id": "cyUpx5957CL9cM2c8vKGlA", "alias": "mikko-sushi-vista", "name": "Mikko Sushi", "image_url": "https://s3-media4.fl.yelpcdn.com/bphoto/ExIuJ__iIBvzNLoLeX5K-g/o.jpg", "is_closed": false, "url": "https://www.yelp.com/biz/mikko-sushi-vista?adjust_creative=oncXGL2aPIKrtJdnWeFSnA&utm_campaign=yelp_api_v3&utm_medium=api_v3_business_search&utm_source=oncXGL2aPIKrtJdnWeFSnA", "review_count": 164, "categories": [{"alias": "sushi", "title": "Sushi Bars"}], "rating": 4.5, "coordinates": {"latitude": 33.20326, "longitude": -117.24097}, "transactions": [], "price": "$$", "location": {"address1": "330 Main St", "address2": "", "address3": null, "city": "Vista", "zip_code": "92084", "country": "US", "state": "CA", "display_address": ["330 Main St", "Vista, CA 92084"]}, "phone": "+17608428001", "display_phone": "(760) 842-8001", "distance": 17656.522818880418}, {"id": "Xl8fktjOQuo5eMPpEiuB4w", "alias": "moiza-tapas-and-japanese-noodle-carlsbad", "name": "Moiza tapas & Japanese Noodle", "image_url": "https://s3-media1.fl.yelpcdn.com/bphoto/3ATT3B2nDcFiN-Xl_mPGRg/o.jpg", "is_closed": false, "url": "https://www.yelp.com/biz/moiza-tapas-and-japanese-noodle-carlsbad?adjust_creative=oncXGL2aPIKrtJdnWeFSnA&utm_campaign=yelp_api_v3&utm_medium=api_v3_business_search&utm_source=oncXGL2aPIKrtJdnWeFSnA", "review_count": 180, "categories": [{"alias": "japanese", "title": "Japanese"}, {"alias": "sushi", "title": "Sushi Bars"}], "rating": 4.0, "coordinates": {"latitude": 33.1630491683917, "longitude": -117.340830932541}, "transactions": ["pickup"], "price": "$$", "location": {"address1": "3050 Pio Pico Dr", "address2": "Ste A", "address3": null, "city": "Carlsbad", "zip_code": "92008", "country": "US", "state": "CA", "display_address": ["3050 Pio Pico Dr", "Ste A", "Carlsbad, CA 92008"]}, "phone": "+17604341230", "display_phone": "(760) 434-1230", "distance": 15412.279657385254}, {"id": "oC_mLtSwoE5r_YsyV6m8YA", "alias": "yamariki-sushi-carlsbad", "name": "Yamariki Sushi", "image_url": "https://s3-media3.fl.yelpcdn.com/bphoto/eEzP2YLmER5IzVWDk18KYQ/o.jpg", "is_closed": false, "url": "https://www.yelp.com/biz/yamariki-sushi-carlsbad?adjust_creative=oncXGL2aPIKrtJdnWeFSnA&utm_campaign=yelp_api_v3&utm_medium=api_v3_business_search&utm_source=oncXGL2aPIKrtJdnWeFSnA", "review_count": 224, "categories": [{"alias": "sushi", "title": "Sushi Bars"}], "rating": 3.5, "coordinates": {"latitude": 33.0822825337306, "longitude": -117.23301694841}, "transactions": [], "price": "$$", "location": {"address1": "7610 Via Campanile", "address2": "Ste 148", "address3": "", "city": "Carlsbad", "zip_code": "92009", "country": "US", "state": "CA", "display_address": ["7610 Via Campanile", "Ste 148", "Carlsbad, CA 92009"]}, "phone": "+17604526020", "display_phone": "(760) 452-6020", "distance": 4608.019709704339}, {"id": "f0s_GZj6KMovucHFxCbM_A", "alias": "love-boat-sushi-san-marcos", "name": "Love Boat Sushi", "image_url": "https://s3-media1.fl.yelpcdn.com/bphoto/ap8PearCapDovzr-3HUujQ/o.jpg", "is_closed": false, "url": "https://www.yelp.com/biz/love-boat-sushi-san-marcos?adjust_creative=oncXGL2aPIKrtJdnWeFSnA&utm_campaign=yelp_api_v3&utm_medium=api_v3_business_search&utm_source=oncXGL2aPIKrtJdnWeFSnA", "review_count": 698, "categories": [{"alias": "sushi", "title": "Sushi Bars"}], "rating": 4.0, "coordinates": {"latitude": 33.141922771129, "longitude": -117.1918191919}, "transactions": ["delivery", "pickup"], "price": "$$", "location": {"address1": "121 S Las Posas Rd", "address2": "Ste 122", "address3": "", "city": "San Marcos", "zip_code": "92078", "country": "US", "state": "CA", "display_address": ["121 S Las Posas Rd", "Ste 122", "San Marcos, CA 92078"]}, "phone": "+17604717722", "display_phone": "(760) 471-7722", "distance": 12260.878415667554}, {"id": "GvP_tiCFKw25wLcslMXLQQ", "alias": "tomoyama-sushi-carlsbad-2", "name": "Tomoyama Sushi", "image_url": "https://s3-media3.fl.yelpcdn.com/bphoto/WSUDJRwnOtbx3_pvP7uSiA/o.jpg", "is_closed": false, "url": "https://www.yelp.com/biz/tomoyama-sushi-carlsbad-2?adjust_creative=oncXGL2aPIKrtJdnWeFSnA&utm_campaign=yelp_api_v3&utm_medium=api_v3_business_search&utm_source=oncXGL2aPIKrtJdnWeFSnA", "review_count": 442, "categories": [{"alias": "sushi", "title": "Sushi Bars"}, {"alias": "korean", "title": "Korean"}, {"alias": "japanese", "title": "Japanese"}], "rating": 3.5, "coordinates": {"latitude": 33.1042105934461, "longitude": -117.268475714474}, "transactions": [], "price": "$$", "location": {"address1": "6949 El Camino Real", "address2": "Ste 201B", "address3": "", "city": "Carlsbad", "zip_code": "92009", "country": "US", "state": "CA", "display_address": ["6949 El Camino Real", "Ste 201B", "Carlsbad, CA 92009"]}, "phone": "+17609300215", "display_phone": "(760) 930-0215", "distance": 6726.485179058295}, {"id": "qZ_n8ZuP_gJ21D3TOV1sxw", "alias": "its-tabu-sushi-bar-and-grill-san-marcos-2", "name": "It's Tabu Sushi Bar & Grill", "image_url": "https://s3-media2.fl.yelpcdn.com/bphoto/m2S4SOFgduIMtN1N13sJdQ/o.jpg", "is_closed": false, "url": "https://www.yelp.com/biz/its-tabu-sushi-bar-and-grill-san-marcos-2?adjust_creative=oncXGL2aPIKrtJdnWeFSnA&utm_campaign=yelp_api_v3&utm_medium=api_v3_business_search&utm_source=oncXGL2aPIKrtJdnWeFSnA", "review_count": 360, "categories": [{"alias": "sushi", "title": "Sushi Bars"}, {"alias": "japanese", "title": "Japanese"}], "rating": 4.0, "coordinates": {"latitude": 33.1301640846919, "longitude": -117.164995977903}, "transactions": ["delivery", "pickup"], "price": "$$", "location": {"address1": "344 S Twin Oaks Valley Rd", "address2": "Ste 147", "address3": "", "city": "San Marcos", "zip_code": "92078", "country": "US", "state": "CA", "display_address": ["344 S Twin Oaks Valley Rd", "Ste 147", "San Marcos, CA 92078"]}, "phone": "+17605910811", "display_phone": "(760) 591-0811", "distance": 12708.726555243544}, {"id": "r3Hj02rO6sM34zpZcLDf3w", "alias": "sushi-huku-and-robata-san-marcos", "name": "Sushi Huku & Robata", "image_url": "https://s3-media3.fl.yelpcdn.com/bphoto/uZ45nP630I8lFW930qfCxQ/o.jpg", "is_closed": false, "url": "https://www.yelp.com/biz/sushi-huku-and-robata-san-marcos?adjust_creative=oncXGL2aPIKrtJdnWeFSnA&utm_campaign=yelp_api_v3&utm_medium=api_v3_business_search&utm_source=oncXGL2aPIKrtJdnWeFSnA", "review_count": 252, "categories": [{"alias": "japanese", "title": "Japanese"}, {"alias": "sushi", "title": "Sushi Bars"}], "rating": 4.0, "coordinates": {"latitude": 33.1362, "longitude": -117.17955}, "transactions": [], "price": "$$", "location": {"address1": "727 W San Marcos Blvd", "address2": "Ste 105", "address3": "", "city": "San Marcos", "zip_code": "92078", "country": "US", "state": "CA", "display_address": ["727 W San Marcos Blvd", "Ste 105", "San Marcos, CA 92078"]}, "phone": "+17605910353", "display_phone": "(760) 591-0353", "distance": 12284.770314281288}, {"id": "Y4xf6ukX6NQxnn2X-mzINg", "alias": "ichiban-ramen-and-sushi-vista", "name": "Ichiban Ramen & Sushi", "image_url": "https://s3-media4.fl.yelpcdn.com/bphoto/KNtQvFVVsbJJ2DXDDhRl7A/o.jpg", "is_closed": false, "url": "https://www.yelp.com/biz/ichiban-ramen-and-sushi-vista?adjust_creative=oncXGL2aPIKrtJdnWeFSnA&utm_campaign=yelp_api_v3&utm_medium=api_v3_business_search&utm_source=oncXGL2aPIKrtJdnWeFSnA", "review_count": 75, "categories": [{"alias": "sushi", "title": "Sushi Bars"}, {"alias": "ramen", "title": "Ramen"}], "rating": 3.5, "coordinates": {"latitude": 33.1324391820547, "longitude": -117.229636760427}, "transactions": [], "price": "$$", "location": {"address1": "3265 Business Park Dr", "address2": "", "address3": null, "city": "Vista", "zip_code": "92081", "country": "US", "state": "CA", "display_address": ["3265 Business Park Dr", "Vista, CA 92081"]}, "phone": "+17605974015", "display_phone": "(760) 597-4015", "distance": 10003.215671684453}, {"id": "Y3eZHpiai4OMxTVOs4BlvQ", "alias": "sunshine-poke-and-sushi-rolls-oceanside-2", "name": "Sunshine Poke & Sushi Rolls", "image_url": "https://s3-media3.fl.yelpcdn.com/bphoto/0FVp-H7XniqI1ujtGDScaw/o.jpg", "is_closed": false, "url": "https://www.yelp.com/biz/sunshine-poke-and-sushi-rolls-oceanside-2?adjust_creative=oncXGL2aPIKrtJdnWeFSnA&utm_campaign=yelp_api_v3&utm_medium=api_v3_business_search&utm_source=oncXGL2aPIKrtJdnWeFSnA", "review_count": 164, "categories": [{"alias": "japanese", "title": "Japanese"}, {"alias": "sushi", "title": "Sushi Bars"}, {"alias": "poke", "title": "Poke"}], "rating": 4.5, "coordinates": {"latitude": 33.1965995925067, "longitude": -117.379944483127}, "transactions": [], "price": "$", "location": {"address1": "224 N Coast Hwy", "address2": "", "address3": "", "city": "Oceanside", "zip_code": "92054", "country": "US", "state": "CA", "display_address": ["224 N Coast Hwy", "Oceanside, CA 92054"]}, "phone": "+17602315481", "display_phone": "(760) 231-5481", "distance": 20528.38947624985}, {"id": "d0TTL9rUQFJU3cCCcbOisA", "alias": "rising-sun-sushi-harbor-oceanside-3", "name": "Rising Sun Sushi Harbor", "image_url": "https://s3-media4.fl.yelpcdn.com/bphoto/80GEojVcTgjvdk_O5_XQcQ/o.jpg", "is_closed": false, "url": "https://www.yelp.com/biz/rising-sun-sushi-harbor-oceanside-3?adjust_creative=oncXGL2aPIKrtJdnWeFSnA&utm_campaign=yelp_api_v3&utm_medium=api_v3_business_search&utm_source=oncXGL2aPIKrtJdnWeFSnA", "review_count": 133, "categories": [{"alias": "sushi", "title": "Sushi Bars"}], "rating": 4.5, "coordinates": {"latitude": 33.2043955, "longitude": -117.3899619}, "transactions": [], "price": "$$", "location": {"address1": "272 Harbor Dr S", "address2": "", "address3": "", "city": "Oceanside", "zip_code": "92054", "country": "US", "state": "CA", "display_address": ["272 Harbor Dr S", "Oceanside, CA 92054"]}, "phone": "+17602770582", "display_phone": "(760) 277-0582", "distance": 21792.180410375902}, {"id": "GNQ2OBScY0miZg7au4-Kyg", "alias": "sushi-station-san-marcos", "name": "Sushi Station", "image_url": "https://s3-media1.fl.yelpcdn.com/bphoto/pEV5Im3PVZHpOU4bVrgX4A/o.jpg", "is_closed": false, "url": "https://www.yelp.com/biz/sushi-station-san-marcos?adjust_creative=oncXGL2aPIKrtJdnWeFSnA&utm_campaign=yelp_api_v3&utm_medium=api_v3_business_search&utm_source=oncXGL2aPIKrtJdnWeFSnA", "review_count": 165, "categories": [{"alias": "sushi", "title": "Sushi Bars"}, {"alias": "japanese", "title": "Japanese"}], "rating": 3.5, "coordinates": {"latitude": 33.130431, "longitude": -117.209911}, "transactions": [], "price": "$$", "location": {"address1": "1915 W San Marcos Blvd", "address2": "Ste 120", "address3": "", "city": "San Marcos", "zip_code": "92078", "country": "US", "state": "CA", "display_address": ["1915 W San Marcos Blvd", "Ste 120", "San Marcos, CA 92078"]}, "phone": "+17605978911", "display_phone": "(760) 597-8911", "distance": 10373.05824665625}, {"id": "x5isRobcZ7rEhQTywVZT4w", "alias": "little-tokyo-san-diego", "name": "Little Tokyo", "image_url": "https://s3-media2.fl.yelpcdn.com/bphoto/Brlv9QQ_nguBhPm_WKeqbg/o.jpg", "is_closed": false, "url": "https://www.yelp.com/biz/little-tokyo-san-diego?adjust_creative=oncXGL2aPIKrtJdnWeFSnA&utm_campaign=yelp_api_v3&utm_medium=api_v3_business_search&utm_source=oncXGL2aPIKrtJdnWeFSnA", "review_count": 148, "categories": [{"alias": "sushi", "title": "Sushi Bars"}], "rating": 3.5, "coordinates": {"latitude": 32.98088, "longitude": -117.08024}, "transactions": ["pickup"], "price": "$$", "location": {"address1": "11640 Carmel Mountain Rd", "address2": "Ste 122", "address3": "", "city": "San Diego", "zip_code": "92128", "country": "US", "state": "CA", "display_address": ["11640 Carmel Mountain Rd", "Ste 122", "San Diego, CA 92128"]}, "phone": "+18586751468", "display_phone": "(858) 675-1468", "distance": 17598.703056619015}, {"id": "irvRRmo--qh24FlIKQBMUA", "alias": "shogun-japanese-restaurant-san-marcos", "name": "Shogun Japanese Restaurant", "image_url": "https://s3-media1.fl.yelpcdn.com/bphoto/zT9VrsOaOVwIsE2Puv1ksQ/o.jpg", "is_closed": false, "url": "https://www.yelp.com/biz/shogun-japanese-restaurant-san-marcos?adjust_creative=oncXGL2aPIKrtJdnWeFSnA&utm_campaign=yelp_api_v3&utm_medium=api_v3_business_search&utm_source=oncXGL2aPIKrtJdnWeFSnA", "review_count": 306, "categories": [{"alias": "sushi", "title": "Sushi Bars"}, {"alias": "japanese", "title": "Japanese"}], "rating": 3.0, "coordinates": {"latitude": 33.1320728046332, "longitude": -117.207453846931}, "transactions": [], "price": "$$", "location": {"address1": "695 S Rancho Santa Fe Rd", "address2": "", "address3": "", "city": "San Marcos", "zip_code": "92078", "country": "US", "state": "CA", "display_address": ["695 S Rancho Santa Fe Rd", "San Marcos, CA 92078"]}, "phone": "+17607446600", "display_phone": "(760) 744-6600", "distance": 10632.65659590901}, {"id": "LddQBrf2rm6Wdoxgl0G8CQ", "alias": "sushi-kami-san-diego-3", "name": "Sushi Kami", "image_url": "https://s3-media1.fl.yelpcdn.com/bphoto/Ergsz6jeWUZHD55vsQNXXg/o.jpg", "is_closed": false, "url": "https://www.yelp.com/biz/sushi-kami-san-diego-3?adjust_creative=oncXGL2aPIKrtJdnWeFSnA&utm_campaign=yelp_api_v3&utm_medium=api_v3_business_search&utm_source=oncXGL2aPIKrtJdnWeFSnA", "review_count": 128, "categories": [{"alias": "sushi", "title": "Sushi Bars"}, {"alias": "japanese", "title": "Japanese"}], "rating": 4.5, "coordinates": {"latitude": 33.02333, "longitude": -117.08174}, "transactions": [], "price": "$$", "location": {"address1": "11611 Rancho Bernardo Rd", "address2": "", "address3": null, "city": "San Diego", "zip_code": "92127", "country": "US", "state": "CA", "display_address": ["11611 Rancho Bernardo Rd", "San Diego, CA 92127"]}, "phone": "+18584517799", "display_phone": "(858) 451-7799", "distance": 16263.425487967386}, {"id": "mbpH2qqhsc0V37UkY4Hp-g", "alias": "cafe-de-thai-and-sushi-oceanside", "name": "Cafe de Thai & Sushi", "image_url": "https://s3-media1.fl.yelpcdn.com/bphoto/SF215PklAeMmMbdCKXe2Yw/o.jpg", "is_closed": false, "url": "https://www.yelp.com/biz/cafe-de-thai-and-sushi-oceanside?adjust_creative=oncXGL2aPIKrtJdnWeFSnA&utm_campaign=yelp_api_v3&utm_medium=api_v3_business_search&utm_source=oncXGL2aPIKrtJdnWeFSnA", "review_count": 421, "categories": [{"alias": "thai", "title": "Thai"}, {"alias": "sushi", "title": "Sushi Bars"}, {"alias": "japanese", "title": "Japanese"}], "rating": 4.0, "coordinates": {"latitude": 33.207398, "longitude": -117.2852966}, "transactions": [], "price": "$$", "location": {"address1": "4196 Oceanside Blvd", "address2": "", "address3": "", "city": "Oceanside", "zip_code": "92056", "country": "US", "state": "CA", "display_address": ["4196 Oceanside Blvd", "Oceanside, CA 92056"]}, "phone": "+17609455533", "display_phone": "(760) 945-5533", "distance": 18450.573358650887}], "total": 108, "region": {"center": {"longitude": -117.25433349609375, "latitude": 33.04488992556048}}}