{"businesses": [{"id": "5p0Wo1Af2EnQOkkDSbrP_w", "alias": "pho-ever-encinitas", "name": "Pho-Ever", "image_url": "https://s3-media2.fl.yelpcdn.com/bphoto/Rqll9LOS5c8c5TbZ35ycpA/o.jpg", "is_closed": false, "url": "https://www.yelp.com/biz/pho-ever-encinitas?adjust_creative=oncXGL2aPIKrtJdnWeFSnA&utm_campaign=yelp_api_v3&utm_medium=api_v3_business_search&utm_source=oncXGL2aPIKrtJdnWeFSnA", "review_count": 431, "categories": [{"alias": "vietnamese", "title": "Vietnamese"}], "rating": 3.5, "coordinates": {"latitude": 33.047187, "longitude": -117.260351}, "transactions": [], "price": "$", "location": {"address1": "120 N El Camino Real", "address2": null, "address3": "", "city": "Encinitas", "zip_code": "92024", "country": "US", "state": "CA", "display_address": ["120 N El Camino Real", "Encinitas, CA 92024"]}, "phone": "+17604366000", "display_phone": "(760) 436-6000", "distance": 616.2958957446526}, {"id": "SDv30y573hEIby0MojH7cg", "alias": "birdseye-kitchen-encinitas", "name": "Birdseye Kitchen", "image_url": "https://s3-media1.fl.yelpcdn.com/bphoto/cVy-x0Z7y7izRk3FJFFxLw/o.jpg", "is_closed": false, "url": "https://www.yelp.com/biz/birdseye-kitchen-encinitas?adjust_creative=oncXGL2aPIKrtJdnWeFSnA&utm_campaign=yelp_api_v3&utm_medium=api_v3_business_search&utm_source=oncXGL2aPIKrtJdnWeFSnA", "review_count": 344, "categories": [{"alias": "vietnamese", "title": "Vietnamese"}, {"alias": "thai", "title": "Thai"}, {"alias": "asianfusion", "title": "Asian Fusion"}], "rating": 4.0, "coordinates": {"latitude": 33.0591018255092, "longitude": -117.300049330005}, "transactions": [], "price": "$$", "location": {"address1": "540 N Coast Hwy 101", "address2": "", "address3": "", "city": "Encinitas", "zip_code": "92024", "country": "US", "state": "CA", "display_address": ["540 N Coast Hwy 101", "Encinitas, CA 92024"]}, "phone": "+17604790488", "display_phone": "(760) 479-0488", "distance": 4544.373299504886}, {"id": "hVw-g482Eze395Yb3Oie3w", "alias": "kims-vietnamese-encinitas-2", "name": "Kim's Vietnamese", "image_url": "https://s3-media3.fl.yelpcdn.com/bphoto/P35YuW3Ga92OYH32G0_24Q/o.jpg", "is_closed": false, "url": "https://www.yelp.com/biz/kims-vietnamese-encinitas-2?adjust_creative=oncXGL2aPIKrtJdnWeFSnA&utm_campaign=yelp_api_v3&utm_medium=api_v3_business_search&utm_source=oncXGL2aPIKrtJdnWeFSnA", "review_count": 136, "categories": [{"alias": "vietnamese", "title": "Vietnamese"}], "rating": 4.0, "coordinates": {"latitude": 33.0425995, "longitude": -117.2930807}, "transactions": [], "price": "$$", "location": {"address1": "745 S Coast Hwy 101", "address2": "", "address3": "Ste J 103", "city": "Encinitas", "zip_code": "92024", "country": "US", "state": "CA", "display_address": ["745 S Coast Hwy 101", "Ste J 103", "Encinitas, CA 92024"]}, "phone": "+17609424816", "display_phone": "(760) 942-4816", "distance": 3620.577930866083}, {"id": "_EFLbfSqckndpy8e8jDrRg", "alias": "pho-kitchen-san-diego-7", "name": "Pho Kitchen", "image_url": "https://s3-media2.fl.yelpcdn.com/bphoto/Dfom3VyARakXEcfrjDubUw/o.jpg", "is_closed": false, "url": "https://www.yelp.com/biz/pho-kitchen-san-diego-7?adjust_creative=oncXGL2aPIKrtJdnWeFSnA&utm_campaign=yelp_api_v3&utm_medium=api_v3_business_search&utm_source=oncXGL2aPIKrtJdnWeFSnA", "review_count": 18, "categories": [{"alias": "vietnamese", "title": "Vietnamese"}], "rating": 5.0, "coordinates": {"latitude": 32.90623, "longitude": -117.17257}, "transactions": [], "location": {"address1": "6755 Mira Mesa Blvd", "address2": "Ste 144", "address3": null, "city": "San Diego", "zip_code": "92121", "country": "US", "state": "CA", "display_address": ["6755 Mira Mesa Blvd", "Ste 144", "San Diego, CA 92121"]}, "phone": "+18582466545", "display_phone": "(858) 246-6545", "distance": 17229.241712798022}, {"id": "OL3IptoQz-ONWsUFzVAZJw", "alias": "banh-mi-san-marcos-san-marcos-2", "name": "Banh Mi San Marcos", "image_url": "https://s3-media3.fl.yelpcdn.com/bphoto/BPHgA-ZAIivTsP8zrbroBg/o.jpg", "is_closed": false, "url": "https://www.yelp.com/biz/banh-mi-san-marcos-san-marcos-2?adjust_creative=oncXGL2aPIKrtJdnWeFSnA&utm_campaign=yelp_api_v3&utm_medium=api_v3_business_search&utm_source=oncXGL2aPIKrtJdnWeFSnA", "review_count": 317, "categories": [{"alias": "vietnamese", "title": "Vietnamese"}, {"alias": "sandwiches", "title": "Sandwiches"}], "rating": 4.5, "coordinates": {"latitude": 33.1328075623869, "longitude": -117.207942008972}, "transactions": [], "price": "$", "location": {"address1": "706 S Rancho Santa Fe Rd", "address2": "", "address3": "", "city": "San Marcos", "zip_code": "92078", "country": "US", "state": "CA", "display_address": ["706 S Rancho Santa Fe Rd", "San Marcos, CA 92078"]}, "phone": "+17605990177", "display_phone": "(760) 599-0177", "distance": 10688.723000002368}, {"id": "VmRgFAKK2O6-usofDrP1yw", "alias": "le-bambou-del-mar-2", "name": "Le Bambou", "image_url": "https://s3-media3.fl.yelpcdn.com/bphoto/5aOk9q7tgraxAkD13LbnSQ/o.jpg", "is_closed": false, "url": "https://www.yelp.com/biz/le-bambou-del-mar-2?adjust_creative=oncXGL2aPIKrtJdnWeFSnA&utm_campaign=yelp_api_v3&utm_medium=api_v3_business_search&utm_source=oncXGL2aPIKrtJdnWeFSnA", "review_count": 163, "categories": [{"alias": "vietnamese", "title": "Vietnamese"}, {"alias": "seafood", "title": "Seafood"}, {"alias": "beer_and_wine", "title": "Beer, Wine & Spirits"}], "rating": 4.0, "coordinates": {"latitude": 32.9511390334504, "longitude": -117.246069112845}, "transactions": [], "price": "$$", "location": {"address1": "2634 Del Mar Heights Rd", "address2": "", "address3": "", "city": "Del Mar", "zip_code": "92014", "country": "US", "state": "CA", "display_address": ["2634 Del Mar Heights Rd", "Del Mar, CA 92014"]}, "phone": "+18582598138", "display_phone": "(858) 259-8138", "distance": 10453.063816537991}, {"id": "qjXNuyX2H7TE_-yUzAeRRg", "alias": "tp-banh-bao-3-san-diego-4", "name": "TP Banh Bao 3", "image_url": "https://s3-media3.fl.yelpcdn.com/bphoto/LooR0Ih_H3GLdE504rSLsA/o.jpg", "is_closed": false, "url": "https://www.yelp.com/biz/tp-banh-bao-3-san-diego-4?adjust_creative=oncXGL2aPIKrtJdnWeFSnA&utm_campaign=yelp_api_v3&utm_medium=api_v3_business_search&utm_source=oncXGL2aPIKrtJdnWeFSnA", "review_count": 104, "categories": [{"alias": "vietnamese", "title": "Vietnamese"}], "rating": 4.0, "coordinates": {"latitude": 32.92676, "longitude": -117.14315}, "transactions": [], "price": "$", "location": {"address1": "11271 Camino Ruiz", "address2": "", "address3": null, "city": "San Diego", "zip_code": "92126", "country": "US", "state": "CA", "display_address": ["11271 Camino Ruiz", "San Diego, CA 92126"]}, "phone": "+18588605226", "display_phone": "(858) 860-5226", "distance": 16727.002361287243}, {"id": "wUJnAuPUjwOK-9gnhdK_nw", "alias": "pho-ever-vista-4", "name": "Pho-Ever", "image_url": "https://s3-media4.fl.yelpcdn.com/bphoto/6_0pLGUEThdzzAYUfXqexg/o.jpg", "is_closed": false, "url": "https://www.yelp.com/biz/pho-ever-vista-4?adjust_creative=oncXGL2aPIKrtJdnWeFSnA&utm_campaign=yelp_api_v3&utm_medium=api_v3_business_search&utm_source=oncXGL2aPIKrtJdnWeFSnA", "review_count": 732, "categories": [{"alias": "vietnamese", "title": "Vietnamese"}], "rating": 4.0, "coordinates": {"latitude": 33.188533782959, "longitude": -117.254333496094}, "transactions": [], "price": "$", "location": {"address1": "485 S Melrose Dr", "address2": "Ste 106", "address3": "", "city": "Vista", "zip_code": "92081", "country": "US", "state": "CA", "display_address": ["485 S Melrose Dr", "Ste 106", "Vista, CA 92081"]}, "phone": "+17606303837", "display_phone": "(760) 630-3837", "distance": 15965.363044706733}, {"id": "HTHCPCLeQnOhszY_5PV_XA", "alias": "pho-bowl-and-grill-oceanside", "name": "Pho Bowl & Grill", "image_url": "https://s3-media3.fl.yelpcdn.com/bphoto/enNoxkk0TBtlQLicDpSYbQ/o.jpg", "is_closed": false, "url": "https://www.yelp.com/biz/pho-bowl-and-grill-oceanside?adjust_creative=oncXGL2aPIKrtJdnWeFSnA&utm_campaign=yelp_api_v3&utm_medium=api_v3_business_search&utm_source=oncXGL2aPIKrtJdnWeFSnA", "review_count": 15, "categories": [{"alias": "vietnamese", "title": "Vietnamese"}, {"alias": "vegetarian", "title": "Vegetarian"}], "rating": 3.5, "coordinates": {"latitude": 33.1997799, "longitude": -117.37539}, "transactions": [], "location": {"address1": "1006 Mission Ave", "address2": "Ste C", "address3": "", "city": "Oceanside", "zip_code": "92054", "country": "US", "state": "CA", "display_address": ["1006 Mission Ave", "Ste C", "Oceanside, CA 92054"]}, "phone": "+17604532999", "display_phone": "(760) 453-2999", "distance": 20568.275253145406}, {"id": "Oeh6x7EZJWw7dpezf1tEOg", "alias": "pho-guys-vista", "name": "Pho Guys", "image_url": "https://s3-media2.fl.yelpcdn.com/bphoto/XL94utqXIeuineW-QtHbEA/o.jpg", "is_closed": false, "url": "https://www.yelp.com/biz/pho-guys-vista?adjust_creative=oncXGL2aPIKrtJdnWeFSnA&utm_campaign=yelp_api_v3&utm_medium=api_v3_business_search&utm_source=oncXGL2aPIKrtJdnWeFSnA", "review_count": 278, "categories": [{"alias": "vietnamese", "title": "Vietnamese"}], "rating": 5.0, "coordinates": {"latitude": 33.1862970543714, "longitude": -117.281164032102}, "transactions": ["delivery", "pickup"], "price": "$", "location": {"address1": "1876 Hacienda Dr", "address2": "", "address3": null, "city": "Vista", "zip_code": "92081", "country": "US", "state": "CA", "display_address": ["1876 Hacienda Dr", "Vista, CA 92081"]}, "phone": "+17605607257", "display_phone": "(760) 560-7257", "distance": 15921.056097214125}, {"id": "Bjb3E8L8qAcD6SKR2yyxHg", "alias": "chefs-pho-and-grill-san-marcos", "name": "Chef's Pho & Grill", "image_url": "https://s3-media3.fl.yelpcdn.com/bphoto/QOY8OreLPyUefjiQS1e7RQ/o.jpg", "is_closed": false, "url": "https://www.yelp.com/biz/chefs-pho-and-grill-san-marcos?adjust_creative=oncXGL2aPIKrtJdnWeFSnA&utm_campaign=yelp_api_v3&utm_medium=api_v3_business_search&utm_source=oncXGL2aPIKrtJdnWeFSnA", "review_count": 262, "categories": [{"alias": "vietnamese", "title": "Vietnamese"}, {"alias": "soup", "title": "Soup"}], "rating": 4.0, "coordinates": {"latitude": 33.1292519178723, "longitude": -117.165098078549}, "transactions": [], "price": "$", "location": {"address1": "324 S Twin Oaks Valley Rd", "address2": "Ste 130", "address3": null, "city": "San Marcos", "zip_code": "92078", "country": "US", "state": "CA", "display_address": ["324 S Twin Oaks Valley Rd", "Ste 130", "San Marcos, CA 92078"]}, "phone": "+17607446789", "display_phone": "(760) 744-6789", "distance": 12534.359603737386}, {"id": "BofHtsi15Hmv6eu_nlApBQ", "alias": "andells-bakery-san-diego", "name": "Andell's Bakery", "image_url": "https://s3-media4.fl.yelpcdn.com/bphoto/FtdgazrIWJ_qlfSnT0NoGg/o.jpg", "is_closed": false, "url": "https://www.yelp.com/biz/andells-bakery-san-diego?adjust_creative=oncXGL2aPIKrtJdnWeFSnA&utm_campaign=yelp_api_v3&utm_medium=api_v3_business_search&utm_source=oncXGL2aPIKrtJdnWeFSnA", "review_count": 64, "categories": [{"alias": "bakeries", "title": "Bakeries"}, {"alias": "vietnamese", "title": "Vietnamese"}, {"alias": "filipino", "title": "Filipino"}], "rating": 4.5, "coordinates": {"latitude": 32.96147, "longitude": -117.114133}, "transactions": [], "price": "$", "location": {"address1": "9926 Carmel Mountain Rd", "address2": "Ste F", "address3": "", "city": "San Diego", "zip_code": "92129", "country": "US", "state": "CA", "display_address": ["9926 Carmel Mountain Rd", "Ste F", "San Diego, CA 92129"]}, "phone": "+18585388308", "display_phone": "(858) 538-8308", "distance": 16030.347235132242}, {"id": "R0Zgcp0PZfOaXh-PEa9Mng", "alias": "pho-truc-xanh-escondido", "name": "Pho Truc Xanh", "image_url": "https://s3-media4.fl.yelpcdn.com/bphoto/71Z4dwkLY1ZEA7WELil1dA/o.jpg", "is_closed": false, "url": "https://www.yelp.com/biz/pho-truc-xanh-escondido?adjust_creative=oncXGL2aPIKrtJdnWeFSnA&utm_campaign=yelp_api_v3&utm_medium=api_v3_business_search&utm_source=oncXGL2aPIKrtJdnWeFSnA", "review_count": 940, "categories": [{"alias": "vietnamese", "title": "Vietnamese"}, {"alias": "chinese", "title": "Chinese"}], "rating": 4.5, "coordinates": {"latitude": 33.127895, "longitude": -117.091797}, "transactions": [], "price": "$", "location": {"address1": "503 W Mission Ave", "address2": "", "address3": "", "city": "Escondido", "zip_code": "92025", "country": "US", "state": "CA", "display_address": ["503 W Mission Ave", "Escondido, CA 92025"]}, "phone": "+17604898201", "display_phone": "(760) 489-8201", "distance": 17734.87579756556}, {"id": "ODCswZHB0VDbzj0y6lK8RA", "alias": "pho-ca-dao-san-diego", "name": "Pho Ca Dao", "image_url": "https://s3-media2.fl.yelpcdn.com/bphoto/ZBt0RKDbt_2RiyoOwXxrjw/o.jpg", "is_closed": false, "url": "https://www.yelp.com/biz/pho-ca-dao-san-diego?adjust_creative=oncXGL2aPIKrtJdnWeFSnA&utm_campaign=yelp_api_v3&utm_medium=api_v3_business_search&utm_source=oncXGL2aPIKrtJdnWeFSnA", "review_count": 1620, "categories": [{"alias": "vietnamese", "title": "Vietnamese"}], "rating": 4.0, "coordinates": {"latitude": 32.9124644314834, "longitude": -117.143097929657}, "transactions": [], "price": "$", "location": {"address1": "8373 Mira Mesa Blvd", "address2": null, "address3": "", "city": "San Diego", "zip_code": "92126", "country": "US", "state": "CA", "display_address": ["8373 Mira Mesa Blvd", "San Diego, CA 92126"]}, "phone": "+18585640917", "display_phone": "(858) 564-0917", "distance": 18013.465878622443}, {"id": "PmKT6_qos-hcis5IL89X3A", "alias": "pho-kitchen-oceanside-2", "name": "Pho Kitchen", "image_url": "https://s3-media1.fl.yelpcdn.com/bphoto/t5N0Gv3slh2J038yTRFjKw/o.jpg", "is_closed": false, "url": "https://www.yelp.com/biz/pho-kitchen-oceanside-2?adjust_creative=oncXGL2aPIKrtJdnWeFSnA&utm_campaign=yelp_api_v3&utm_medium=api_v3_business_search&utm_source=oncXGL2aPIKrtJdnWeFSnA", "review_count": 330, "categories": [{"alias": "vietnamese", "title": "Vietnamese"}], "rating": 4.5, "coordinates": {"latitude": 33.2058763612272, "longitude": -117.28825673461}, "transactions": [], "price": "$", "location": {"address1": "4121 Oceanside Blvd", "address2": "", "address3": "", "city": "Oceanside", "zip_code": "92056", "country": "US", "state": "CA", "display_address": ["4121 Oceanside Blvd", "Oceanside, CA 92056"]}, "phone": "+17602955445", "display_phone": "(760) 295-5445", "distance": 18177.4613988046}, {"id": "7m_Vve98CiTJqrqVe7Nu0A", "alias": "pho-oceanside-oceanside", "name": "Pho Oceanside", "image_url": "https://s3-media2.fl.yelpcdn.com/bphoto/d4Rl0ULDmmHYrx6iOCMJsw/o.jpg", "is_closed": false, "url": "https://www.yelp.com/biz/pho-oceanside-oceanside?adjust_creative=oncXGL2aPIKrtJdnWeFSnA&utm_campaign=yelp_api_v3&utm_medium=api_v3_business_search&utm_source=oncXGL2aPIKrtJdnWeFSnA", "review_count": 507, "categories": [{"alias": "vietnamese", "title": "Vietnamese"}], "rating": 4.0, "coordinates": {"latitude": 33.1843375867943, "longitude": -117.369014641}, "transactions": [], "price": "$", "location": {"address1": "518 Oceanside Blvd", "address2": "Ste 107-110", "address3": "", "city": "Oceanside", "zip_code": "92054", "country": "US", "state": "CA", "display_address": ["518 Oceanside Blvd", "Ste 107-110", "Oceanside, CA 92054"]}, "phone": "+17607542828", "display_phone": "(760) 754-2828", "distance": 18828.44184287712}, {"id": "Zzr4-A8jRd5PLLp3clOj9A", "alias": "shallot-asian-cuisine-san-diego-2", "name": "Shallot Asian Cuisine", "image_url": "https://s3-media3.fl.yelpcdn.com/bphoto/wv_z6YRXS5aOXCmNZPKQuw/o.jpg", "is_closed": false, "url": "https://www.yelp.com/biz/shallot-asian-cuisine-san-diego-2?adjust_creative=oncXGL2aPIKrtJdnWeFSnA&utm_campaign=yelp_api_v3&utm_medium=api_v3_business_search&utm_source=oncXGL2aPIKrtJdnWeFSnA", "review_count": 273, "categories": [{"alias": "vietnamese", "title": "Vietnamese"}, {"alias": "vegetarian", "title": "Vegetarian"}], "rating": 4.0, "coordinates": {"latitude": 32.8910053, "longitude": -117.2017326}, "transactions": ["delivery"], "price": "$", "location": {"address1": "9254 Scranton Rd", "address2": "Ste 106", "address3": "", "city": "San Diego", "zip_code": "92121", "country": "US", "state": "CA", "display_address": ["9254 Scranton Rd", "Ste 106", "San Diego, CA 92121"]}, "phone": "+18586250480", "display_phone": "(858) 625-0480", "distance": 17800.89771005973}, {"id": "2Mwu0pGf7MXCJPHz4SsAAQ", "alias": "nd-banh-mi-oceanside-2", "name": "ND Banh Mi", "image_url": "https://s3-media2.fl.yelpcdn.com/bphoto/iW10cNe9Qgq-iRSM1mAojA/o.jpg", "is_closed": false, "url": "https://www.yelp.com/biz/nd-banh-mi-oceanside-2?adjust_creative=oncXGL2aPIKrtJdnWeFSnA&utm_campaign=yelp_api_v3&utm_medium=api_v3_business_search&utm_source=oncXGL2aPIKrtJdnWeFSnA", "review_count": 275, "categories": [{"alias": "bubbletea", "title": "Bubble Tea"}, {"alias": "bakeries", "title": "Bakeries"}, {"alias": "vietnamese", "title": "Vietnamese"}], "rating": 4.5, "coordinates": {"latitude": 33.2078605151782, "longitude": -117.286571636796}, "transactions": [], "price": "$", "location": {"address1": "4160 Oceanside Blvd", "address2": "Ste 169", "address3": "", "city": "Oceanside", "zip_code": "92056", "country": "US", "state": "CA", "display_address": ["4160 Oceanside Blvd", "Ste 169", "Oceanside, CA 92056"]}, "phone": "+17607264650", "display_phone": "(760) 726-4650", "distance": 18368.467708414144}, {"id": "E_7aL7hgLrR9YhMUDv-JjQ", "alias": "pho-house-and-grill-carlsbad-2", "name": "Pho House & Grill", "image_url": "https://s3-media3.fl.yelpcdn.com/bphoto/jlSgGZGPhPthJBD2RsGEDA/o.jpg", "is_closed": false, "url": "https://www.yelp.com/biz/pho-house-and-grill-carlsbad-2?adjust_creative=oncXGL2aPIKrtJdnWeFSnA&utm_campaign=yelp_api_v3&utm_medium=api_v3_business_search&utm_source=oncXGL2aPIKrtJdnWeFSnA", "review_count": 73, "categories": [{"alias": "vietnamese", "title": "Vietnamese"}], "rating": 3.5, "coordinates": {"latitude": 33.13105, "longitude": -117.26056}, "transactions": [], "price": "$", "location": {"address1": "2708 Loker Ave W", "address2": "Ste B107", "address3": "", "city": "Carlsbad", "zip_code": "92010", "country": "US", "state": "CA", "display_address": ["2708 Loker Ave W", "Ste B107", "Carlsbad, CA 92010"]}, "phone": "+17608142711", "display_phone": "(760) 814-2711", "distance": 9613.786634878466}, {"id": "xHC_I6WOxB6Og5IEFQIM4Q", "alias": "tim-ky-noodle-san-diego", "name": "Tim Ky Noodle", "image_url": "https://s3-media4.fl.yelpcdn.com/bphoto/E9IOokkuLZu-ff5F77_vOA/o.jpg", "is_closed": false, "url": "https://www.yelp.com/biz/tim-ky-noodle-san-diego?adjust_creative=oncXGL2aPIKrtJdnWeFSnA&utm_campaign=yelp_api_v3&utm_medium=api_v3_business_search&utm_source=oncXGL2aPIKrtJdnWeFSnA", "review_count": 359, "categories": [{"alias": "vietnamese", "title": "Vietnamese"}, {"alias": "chinese", "title": "Chinese"}, {"alias": "noodles", "title": "Noodles"}], "rating": 4.0, "coordinates": {"latitude": 32.918898, "longitude": -117.1236}, "transactions": [], "price": "$", "location": {"address1": "9330 Mira Mesa Blvd", "address2": "Ste A", "address3": "", "city": "San Diego", "zip_code": "92126", "country": "US", "state": "CA", "display_address": ["9330 Mira Mesa Blvd", "Ste A", "San Diego, CA 92126"]}, "phone": "+18582718887", "display_phone": "(858) 271-8887", "distance": 18573.3030315029}, {"id": "C-4zMalSJQDohK6_CXa8cQ", "alias": "pho-ca-dao-and-grill-san-diego-2", "name": "Pho Ca Dao & Grill", "image_url": "https://s3-media2.fl.yelpcdn.com/bphoto/wnepy6OpzMT65EK57KQKqA/o.jpg", "is_closed": false, "url": "https://www.yelp.com/biz/pho-ca-dao-and-grill-san-diego-2?adjust_creative=oncXGL2aPIKrtJdnWeFSnA&utm_campaign=yelp_api_v3&utm_medium=api_v3_business_search&utm_source=oncXGL2aPIKrtJdnWeFSnA", "review_count": 958, "categories": [{"alias": "vietnamese", "title": "Vietnamese"}, {"alias": "comfortfood", "title": "Comfort Food"}], "rating": 4.0, "coordinates": {"latitude": 33.023185162219, "longitude": -117.07648650917}, "transactions": [], "price": "$", "location": {"address1": "11808 Rancho Bernardo Rd", "address2": "Ste 100", "address3": "", "city": "San Diego", "zip_code": "92128", "country": "US", "state": "CA", "display_address": ["11808 Rancho Bernardo Rd", "Ste 100", "San Diego, CA 92128"]}, "phone": "+18584518820", "display_phone": "(858) 451-8820", "distance": 16753.60878186461}, {"id": "Iba2A54mdfh4YwAi7mKbxg", "alias": "kt-food-to-go-san-diego-2", "name": "KT Food To Go", "image_url": "https://s3-media2.fl.yelpcdn.com/bphoto/8BhHyeghrZ8o8-xpwhVpiA/o.jpg", "is_closed": false, "url": "https://www.yelp.com/biz/kt-food-to-go-san-diego-2?adjust_creative=oncXGL2aPIKrtJdnWeFSnA&utm_campaign=yelp_api_v3&utm_medium=api_v3_business_search&utm_source=oncXGL2aPIKrtJdnWeFSnA", "review_count": 14, "categories": [{"alias": "vietnamese", "title": "Vietnamese"}], "rating": 5.0, "coordinates": {"latitude": 32.90924, "longitude": -117.14554}, "transactions": [], "price": "$", "location": {"address1": "10550 Camino Ruiz", "address2": "Ste E", "address3": null, "city": "San Diego", "zip_code": "92126", "country": "US", "state": "CA", "display_address": ["10550 Camino Ruiz", "Ste E", "San Diego, CA 92126"]}, "phone": "+18588605339", "display_phone": "(858) 860-5339", "distance": 18179.6889878922}, {"id": "Y9A_at-A0byoOdhN8iBcrQ", "alias": "pho-cow-cali-express-san-diego", "name": "Pho Cow Cali Express", "image_url": "https://s3-media3.fl.yelpcdn.com/bphoto/GlHGQ1D2Bql9HU04Sn5ikw/o.jpg", "is_closed": false, "url": "https://www.yelp.com/biz/pho-cow-cali-express-san-diego?adjust_creative=oncXGL2aPIKrtJdnWeFSnA&utm_campaign=yelp_api_v3&utm_medium=api_v3_business_search&utm_source=oncXGL2aPIKrtJdnWeFSnA", "review_count": 1179, "categories": [{"alias": "vietnamese", "title": "Vietnamese"}], "rating": 4.0, "coordinates": {"latitude": 32.918305, "longitude": -117.12633}, "transactions": [], "price": "$", "location": {"address1": "9170 Mira Mesa Blvd", "address2": "", "address3": "", "city": "San Diego", "zip_code": "92126", "country": "US", "state": "CA", "display_address": ["9170 Mira Mesa Blvd", "San Diego, CA 92126"]}, "phone": "+18582718341", "display_phone": "(858) 271-8341", "distance": 18457.38425452162}, {"id": "c_LAUYCPgt9J62EH69E26g", "alias": "pho-lucky-vista", "name": "Pho Lucky", "image_url": "https://s3-media2.fl.yelpcdn.com/bphoto/2xD6sohoUyYFMALLdAfzvQ/o.jpg", "is_closed": false, "url": "https://www.yelp.com/biz/pho-lucky-vista?adjust_creative=oncXGL2aPIKrtJdnWeFSnA&utm_campaign=yelp_api_v3&utm_medium=api_v3_business_search&utm_source=oncXGL2aPIKrtJdnWeFSnA", "review_count": 319, "categories": [{"alias": "vietnamese", "title": "Vietnamese"}], "rating": 4.0, "coordinates": {"latitude": 33.163441125254, "longitude": -117.219588403705}, "transactions": ["delivery", "pickup"], "price": "$", "location": {"address1": "770 Sycamore Ave", "address2": "", "address3": "", "city": "Vista", "zip_code": "92083", "country": "US", "state": "CA", "display_address": ["770 Sycamore Ave", "Vista, CA 92083"]}, "phone": "+17607272738", "display_phone": "(760) 727-2738", "distance": 13573.739126117538}, {"id": "t6u3bXS9Vj8TmVTur6OblQ", "alias": "mr-pho-oceanside", "name": "Mr Pho", "image_url": "https://s3-media4.fl.yelpcdn.com/bphoto/PWB5tw5yqJapoI5HCUFAKw/o.jpg", "is_closed": false, "url": "https://www.yelp.com/biz/mr-pho-oceanside?adjust_creative=oncXGL2aPIKrtJdnWeFSnA&utm_campaign=yelp_api_v3&utm_medium=api_v3_business_search&utm_source=oncXGL2aPIKrtJdnWeFSnA", "review_count": 284, "categories": [{"alias": "vietnamese", "title": "Vietnamese"}], "rating": 4.0, "coordinates": {"latitude": 33.2167206, "longitude": -117.2717285}, "transactions": [], "price": "$", "location": {"address1": "4750 Oceanside Blvd", "address2": "", "address3": "", "city": "Oceanside", "zip_code": "92056", "country": "US", "state": "CA", "display_address": ["4750 Oceanside Blvd", "Oceanside, CA 92056"]}, "phone": "+17609401306", "display_phone": "(760) 940-1306", "distance": 19152.86778542857}, {"id": "1ZflRsr-3BuNgQel1GHCQQ", "alias": "pho-saigon-express-escondido", "name": "Pho Saigon Express", "image_url": "https://s3-media1.fl.yelpcdn.com/bphoto/gBLX--Q607TSLMtCef5Ong/o.jpg", "is_closed": false, "url": "https://www.yelp.com/biz/pho-saigon-express-escondido?adjust_creative=oncXGL2aPIKrtJdnWeFSnA&utm_campaign=yelp_api_v3&utm_medium=api_v3_business_search&utm_source=oncXGL2aPIKrtJdnWeFSnA", "review_count": 659, "categories": [{"alias": "vietnamese", "title": "Vietnamese"}, {"alias": "chinese", "title": "Chinese"}, {"alias": "vegetarian", "title": "Vegetarian"}], "rating": 4.5, "coordinates": {"latitude": 33.126807, "longitude": -117.084974}, "transactions": ["pickup"], "price": "$", "location": {"address1": "605 N Broadway", "address2": null, "address3": "", "city": "Escondido", "zip_code": "92025", "country": "US", "state": "CA", "display_address": ["605 N Broadway", "Escondido, CA 92025"]}, "phone": "+17607464669", "display_phone": "(760) 746-4669", "distance": 18218.842699609115}, {"id": "sNuWvfncEdsUR_OyJ4fRGg", "alias": "saigon-to-go-san-diego", "name": "Saigon To Go", "image_url": "https://s3-media3.fl.yelpcdn.com/bphoto/ueQC87-9-ZOdjsQFm4iZwQ/o.jpg", "is_closed": false, "url": "https://www.yelp.com/biz/saigon-to-go-san-diego?adjust_creative=oncXGL2aPIKrtJdnWeFSnA&utm_campaign=yelp_api_v3&utm_medium=api_v3_business_search&utm_source=oncXGL2aPIKrtJdnWeFSnA", "review_count": 58, "categories": [{"alias": "vietnamese", "title": "Vietnamese"}], "rating": 4.0, "coordinates": {"latitude": 32.9145903101316, "longitude": -117.14663811028}, "transactions": ["delivery", "pickup"], "price": "$", "location": {"address1": "8240 Mira Mesa Blvd", "address2": "", "address3": null, "city": "San Diego", "zip_code": "92126", "country": "US", "state": "CA", "display_address": ["8240 Mira Mesa Blvd", "San Diego, CA 92126"]}, "phone": "+18588605244", "display_phone": "(858) 860-5244", "distance": 17630.461597530968}, {"id": "p9oELCyIzHca9cke7VCmfA", "alias": "ninja-kitchen-carlsbad-2", "name": "Ninja Kitchen", "image_url": "https://s3-media4.fl.yelpcdn.com/bphoto/fYT8GKgIptr_GqMvp97HIw/o.jpg", "is_closed": false, "url": "https://www.yelp.com/biz/ninja-kitchen-carlsbad-2?adjust_creative=oncXGL2aPIKrtJdnWeFSnA&utm_campaign=yelp_api_v3&utm_medium=api_v3_business_search&utm_source=oncXGL2aPIKrtJdnWeFSnA", "review_count": 17, "categories": [{"alias": "vietnamese", "title": "Vietnamese"}, {"alias": "sandwiches", "title": "Sandwiches"}], "rating": 3.5, "coordinates": {"latitude": 33.126252, "longitude": -117.311924}, "transactions": [], "price": "$$", "location": {"address1": "1 Legoland Dr", "address2": "", "address3": "", "city": "Carlsbad", "zip_code": "92008", "country": "US", "state": "CA", "display_address": ["1 Legoland Dr", "Carlsbad, CA 92008"]}, "phone": "+17609185346", "display_phone": "(760) 918-5346", "distance": 10518.40300717111}, {"id": "wGJJi6enDpzj1WzVsmhrug", "alias": "pho-4-queen-san-marcos", "name": "Pho 4 Queen", "image_url": "https://s3-media2.fl.yelpcdn.com/bphoto/HxAIuDYYsYGTqmLcxFVnHg/o.jpg", "is_closed": false, "url": "https://www.yelp.com/biz/pho-4-queen-san-marcos?adjust_creative=oncXGL2aPIKrtJdnWeFSnA&utm_campaign=yelp_api_v3&utm_medium=api_v3_business_search&utm_source=oncXGL2aPIKrtJdnWeFSnA", "review_count": 182, "categories": [{"alias": "vietnamese", "title": "Vietnamese"}, {"alias": "chinese", "title": "Chinese"}, {"alias": "soup", "title": "Soup"}], "rating": 4.0, "coordinates": {"latitude": 33.1471976, "longitude": -117.1995141}, "transactions": ["pickup"], "price": "$", "location": {"address1": "159 S Rancho Santa Fe Rd", "address2": "", "address3": "", "city": "San Marcos", "zip_code": "92078", "country": "US", "state": "CA", "display_address": ["159 S Rancho Santa Fe Rd", "San Marcos, CA 92078"]}, "phone": "+17604712572", "display_phone": "(760) 471-2572", "distance": 12448.504711428655}, {"id": "WWjIcLS6-q5g9ceS_YRuvw", "alias": "tasty-pho-vista", "name": "Tasty Pho", "image_url": "https://s3-media1.fl.yelpcdn.com/bphoto/7EXGdqiUCsvg3XaNB01Avg/o.jpg", "is_closed": false, "url": "https://www.yelp.com/biz/tasty-pho-vista?adjust_creative=oncXGL2aPIKrtJdnWeFSnA&utm_campaign=yelp_api_v3&utm_medium=api_v3_business_search&utm_source=oncXGL2aPIKrtJdnWeFSnA", "review_count": 157, "categories": [{"alias": "vietnamese", "title": "Vietnamese"}, {"alias": "asianfusion", "title": "Asian Fusion"}], "rating": 4.5, "coordinates": {"latitude": 33.1866226196289, "longitude": -117.224250793457}, "transactions": [], "price": "$", "location": {"address1": "1250 S Santa Fe Ave", "address2": "Ste K", "address3": "", "city": "Vista", "zip_code": "92084", "country": "US", "state": "CA", "display_address": ["1250 S Santa Fe Ave", "Ste K", "Vista, CA 92084"]}, "phone": "+17606315900", "display_phone": "(760) 631-5900", "distance": 16034.27064837188}, {"id": "pS3QMgUeJJAEScdtpkvYwQ", "alias": "bolsa-vietnamese-restaurant-san-diego-2", "name": "Bolsa Vietnamese Restaurant", "image_url": "https://s3-media2.fl.yelpcdn.com/bphoto/NbtSeAzvfQZLrCLhEocWJg/o.jpg", "is_closed": false, "url": "https://www.yelp.com/biz/bolsa-vietnamese-restaurant-san-diego-2?adjust_creative=oncXGL2aPIKrtJdnWeFSnA&utm_campaign=yelp_api_v3&utm_medium=api_v3_business_search&utm_source=oncXGL2aPIKrtJdnWeFSnA", "review_count": 259, "categories": [{"alias": "vietnamese", "title": "Vietnamese"}], "rating": 4.0, "coordinates": {"latitude": 32.91672, "longitude": -117.1259}, "transactions": [], "price": "$", "location": {"address1": "9225 Mira Mesa Blvd", "address2": "Ste 118", "address3": "", "city": "San Diego", "zip_code": "92126", "country": "US", "state": "CA", "display_address": ["9225 Mira Mesa Blvd", "Ste 118", "San Diego, CA 92126"]}, "phone": "+18586933663", "display_phone": "(858) 693-3663", "distance": 18636.647348265094}, {"id": "0PJ6xIShOaj1erA43l_gfw", "alias": "son-tra-sandwiches-escondido-2", "name": "Son Tra Sandwiches", "image_url": "https://s3-media4.fl.yelpcdn.com/bphoto/_Cj-pV7q1vJPVmqmz2gw6w/o.jpg", "is_closed": false, "url": "https://www.yelp.com/biz/son-tra-sandwiches-escondido-2?adjust_creative=oncXGL2aPIKrtJdnWeFSnA&utm_campaign=yelp_api_v3&utm_medium=api_v3_business_search&utm_source=oncXGL2aPIKrtJdnWeFSnA", "review_count": 78, "categories": [{"alias": "sandwiches", "title": "Sandwiches"}, {"alias": "vietnamese", "title": "Vietnamese"}, {"alias": "noodles", "title": "Noodles"}], "rating": 4.5, "coordinates": {"latitude": 33.12868, "longitude": -117.0717}, "transactions": [], "price": "$", "location": {"address1": "840 E Valley Pkwy", "address2": null, "address3": "", "city": "Escondido", "zip_code": "92025", "country": "US", "state": "CA", "display_address": ["840 E Valley Pkwy", "Escondido, CA 92025"]}, "phone": "+17602946995", "display_phone": "(760) 294-6995", "distance": 19379.806802633815}, {"id": "0ZKq2w1vwmXHyw5W9u8KBA", "alias": "pho-ban-mai-san-diego", "name": "Pho Ban Mai", "image_url": "https://s3-media4.fl.yelpcdn.com/bphoto/LXWkFdBrbq4ydxXD1nYCdw/o.jpg", "is_closed": false, "url": "https://www.yelp.com/biz/pho-ban-mai-san-diego?adjust_creative=oncXGL2aPIKrtJdnWeFSnA&utm_campaign=yelp_api_v3&utm_medium=api_v3_business_search&utm_source=oncXGL2aPIKrtJdnWeFSnA", "review_count": 622, "categories": [{"alias": "vietnamese", "title": "Vietnamese"}], "rating": 3.5, "coordinates": {"latitude": 32.91458, "longitude": -117.13031}, "transactions": [], "price": "$", "location": {"address1": "8991 Mira Mesa Blvd", "address2": null, "address3": "", "city": "San Diego", "zip_code": "92126", "country": "US", "state": "CA", "display_address": ["8991 Mira Mesa Blvd", "San Diego, CA 92126"]}, "phone": "+18582717199", "display_phone": "(858) 271-7199", "distance": 18567.29562373802}, {"id": "aD9nPz6Bh_se4oAKGNQgOw", "alias": "pho-lee-escondido", "name": "Pho Lee", "image_url": "https://s3-media3.fl.yelpcdn.com/bphoto/Ufokb59AsNva5PwCmR3LPw/o.jpg", "is_closed": false, "url": "https://www.yelp.com/biz/pho-lee-escondido?adjust_creative=oncXGL2aPIKrtJdnWeFSnA&utm_campaign=yelp_api_v3&utm_medium=api_v3_business_search&utm_source=oncXGL2aPIKrtJdnWeFSnA", "review_count": 169, "categories": [{"alias": "vietnamese", "title": "Vietnamese"}], "rating": 4.5, "coordinates": {"latitude": 33.1353052485344, "longitude": -117.057518509337}, "transactions": ["delivery", "pickup"], "price": "$", "location": {"address1": "1700 E Valley Pkwy", "address2": "", "address3": "", "city": "Escondido", "zip_code": "92027", "country": "US", "state": "CA", "display_address": ["1700 E Valley Pkwy", "Escondido, CA 92027"]}, "phone": "+17607379988", "display_phone": "(760) 737-9988", "distance": 20910.831754224724}, {"id": "AhZR7jf8J3-NDuP4f1HupQ", "alias": "pho-san-marcos-san-marcos", "name": "Pho San Marcos", "image_url": "https://s3-media1.fl.yelpcdn.com/bphoto/ckxL-9slBDsWFNI2VRA_4g/o.jpg", "is_closed": false, "url": "https://www.yelp.com/biz/pho-san-marcos-san-marcos?adjust_creative=oncXGL2aPIKrtJdnWeFSnA&utm_campaign=yelp_api_v3&utm_medium=api_v3_business_search&utm_source=oncXGL2aPIKrtJdnWeFSnA", "review_count": 315, "categories": [{"alias": "vietnamese", "title": "Vietnamese"}], "rating": 3.5, "coordinates": {"latitude": 33.1328255311659, "longitude": -117.207877635956}, "transactions": [], "price": "$", "location": {"address1": "700 S Rancho Santa Fe Rd", "address2": "", "address3": "", "city": "San Marcos", "zip_code": "92078", "country": "US", "state": "CA", "display_address": ["700 S Rancho Santa Fe Rd", "San Marcos, CA 92078"]}, "phone": "+17605990973", "display_phone": "(760) 599-0973", "distance": 10692.976149241062}, {"id": "YA9ZXK3bKU5ouA7tLRpAnQ", "alias": "yummy-pho-oceanside", "name": "Yummy Pho", "image_url": "https://s3-media2.fl.yelpcdn.com/bphoto/JJbawnSa63JOABZjeRiiHQ/o.jpg", "is_closed": false, "url": "https://www.yelp.com/biz/yummy-pho-oceanside?adjust_creative=oncXGL2aPIKrtJdnWeFSnA&utm_campaign=yelp_api_v3&utm_medium=api_v3_business_search&utm_source=oncXGL2aPIKrtJdnWeFSnA", "review_count": 301, "categories": [{"alias": "vietnamese", "title": "Vietnamese"}], "rating": 4.0, "coordinates": {"latitude": 33.207439, "longitude": -117.2833753}, "transactions": [], "price": "$", "location": {"address1": "4225 Oceanside Blvd", "address2": "Ste W", "address3": "", "city": "Oceanside", "zip_code": "92056", "country": "US", "state": "CA", "display_address": ["4225 Oceanside Blvd", "Ste W", "Oceanside, CA 92056"]}, "phone": "+17606311800", "display_phone": "(760) 631-1800", "distance": 18200.488412817554}, {"id": "5r6D9waKp7UhvWsa44kG6w", "alias": "pho-saigon-and-grill-san-diego", "name": "Pho Saigon & Grill", "image_url": "https://s3-media2.fl.yelpcdn.com/bphoto/Nh4N485gMSMUykIw-UX8bw/o.jpg", "is_closed": false, "url": "https://www.yelp.com/biz/pho-saigon-and-grill-san-diego?adjust_creative=oncXGL2aPIKrtJdnWeFSnA&utm_campaign=yelp_api_v3&utm_medium=api_v3_business_search&utm_source=oncXGL2aPIKrtJdnWeFSnA", "review_count": 372, "categories": [{"alias": "vietnamese", "title": "Vietnamese"}, {"alias": "gluten_free", "title": "Gluten-Free"}], "rating": 4.0, "coordinates": {"latitude": 32.96009, "longitude": -117.11187}, "transactions": [], "price": "$", "location": {"address1": "9975 Carmel Mountain Rd", "address2": "", "address3": "", "city": "San Diego", "zip_code": "92129", "country": "US", "state": "CA", "display_address": ["9975 Carmel Mountain Rd", "San Diego, CA 92129"]}, "phone": "+18585381000", "display_phone": "(858) 538-1000", "distance": 16276.337487767083}, {"id": "jR44yr8nwNKExcURFUaJZQ", "alias": "pho-ha-noi-san-diego", "name": "Pho Ha Noi", "image_url": "https://s3-media2.fl.yelpcdn.com/bphoto/ZATsHBMaDEwO-8mMffv5rw/o.jpg", "is_closed": false, "url": "https://www.yelp.com/biz/pho-ha-noi-san-diego?adjust_creative=oncXGL2aPIKrtJdnWeFSnA&utm_campaign=yelp_api_v3&utm_medium=api_v3_business_search&utm_source=oncXGL2aPIKrtJdnWeFSnA", "review_count": 118, "categories": [{"alias": "vietnamese", "title": "Vietnamese"}, {"alias": "chinese", "title": "Chinese"}, {"alias": "breakfast_brunch", "title": "Breakfast & Brunch"}], "rating": 4.0, "coordinates": {"latitude": 32.8791578097215, "longitude": -117.166892234177}, "transactions": ["delivery", "pickup"], "price": "$", "location": {"address1": "6904 Miramar Rd", "address2": "Ste 215", "address3": "", "city": "San Diego", "zip_code": "92121", "country": "US", "state": "CA", "display_address": ["6904 Miramar Rd", "Ste 215", "San Diego, CA 92121"]}, "phone": "+18586216330", "display_phone": "(858) 621-6330", "distance": 20153.483664644333}, {"id": "GcqnE8qEUBdaG1XWzvvqEQ", "alias": "pho-46-san-diego", "name": "Pho 46", "image_url": "https://s3-media2.fl.yelpcdn.com/bphoto/eRtoPZGD6YArBs4-hVGw-g/o.jpg", "is_closed": false, "url": "https://www.yelp.com/biz/pho-46-san-diego?adjust_creative=oncXGL2aPIKrtJdnWeFSnA&utm_campaign=yelp_api_v3&utm_medium=api_v3_business_search&utm_source=oncXGL2aPIKrtJdnWeFSnA", "review_count": 167, "categories": [{"alias": "vietnamese", "title": "Vietnamese"}], "rating": 4.0, "coordinates": {"latitude": 32.894574, "longitude": -117.123219}, "transactions": [], "price": "$", "location": {"address1": "9508 Miramar Rd", "address2": "", "address3": "", "city": "San Diego", "zip_code": "92126", "country": "US", "state": "CA", "display_address": ["9508 Miramar Rd", "San Diego, CA 92126"]}, "phone": "+18585664599", "display_phone": "(858) 566-4599", "distance": 20711.734997320593}, {"id": "qHRuOwMHlDuo_UGlLEXXJQ", "alias": "song-huong-restaurant-san-diego-2", "name": "Song Huong Restaurant", "image_url": "https://s3-media1.fl.yelpcdn.com/bphoto/Q03SJ_tKOwLsFLjBZQUBvw/o.jpg", "is_closed": false, "url": "https://www.yelp.com/biz/song-huong-restaurant-san-diego-2?adjust_creative=oncXGL2aPIKrtJdnWeFSnA&utm_campaign=yelp_api_v3&utm_medium=api_v3_business_search&utm_source=oncXGL2aPIKrtJdnWeFSnA", "review_count": 28, "categories": [{"alias": "vietnamese", "title": "Vietnamese"}], "rating": 3.5, "coordinates": {"latitude": 32.9092399, "longitude": -117.14554}, "transactions": [], "price": "$", "location": {"address1": "10550 Camino Ruiz", "address2": "", "address3": "", "city": "San Diego", "zip_code": "92126", "country": "US", "state": "CA", "display_address": ["10550 Camino Ruiz", "San Diego, CA 92126"]}, "phone": "+18585669876", "display_phone": "(858) 566-9876", "distance": 18164.968719685723}, {"id": "9nLLCImUAZ3Sdl3q4FezYQ", "alias": "pho-ca-dao-and-grill-poway-2", "name": "Pho Ca Dao & Grill", "image_url": "https://s3-media1.fl.yelpcdn.com/bphoto/7oNFaHiUC0lkWrDJj_U5Vg/o.jpg", "is_closed": false, "url": "https://www.yelp.com/biz/pho-ca-dao-and-grill-poway-2?adjust_creative=oncXGL2aPIKrtJdnWeFSnA&utm_campaign=yelp_api_v3&utm_medium=api_v3_business_search&utm_source=oncXGL2aPIKrtJdnWeFSnA", "review_count": 177, "categories": [{"alias": "vietnamese", "title": "Vietnamese"}], "rating": 3.0, "coordinates": {"latitude": 32.9549592, "longitude": -117.055679}, "transactions": [], "price": "$", "location": {"address1": "12719 Poway Rd", "address2": "", "address3": null, "city": "Poway", "zip_code": "92064", "country": "US", "state": "CA", "display_address": ["12719 Poway Rd", "Poway, CA 92064"]}, "phone": "+18588835605", "display_phone": "(858) 883-5605", "distance": 21085.3735921715}, {"id": "zZT3BXSHpcRks5d74cQgaw", "alias": "pho-lena-and-grill-escondido", "name": "Pho Lena & Grill", "image_url": "https://s3-media1.fl.yelpcdn.com/bphoto/LuEbP5VOZ2kuH8ATCekZSg/o.jpg", "is_closed": false, "url": "https://www.yelp.com/biz/pho-lena-and-grill-escondido?adjust_creative=oncXGL2aPIKrtJdnWeFSnA&utm_campaign=yelp_api_v3&utm_medium=api_v3_business_search&utm_source=oncXGL2aPIKrtJdnWeFSnA", "review_count": 143, "categories": [{"alias": "vietnamese", "title": "Vietnamese"}], "rating": 4.0, "coordinates": {"latitude": 33.132712, "longitude": -117.059096}, "transactions": [], "price": "$", "location": {"address1": "1535 E Valley Pkwy", "address2": "Ste 102", "address3": "", "city": "Escondido", "zip_code": "92027", "country": "US", "state": "CA", "display_address": ["1535 E Valley Pkwy", "Ste 102", "Escondido, CA 92027"]}, "phone": "+17607453915", "display_phone": "(760) 745-3915", "distance": 20648.833628954588}, {"id": "SweLLumo7PhG5y8D1YdgYw", "alias": "cali-baguette-express-san-diego-3", "name": "Cali Baguette Express", "image_url": "https://s3-media2.fl.yelpcdn.com/bphoto/EQxeYZLapaST2yzDPc11zQ/o.jpg", "is_closed": false, "url": "https://www.yelp.com/biz/cali-baguette-express-san-diego-3?adjust_creative=oncXGL2aPIKrtJdnWeFSnA&utm_campaign=yelp_api_v3&utm_medium=api_v3_business_search&utm_source=oncXGL2aPIKrtJdnWeFSnA", "review_count": 394, "categories": [{"alias": "vietnamese", "title": "Vietnamese"}, {"alias": "sandwiches", "title": "Sandwiches"}], "rating": 4.0, "coordinates": {"latitude": 32.916592, "longitude": -117.12543}, "transactions": [], "price": "$", "location": {"address1": "9225 Mira Mesa Blvd", "address2": "Ste 102", "address3": "", "city": "San Diego", "zip_code": "92126", "country": "US", "state": "CA", "display_address": ["9225 Mira Mesa Blvd", "Ste 102", "San Diego, CA 92126"]}, "phone": "+18586958888", "display_phone": "(858) 695-8888", "distance": 18657.113949520306}, {"id": "jwoGuqLcRnJK14z-yHGTIQ", "alias": "pho-poway-noodle-house-poway", "name": "Pho Poway Noodle House", "image_url": "https://s3-media3.fl.yelpcdn.com/bphoto/vlvmXZDXLWg-lNvpXi2gvw/o.jpg", "is_closed": false, "url": "https://www.yelp.com/biz/pho-poway-noodle-house-poway?adjust_creative=oncXGL2aPIKrtJdnWeFSnA&utm_campaign=yelp_api_v3&utm_medium=api_v3_business_search&utm_source=oncXGL2aPIKrtJdnWeFSnA", "review_count": 194, "categories": [{"alias": "vietnamese", "title": "Vietnamese"}, {"alias": "noodles", "title": "Noodles"}, {"alias": "chicken_wings", "title": "Chicken Wings"}], "rating": 3.5, "coordinates": {"latitude": 32.952336, "longitude": -117.065359}, "transactions": [], "price": "$", "location": {"address1": "12316 Poway Rd", "address2": null, "address3": "", "city": "Poway", "zip_code": "92064", "country": "US", "state": "CA", "display_address": ["12316 Poway Rd", "Poway, CA 92064"]}, "phone": "+18584866300", "display_phone": "(858) 486-6300", "distance": 20408.181549761794}, {"id": "R7Ix-QjXDbS31JWvTVvjYg", "alias": "luong-hai-ky-san-diego-3", "name": "Luong Hai Ky", "image_url": "https://s3-media2.fl.yelpcdn.com/bphoto/ThOqlxrrZdCm4RmY3Cevww/o.jpg", "is_closed": false, "url": "https://www.yelp.com/biz/luong-hai-ky-san-diego-3?adjust_creative=oncXGL2aPIKrtJdnWeFSnA&utm_campaign=yelp_api_v3&utm_medium=api_v3_business_search&utm_source=oncXGL2aPIKrtJdnWeFSnA", "review_count": 367, "categories": [{"alias": "chinese", "title": "Chinese"}, {"alias": "vietnamese", "title": "Vietnamese"}], "rating": 3.5, "coordinates": {"latitude": 32.909942, "longitude": -117.144949}, "transactions": ["delivery"], "price": "$", "location": {"address1": "10606 Camino Ruiz", "address2": "Ste 2", "address3": "", "city": "San Diego", "zip_code": "92126", "country": "US", "state": "CA", "display_address": ["10606 Camino Ruiz", "Ste 2", "San Diego, CA 92126"]}, "phone": "+18585784888", "display_phone": "(858) 578-4888", "distance": 18145.894973044076}, {"id": "-JYENhetvaP0bS0-4LmIyQ", "alias": "i-love-pho-oceanside", "name": "I Love Pho", "image_url": "https://s3-media2.fl.yelpcdn.com/bphoto/ZEUqiBxsdbNyMNTeCVoBiA/o.jpg", "is_closed": false, "url": "https://www.yelp.com/biz/i-love-pho-oceanside?adjust_creative=oncXGL2aPIKrtJdnWeFSnA&utm_campaign=yelp_api_v3&utm_medium=api_v3_business_search&utm_source=oncXGL2aPIKrtJdnWeFSnA", "review_count": 326, "categories": [{"alias": "vietnamese", "title": "Vietnamese"}], "rating": 3.5, "coordinates": {"latitude": 33.181416, "longitude": -117.293098}, "transactions": [], "price": "$", "location": {"address1": "3809 Plaza Dr", "address2": "", "address3": "", "city": "Oceanside", "zip_code": "92056", "country": "US", "state": "CA", "display_address": ["3809 Plaza Dr", "Oceanside, CA 92056"]}, "phone": "+17606308889", "display_phone": "(760) 630-8889", "distance": 15599.939686699376}, {"id": "yJbohYk4010LPtSZFbIZhA", "alias": "pho-ho\u00e0ng-express-san-diego-2", "name": "Pho Ho\u00e0ng Express", "image_url": "https://s3-media3.fl.yelpcdn.com/bphoto/YUJUTPgaVGJJW4Onsy2zcA/o.jpg", "is_closed": false, "url": "https://www.yelp.com/biz/pho-ho%C3%A0ng-express-san-diego-2?adjust_creative=oncXGL2aPIKrtJdnWeFSnA&utm_campaign=yelp_api_v3&utm_medium=api_v3_business_search&utm_source=oncXGL2aPIKrtJdnWeFSnA", "review_count": 348, "categories": [{"alias": "vietnamese", "title": "Vietnamese"}], "rating": 4.0, "coordinates": {"latitude": 33.0119286, "longitude": -117.0782166}, "transactions": [], "price": "$", "location": {"address1": "16425 Bernardo Ctr Dr", "address2": "", "address3": "", "city": "San Diego", "zip_code": "92128", "country": "US", "state": "CA", "display_address": ["16425 Bernardo Ctr Dr", "San Diego, CA 92128"]}, "phone": "+18586137777", "display_phone": "(858) 613-7777", "distance": 16805.016450932642}, {"id": "uipWlVNubNlnN9hGq0PxIg", "alias": "silk-road-san-diego-2", "name": "Silk Road", "image_url": "https://s3-media3.fl.yelpcdn.com/bphoto/_Y5KySvjca_Y83pHgmbLrA/o.jpg", "is_closed": false, "url": "https://www.yelp.com/biz/silk-road-san-diego-2?adjust_creative=oncXGL2aPIKrtJdnWeFSnA&utm_campaign=yelp_api_v3&utm_medium=api_v3_business_search&utm_source=oncXGL2aPIKrtJdnWeFSnA", "review_count": 43, "categories": [{"alias": "vietnamese", "title": "Vietnamese"}, {"alias": "chinese", "title": "Chinese"}], "rating": 3.0, "coordinates": {"latitude": 32.90622, "longitude": -117.17345}, "transactions": [], "price": "$", "location": {"address1": "6715 Mira Mesa Blvd", "address2": "Ste 104", "address3": "", "city": "San Diego", "zip_code": "92121", "country": "US", "state": "CA", "display_address": ["6715 Mira Mesa Blvd", "Ste 104", "San Diego, CA 92121"]}, "phone": "+18584574383", "display_phone": "(858) 457-4383", "distance": 17147.817046672524}, {"id": "7B-562N30cOdleyTo3ClHQ", "alias": "pho-lucky-san-diego", "name": "Pho Lucky", "image_url": "https://s3-media1.fl.yelpcdn.com/bphoto/MDuJQrUOcvGe3fEQg8gf9g/o.jpg", "is_closed": false, "url": "https://www.yelp.com/biz/pho-lucky-san-diego?adjust_creative=oncXGL2aPIKrtJdnWeFSnA&utm_campaign=yelp_api_v3&utm_medium=api_v3_business_search&utm_source=oncXGL2aPIKrtJdnWeFSnA", "review_count": 189, "categories": [{"alias": "vietnamese", "title": "Vietnamese"}], "rating": 4.0, "coordinates": {"latitude": 32.9188420149649, "longitude": -117.12435977597}, "transactions": [], "price": "$", "location": {"address1": "9326 Mira Mesa Blvd", "address2": "", "address3": "Lucky Seafood", "city": "San Diego", "zip_code": "92126", "country": "US", "state": "CA", "display_address": ["9326 Mira Mesa Blvd", "Lucky Seafood", "San Diego, CA 92126"]}, "phone": "+18585867979", "display_phone": "(858) 586-7979", "distance": 18531.562691472805}, {"id": "635j_7plckWpmwcISyL1pw", "alias": "pholicious-escondido", "name": "Pholicious", "image_url": "https://s3-media3.fl.yelpcdn.com/bphoto/tB3TnHh9gWeDwFXJHoLJgA/o.jpg", "is_closed": false, "url": "https://www.yelp.com/biz/pholicious-escondido?adjust_creative=oncXGL2aPIKrtJdnWeFSnA&utm_campaign=yelp_api_v3&utm_medium=api_v3_business_search&utm_source=oncXGL2aPIKrtJdnWeFSnA", "review_count": 33, "categories": [{"alias": "vietnamese", "title": "Vietnamese"}], "rating": 2.0, "coordinates": {"latitude": 33.071217, "longitude": -117.066027}, "transactions": ["delivery", "pickup"], "price": "$$", "location": {"address1": "272 E Via Rancho Pkwy", "address2": "", "address3": "", "city": "Escondido", "zip_code": "92025", "country": "US", "state": "CA", "display_address": ["272 E Via Rancho Pkwy", "Escondido, CA 92025"]}, "phone": "+17279027918", "display_phone": "(727) 902-7918", "distance": 17791.600893423136}], "total": 50, "region": {"center": {"longitude": -117.25433349609375, "latitude": 33.04488992556048}}}