{"businesses": [{"id": "vOUKxlmBnWqrRdJSh7F9RQ", "alias": "the-cheesesteak-grill-oceanside", "name": "The Cheesesteak Grill", "image_url": "https://s3-media2.fl.yelpcdn.com/bphoto/FafaS9wkcpYhKhc9I_xwgQ/o.jpg", "is_closed": false, "url": "https://www.yelp.com/biz/the-cheesesteak-grill-oceanside?adjust_creative=oncXGL2aPIKrtJdnWeFSnA&utm_campaign=yelp_api_v3&utm_medium=api_v3_business_search&utm_source=oncXGL2aPIKrtJdnWeFSnA", "review_count": 413, "categories": [{"alias": "cheesesteaks", "title": "Cheesesteaks"}, {"alias": "sandwiches", "title": "Sandwiches"}, {"alias": "burgers", "title": "Burgers"}], "rating": 4.5, "coordinates": {"latitude": 33.1905986462851, "longitude": -117.359504374066}, "transactions": [], "price": "$$", "location": {"address1": "1771 S Oceanside Blvd", "address2": "Ste C", "address3": "", "city": "Oceanside", "zip_code": "92054", "country": "US", "state": "CA", "display_address": ["1771 S Oceanside Blvd", "Ste C", "Oceanside, CA 92054"]}, "phone": "+17605290077", "display_phone": "(760) 529-0077", "distance": 5502.4253845552}, {"id": "nomK5lKuHfvHknZpbtHzVg", "alias": "pit-stop-diner-oceanside", "name": "Pit Stop Diner", "image_url": "https://s3-media2.fl.yelpcdn.com/bphoto/q7n5rdX0o5zG4T5BsjrVaQ/o.jpg", "is_closed": false, "url": "https://www.yelp.com/biz/pit-stop-diner-oceanside?adjust_creative=oncXGL2aPIKrtJdnWeFSnA&utm_campaign=yelp_api_v3&utm_medium=api_v3_business_search&utm_source=oncXGL2aPIKrtJdnWeFSnA", "review_count": 648, "categories": [{"alias": "diners", "title": "Diners"}, {"alias": "burgers", "title": "Burgers"}, {"alias": "sandwiches", "title": "Sandwiches"}], "rating": 4.0, "coordinates": {"latitude": 33.2259000485521, "longitude": -117.330345550927}, "transactions": ["pickup", "delivery"], "price": "$", "location": {"address1": "3825 Mission Ave", "address2": "Ste D1", "address3": "", "city": "Oceanside", "zip_code": "92058", "country": "US", "state": "CA", "display_address": ["3825 Mission Ave", "Ste D1", "Oceanside, CA 92058"]}, "phone": "+17609014299", "display_phone": "(760) 901-4299", "distance": 1130.5870705895354}, {"id": "7G3t0QUHpa3mXDqTCQLPeA", "alias": "red-rooster-oceanside", "name": "Red Rooster", "image_url": "https://s3-media2.fl.yelpcdn.com/bphoto/7GhFlWatVWR_QWkG94iIhA/o.jpg", "is_closed": false, "url": "https://www.yelp.com/biz/red-rooster-oceanside?adjust_creative=oncXGL2aPIKrtJdnWeFSnA&utm_campaign=yelp_api_v3&utm_medium=api_v3_business_search&utm_source=oncXGL2aPIKrtJdnWeFSnA", "review_count": 222, "categories": [{"alias": "divebars", "title": "Dive Bars"}, {"alias": "burgers", "title": "Burgers"}], "rating": 4.0, "coordinates": {"latitude": 33.1949272155762, "longitude": -117.353462219238}, "transactions": [], "price": "$", "location": {"address1": "1985 Oceanside Blvd", "address2": "", "address3": "", "city": "Oceanside", "zip_code": "92054", "country": "US", "state": "CA", "display_address": ["1985 Oceanside Blvd", "Oceanside, CA 92054"]}, "phone": "+17607548383", "display_phone": "(760) 754-8383", "distance": 4770.506879708087}, {"id": "OVAO2XkGwTp_TidI8YSDxw", "alias": "ohana-hawaiian-bbq-oceanside", "name": "Ohana Hawaiian BBQ", "image_url": "https://s3-media2.fl.yelpcdn.com/bphoto/buWhiT7GNPSD3Y-Q2iZovQ/o.jpg", "is_closed": false, "url": "https://www.yelp.com/biz/ohana-hawaiian-bbq-oceanside?adjust_creative=oncXGL2aPIKrtJdnWeFSnA&utm_campaign=yelp_api_v3&utm_medium=api_v3_business_search&utm_source=oncXGL2aPIKrtJdnWeFSnA", "review_count": 125, "categories": [{"alias": "hawaiian", "title": "Hawaiian"}, {"alias": "seafood", "title": "Seafood"}, {"alias": "burgers", "title": "Burgers"}], "rating": 3.5, "coordinates": {"latitude": 33.2452381392478, "longitude": -117.293055949074}, "transactions": [], "price": "$", "location": {"address1": "459 College Blvd", "address2": "", "address3": "", "city": "Oceanside", "zip_code": "92057", "country": "US", "state": "CA", "display_address": ["459 College Blvd", "Oceanside, CA 92057"]}, "phone": "+17606306800", "display_phone": "(760) 630-6800", "distance": 3168.0787178168107}, {"id": "h56qPysQoTz09vdn-jligw", "alias": "the-habit-burger-grill-oceanside", "name": "The Habit Burger Grill", "image_url": "https://s3-media2.fl.yelpcdn.com/bphoto/okWqGcGioCF2-1U0X8DE_g/o.jpg", "is_closed": false, "url": "https://www.yelp.com/biz/the-habit-burger-grill-oceanside?adjust_creative=oncXGL2aPIKrtJdnWeFSnA&utm_campaign=yelp_api_v3&utm_medium=api_v3_business_search&utm_source=oncXGL2aPIKrtJdnWeFSnA", "review_count": 262, "categories": [{"alias": "burgers", "title": "Burgers"}], "rating": 4.0, "coordinates": {"latitude": 33.184288, "longitude": -117.327908}, "transactions": [], "price": "$", "location": {"address1": "2267 S El Camino Real", "address2": null, "address3": "", "city": "Oceanside", "zip_code": "92054", "country": "US", "state": "CA", "display_address": ["2267 S El Camino Real", "Oceanside, CA 92054"]}, "phone": "+17604333390", "display_phone": "(760) 433-3390", "distance": 4726.464697929544}, {"id": "Li5i83xVhK2HfM5J0JHY6Q", "alias": "in-n-out-burger-oceanside", "name": "In-N-Out Burger", "image_url": "https://s3-media3.fl.yelpcdn.com/bphoto/OSJuAZ2mwEdROgVQB7iIrQ/o.jpg", "is_closed": false, "url": "https://www.yelp.com/biz/in-n-out-burger-oceanside?adjust_creative=oncXGL2aPIKrtJdnWeFSnA&utm_campaign=yelp_api_v3&utm_medium=api_v3_business_search&utm_source=oncXGL2aPIKrtJdnWeFSnA", "review_count": 164, "categories": [{"alias": "hotdogs", "title": "Fast Food"}, {"alias": "burgers", "title": "Burgers"}], "rating": 4.0, "coordinates": {"latitude": 33.2378799, "longitude": -117.29921}, "transactions": [], "price": "$", "location": {"address1": "4605 Frazee Rd", "address2": "", "address3": "", "city": "Oceanside", "zip_code": "92057", "country": "US", "state": "CA", "display_address": ["4605 Frazee Rd", "Oceanside, CA 92057"]}, "phone": "+18007861000", "display_phone": "(800) 786-1000", "distance": 2188.710997389508}, {"id": "-lOl6VHPFbCGK_R6r4MTxA", "alias": "applebees-grill-bar-oceanside", "name": "Applebee's Grill + Bar", "image_url": "https://s3-media4.fl.yelpcdn.com/bphoto/YkMbsKGWLjZAA9rVV7sW7g/o.jpg", "is_closed": false, "url": "https://www.yelp.com/biz/applebees-grill-bar-oceanside?adjust_creative=oncXGL2aPIKrtJdnWeFSnA&utm_campaign=yelp_api_v3&utm_medium=api_v3_business_search&utm_source=oncXGL2aPIKrtJdnWeFSnA", "review_count": 179, "categories": [{"alias": "tradamerican", "title": "American (Traditional)"}, {"alias": "sportsbars", "title": "Sports Bars"}, {"alias": "burgers", "title": "Burgers"}], "rating": 2.5, "coordinates": {"latitude": 33.181524, "longitude": -117.344069}, "transactions": [], "price": "$$", "location": {"address1": "2146 Vista Way", "address2": "", "address3": "", "city": "Oceanside", "zip_code": "92054", "country": "US", "state": "CA", "display_address": ["2146 Vista Way", "Oceanside, CA 92054"]}, "phone": "+17607575848", "display_phone": "(760) 757-5848", "distance": 5501.369250892196}, {"id": "CEYlJpKnInKP6XqRX3zvNw", "alias": "rookies-sports-bar-oceanside", "name": "Rookies Sports Bar", "image_url": "https://s3-media3.fl.yelpcdn.com/bphoto/XpS1sSXE_a7n5daKJ3vTkQ/o.jpg", "is_closed": false, "url": "https://www.yelp.com/biz/rookies-sports-bar-oceanside?adjust_creative=oncXGL2aPIKrtJdnWeFSnA&utm_campaign=yelp_api_v3&utm_medium=api_v3_business_search&utm_source=oncXGL2aPIKrtJdnWeFSnA", "review_count": 256, "categories": [{"alias": "sportsbars", "title": "Sports Bars"}, {"alias": "burgers", "title": "Burgers"}, {"alias": "cheesesteaks", "title": "Cheesesteaks"}], "rating": 3.0, "coordinates": {"latitude": 33.1852964, "longitude": -117.3272671}, "transactions": [], "price": "$$", "location": {"address1": "2216 S El Camino Real", "address2": null, "address3": "", "city": "Oceanside", "zip_code": "92054", "country": "US", "state": "CA", "display_address": ["2216 S El Camino Real", "Oceanside, CA 92054"]}, "phone": "+17607571123", "display_phone": "(760) 757-1123", "distance": 4605.149550405385}, {"id": "pozDmSMbeESq3oIqhu7Fbg", "alias": "ihop-oceanside-3", "name": "IHOP", "image_url": "https://s3-media3.fl.yelpcdn.com/bphoto/-ZK-0WT1KBlNESISH85SKg/o.jpg", "is_closed": false, "url": "https://www.yelp.com/biz/ihop-oceanside-3?adjust_creative=oncXGL2aPIKrtJdnWeFSnA&utm_campaign=yelp_api_v3&utm_medium=api_v3_business_search&utm_source=oncXGL2aPIKrtJdnWeFSnA", "review_count": 112, "categories": [{"alias": "breakfast_brunch", "title": "Breakfast & Brunch"}, {"alias": "tradamerican", "title": "American (Traditional)"}, {"alias": "burgers", "title": "Burgers"}], "rating": 3.0, "coordinates": {"latitude": 33.192589177805, "longitude": -117.35871}, "transactions": [], "price": "$$", "location": {"address1": "1806 Oceanside Blvd", "address2": null, "address3": null, "city": "Oceanside", "zip_code": "92054", "country": "US", "state": "CA", "display_address": ["1806 Oceanside Blvd", "Oceanside, CA 92054"]}, "phone": "+17607216282", "display_phone": "(760) 721-6282", "distance": 5293.361677706325}, {"id": "7lZChHE-_Hl9oAtoUKgYsQ", "alias": "pauls-place-oceanside", "name": "Paul's Place", "image_url": "https://s3-media3.fl.yelpcdn.com/bphoto/yhu_kS7NR6xWUiBox_Hkgg/o.jpg", "is_closed": false, "url": "https://www.yelp.com/biz/pauls-place-oceanside?adjust_creative=oncXGL2aPIKrtJdnWeFSnA&utm_campaign=yelp_api_v3&utm_medium=api_v3_business_search&utm_source=oncXGL2aPIKrtJdnWeFSnA", "review_count": 148, "categories": [{"alias": "breakfast_brunch", "title": "Breakfast & Brunch"}, {"alias": "burgers", "title": "Burgers"}, {"alias": "sandwiches", "title": "Sandwiches"}], "rating": 3.5, "coordinates": {"latitude": 33.2237099, "longitude": -117.33293}, "transactions": [], "price": "$", "location": {"address1": "3671 Mission Ave", "address2": "", "address3": "", "city": "Oceanside", "zip_code": "92054", "country": "US", "state": "CA", "display_address": ["3671 Mission Ave", "Oceanside, CA 92054"]}, "phone": "+17607210124", "display_phone": "(760) 721-0124", "distance": 1386.4931717118284}, {"id": "AXnr7kyjwJyasaPyvCuJ_g", "alias": "ihop-oceanside", "name": "IHOP", "image_url": "https://s3-media2.fl.yelpcdn.com/bphoto/xdf0Jc59g6JKYv-_NdByNw/o.jpg", "is_closed": false, "url": "https://www.yelp.com/biz/ihop-oceanside?adjust_creative=oncXGL2aPIKrtJdnWeFSnA&utm_campaign=yelp_api_v3&utm_medium=api_v3_business_search&utm_source=oncXGL2aPIKrtJdnWeFSnA", "review_count": 122, "categories": [{"alias": "breakfast_brunch", "title": "Breakfast & Brunch"}, {"alias": "tradamerican", "title": "American (Traditional)"}, {"alias": "burgers", "title": "Burgers"}], "rating": 2.5, "coordinates": {"latitude": 33.20858, "longitude": -117.281}, "transactions": [], "price": "$$", "location": {"address1": "4253 Oceanside Blvd", "address2": "", "address3": "", "city": "Oceanside", "zip_code": "92056", "country": "US", "state": "CA", "display_address": ["4253 Oceanside Blvd", "Oceanside, CA 92056"]}, "phone": "+17606301460", "display_phone": "(760) 630-1460", "distance": 3965.6047419257993}, {"id": "_QGAvJJpQQ04h_OhR3D2tw", "alias": "wendys-oceanside-3", "name": "Wendy's", "image_url": "https://s3-media3.fl.yelpcdn.com/bphoto/1i1xiwKzU3JdJYJqsWonyQ/o.jpg", "is_closed": false, "url": "https://www.yelp.com/biz/wendys-oceanside-3?adjust_creative=oncXGL2aPIKrtJdnWeFSnA&utm_campaign=yelp_api_v3&utm_medium=api_v3_business_search&utm_source=oncXGL2aPIKrtJdnWeFSnA", "review_count": 46, "categories": [{"alias": "hotdogs", "title": "Fast Food"}, {"alias": "burgers", "title": "Burgers"}], "rating": 3.0, "coordinates": {"latitude": 33.1815920618444, "longitude": -117.295728412086}, "transactions": [], "price": "$", "location": {"address1": "3705 Plz Dr", "address2": "", "address3": "", "city": "Oceanside", "zip_code": "92056", "country": "US", "state": "CA", "display_address": ["3705 Plz Dr", "Oceanside, CA 92056"]}, "phone": "+17606306732", "display_phone": "(760) 630-6732", "distance": 5362.973786879676}, {"id": "talSXJN1clZe0t-rXdEtpg", "alias": "mcdonalds-oceanside-8", "name": "McDonald's", "image_url": "https://s3-media2.fl.yelpcdn.com/bphoto/cvIPHzVfizgKiItx4jm2Dw/o.jpg", "is_closed": false, "url": "https://www.yelp.com/biz/mcdonalds-oceanside-8?adjust_creative=oncXGL2aPIKrtJdnWeFSnA&utm_campaign=yelp_api_v3&utm_medium=api_v3_business_search&utm_source=oncXGL2aPIKrtJdnWeFSnA", "review_count": 60, "categories": [{"alias": "burgers", "title": "Burgers"}, {"alias": "hotdogs", "title": "Fast Food"}, {"alias": "coffee", "title": "Coffee & Tea"}], "rating": 2.5, "coordinates": {"latitude": 33.2320154472568, "longitude": -117.308245897293}, "transactions": [], "price": "$", "location": {"address1": "185 Old Grove Rd", "address2": "", "address3": "", "city": "Oceanside", "zip_code": "92057", "country": "US", "state": "CA", "display_address": ["185 Old Grove Rd", "Oceanside, CA 92057"]}, "phone": "+17604359826", "display_phone": "(760) 435-9826", "distance": 1140.9496354282207}, {"id": "fjoADQKZYQO8VAUUInfhXg", "alias": "in-n-out-burger-vista", "name": "In-N-Out Burger", "image_url": "https://s3-media2.fl.yelpcdn.com/bphoto/5j14t4wY5PDjM0a9WgWssA/o.jpg", "is_closed": false, "url": "https://www.yelp.com/biz/in-n-out-burger-vista?adjust_creative=oncXGL2aPIKrtJdnWeFSnA&utm_campaign=yelp_api_v3&utm_medium=api_v3_business_search&utm_source=oncXGL2aPIKrtJdnWeFSnA", "review_count": 179, "categories": [{"alias": "hotdogs", "title": "Fast Food"}, {"alias": "burgers", "title": "Burgers"}], "rating": 4.0, "coordinates": {"latitude": 33.1845578179619, "longitude": -117.284950279762}, "transactions": [], "price": "$", "location": {"address1": "2010 Hacienda Dr", "address2": "", "address3": "", "city": "Vista", "zip_code": "92081", "country": "US", "state": "CA", "display_address": ["2010 Hacienda Dr", "Vista, CA 92081"]}, "phone": "+18007861000", "display_phone": "(800) 786-1000", "distance": 5550.64002672652}, {"id": "34jeNQbnvQRq41M5CBErkw", "alias": "full-metal-burgers-san-diego-38", "name": "Full Metal Burgers", "image_url": "https://s3-media4.fl.yelpcdn.com/bphoto/_KVnjvoXs-OgIvvJNqxysw/o.jpg", "is_closed": false, "url": "https://www.yelp.com/biz/full-metal-burgers-san-diego-38?adjust_creative=oncXGL2aPIKrtJdnWeFSnA&utm_campaign=yelp_api_v3&utm_medium=api_v3_business_search&utm_source=oncXGL2aPIKrtJdnWeFSnA", "review_count": 48, "categories": [{"alias": "foodtrucks", "title": "Food Trucks"}, {"alias": "burgers", "title": "Burgers"}], "rating": 5.0, "coordinates": {"latitude": 33.2156117, "longitude": -117.266739}, "transactions": [], "price": "$", "location": {"address1": "3760 Hancock St", "address2": null, "address3": "", "city": "San Diego", "zip_code": "92110", "country": "US", "state": "CA", "display_address": ["3760 Hancock St", "San Diego, CA 92110"]}, "phone": "+18603345941", "display_phone": "(860) 334-5941", "distance": 52974.00755526954}, {"id": "KBLquJgSXRc8NXMpF49ZCA", "alias": "burger-king-oceanside-3", "name": "Burger King", "image_url": "https://s3-media2.fl.yelpcdn.com/bphoto/fYCM0JXe_4tuABZksUzqXQ/o.jpg", "is_closed": false, "url": "https://www.yelp.com/biz/burger-king-oceanside-3?adjust_creative=oncXGL2aPIKrtJdnWeFSnA&utm_campaign=yelp_api_v3&utm_medium=api_v3_business_search&utm_source=oncXGL2aPIKrtJdnWeFSnA", "review_count": 23, "categories": [{"alias": "burgers", "title": "Burgers"}, {"alias": "hotdogs", "title": "Fast Food"}], "rating": 2.0, "coordinates": {"latitude": 33.22474, "longitude": -117.3329}, "transactions": [], "price": "$$", "location": {"address1": "3746 Mission Ave", "address2": null, "address3": null, "city": "Oceanside", "zip_code": "92058", "country": "US", "state": "CA", "display_address": ["3746 Mission Ave", "Oceanside, CA 92058"]}, "phone": "+17607213838", "display_phone": "(760) 721-3838", "distance": 1376.2016135104027}, {"id": "JUFvFVlWC8NcM-wi0MnVAQ", "alias": "mcdonalds-oceanside-10", "name": "McDonald's", "image_url": "https://s3-media1.fl.yelpcdn.com/bphoto/aD4N3UhoZ9XNVj2EC3ydJw/o.jpg", "is_closed": false, "url": "https://www.yelp.com/biz/mcdonalds-oceanside-10?adjust_creative=oncXGL2aPIKrtJdnWeFSnA&utm_campaign=yelp_api_v3&utm_medium=api_v3_business_search&utm_source=oncXGL2aPIKrtJdnWeFSnA", "review_count": 40, "categories": [{"alias": "hotdogs", "title": "Fast Food"}, {"alias": "burgers", "title": "Burgers"}, {"alias": "coffee", "title": "Coffee & Tea"}], "rating": 2.0, "coordinates": {"latitude": 33.2243291957312, "longitude": -117.333398233177}, "transactions": [], "price": "$", "location": {"address1": "3720 Misson Blvd", "address2": null, "address3": null, "city": "Oceanside", "zip_code": "92054", "country": "US", "state": "CA", "display_address": ["3720 Misson Blvd", "Oceanside, CA 92054"]}, "phone": "+17607578001", "display_phone": "(760) 757-8001", "distance": 1426.769208337851}, {"id": "csNW54osOD5PfAeQjkOmlg", "alias": "mcdonalds-oceanside-3", "name": "McDonald's", "image_url": "https://s3-media2.fl.yelpcdn.com/bphoto/NTV_k_SWB3Pm9_BfhvWd_g/o.jpg", "is_closed": false, "url": "https://www.yelp.com/biz/mcdonalds-oceanside-3?adjust_creative=oncXGL2aPIKrtJdnWeFSnA&utm_campaign=yelp_api_v3&utm_medium=api_v3_business_search&utm_source=oncXGL2aPIKrtJdnWeFSnA", "review_count": 49, "categories": [{"alias": "burgers", "title": "Burgers"}, {"alias": "hotdogs", "title": "Fast Food"}, {"alias": "coffee", "title": "Coffee & Tea"}], "rating": 2.0, "coordinates": {"latitude": 33.2463989048185, "longitude": -117.291406566155}, "transactions": [], "price": "$", "location": {"address1": "487 College Blvd", "address2": "", "address3": "", "city": "Oceanside", "zip_code": "92057", "country": "US", "state": "CA", "display_address": ["487 College Blvd", "Oceanside, CA 92057"]}, "phone": "+17607587323", "display_phone": "(760) 758-7323", "distance": 3368.383867550189}, {"id": "XHmVMA6YLzvduGAo2McQbg", "alias": "carls-jr-oceanside-4", "name": "Carl's Jr.", "image_url": "https://s3-media3.fl.yelpcdn.com/bphoto/dqw9I_ZkNaQ2hASzzRb32g/o.jpg", "is_closed": false, "url": "https://www.yelp.com/biz/carls-jr-oceanside-4?adjust_creative=oncXGL2aPIKrtJdnWeFSnA&utm_campaign=yelp_api_v3&utm_medium=api_v3_business_search&utm_source=oncXGL2aPIKrtJdnWeFSnA", "review_count": 17, "categories": [{"alias": "salad", "title": "Salad"}, {"alias": "burgers", "title": "Burgers"}], "rating": 2.0, "coordinates": {"latitude": 33.2082688368726, "longitude": -117.285437294975}, "transactions": [], "price": "$", "location": {"address1": "4186 Oceanside Blvd", "address2": "", "address3": "", "city": "Oceanside", "zip_code": "92056", "country": "US", "state": "CA", "display_address": ["4186 Oceanside Blvd", "Oceanside, CA 92056"]}, "phone": "+17606303487", "display_phone": "(760) 630-3487", "distance": 3629.807732262096}, {"id": "377o4wUSJE7PitmszwOuCQ", "alias": "miracosta-caf\u00e9-oceanside-2", "name": "MiraCosta Caf\u00e9", "image_url": "https://s3-media1.fl.yelpcdn.com/bphoto/B6NKeKTLs1faiQSXy4HgOA/o.jpg", "is_closed": false, "url": "https://www.yelp.com/biz/miracosta-caf%C3%A9-oceanside-2?adjust_creative=oncXGL2aPIKrtJdnWeFSnA&utm_campaign=yelp_api_v3&utm_medium=api_v3_business_search&utm_source=oncXGL2aPIKrtJdnWeFSnA", "review_count": 5, "categories": [{"alias": "breakfast_brunch", "title": "Breakfast & Brunch"}, {"alias": "sandwiches", "title": "Sandwiches"}, {"alias": "burgers", "title": "Burgers"}], "rating": 4.0, "coordinates": {"latitude": 33.1895572726272, "longitude": -117.301067478523}, "transactions": [], "location": {"address1": "1 Barnard Dr", "address2": "Bldg 3400", "address3": null, "city": "Oceanside", "zip_code": "92056", "country": "US", "state": "CA", "display_address": ["1 Barnard Dr", "Bldg 3400", "Oceanside, CA 92056"]}, "phone": "+17607956886", "display_phone": "(760) 795-6886", "distance": 4268.391777201408}, {"id": "A3Nlro7LO7dfXHNWp9w-yw", "alias": "babys-burgers-san-diego-5", "name": "Baby's Burgers", "image_url": "https://s3-media3.fl.yelpcdn.com/bphoto/-KxwMFGEVP2FUxMCv2iC6Q/o.jpg", "is_closed": false, "url": "https://www.yelp.com/biz/babys-burgers-san-diego-5?adjust_creative=oncXGL2aPIKrtJdnWeFSnA&utm_campaign=yelp_api_v3&utm_medium=api_v3_business_search&utm_source=oncXGL2aPIKrtJdnWeFSnA", "review_count": 50, "categories": [{"alias": "burgers", "title": "Burgers"}, {"alias": "foodtrucks", "title": "Food Trucks"}], "rating": 4.5, "coordinates": {"latitude": 32.71385, "longitude": -117.1393}, "transactions": [], "price": "$$", "location": {"address1": "", "address2": null, "address3": "", "city": "San Diego", "zip_code": "92102", "country": "US", "state": "CA", "display_address": ["San Diego, CA 92102"]}, "phone": "+18447862223", "display_phone": "(844) 786-2223", "distance": 59277.226666373455}, {"id": "u18oWTZbajvf4R2LdWe8Ow", "alias": "johnny-rockets-vista", "name": "Johnny Rockets", "image_url": "https://s3-media3.fl.yelpcdn.com/bphoto/bR5VPG2WQViKAAObrdsIwg/o.jpg", "is_closed": false, "url": "https://www.yelp.com/biz/johnny-rockets-vista?adjust_creative=oncXGL2aPIKrtJdnWeFSnA&utm_campaign=yelp_api_v3&utm_medium=api_v3_business_search&utm_source=oncXGL2aPIKrtJdnWeFSnA", "review_count": 50, "categories": [{"alias": "burgers", "title": "Burgers"}, {"alias": "sandwiches", "title": "Sandwiches"}, {"alias": "diners", "title": "Diners"}], "rating": 1.5, "coordinates": {"latitude": 33.19199, "longitude": -117.27397}, "transactions": [], "price": "$", "location": {"address1": "1525 W Vista Way", "address2": "", "address3": "Boomers! Vista", "city": "Vista", "zip_code": "92083", "country": "US", "state": "CA", "display_address": ["1525 W Vista Way", "Boomers! Vista", "Vista, CA 92083"]}, "phone": "+17609459474", "display_phone": "(760) 945-9474", "distance": 5602.6548504000275}, {"id": "s5bqF0qMLCrqQmOOkrNopg", "alias": "mcdonalds-oceanside-9", "name": "McDonald's", "image_url": "https://s3-media2.fl.yelpcdn.com/bphoto/dbFxdKC5tWNbaiOgVkMADw/o.jpg", "is_closed": false, "url": "https://www.yelp.com/biz/mcdonalds-oceanside-9?adjust_creative=oncXGL2aPIKrtJdnWeFSnA&utm_campaign=yelp_api_v3&utm_medium=api_v3_business_search&utm_source=oncXGL2aPIKrtJdnWeFSnA", "review_count": 66, "categories": [{"alias": "hotdogs", "title": "Fast Food"}, {"alias": "burgers", "title": "Burgers"}, {"alias": "coffee", "title": "Coffee & Tea"}], "rating": 1.5, "coordinates": {"latitude": 33.190409, "longitude": -117.361148}, "transactions": [], "price": "$", "location": {"address1": "1701 Oceanside Blvd", "address2": "", "address3": "", "city": "Oceanside", "zip_code": "92054", "country": "US", "state": "CA", "display_address": ["1701 Oceanside Blvd", "Oceanside, CA 92054"]}, "phone": "+17607578821", "display_phone": "(760) 757-8821", "distance": 5625.12942065829}, {"id": "RSThWD-WcXHiwgj-GnfcEQ", "alias": "mcdonalds-oceanside-2", "name": "McDonald's", "image_url": "https://s3-media2.fl.yelpcdn.com/bphoto/PKtRiPgle7LA8xLUax8R_g/o.jpg", "is_closed": false, "url": "https://www.yelp.com/biz/mcdonalds-oceanside-2?adjust_creative=oncXGL2aPIKrtJdnWeFSnA&utm_campaign=yelp_api_v3&utm_medium=api_v3_business_search&utm_source=oncXGL2aPIKrtJdnWeFSnA", "review_count": 52, "categories": [{"alias": "burgers", "title": "Burgers"}, {"alias": "hotdogs", "title": "Fast Food"}, {"alias": "coffee", "title": "Coffee & Tea"}], "rating": 2.0, "coordinates": {"latitude": 33.182784, "longitude": -117.293577}, "transactions": [], "price": "$", "location": {"address1": "3794 Plz", "address2": "", "address3": "", "city": "Oceanside", "zip_code": "92056", "country": "US", "state": "CA", "display_address": ["3794 Plz", "Oceanside, CA 92056"]}, "phone": "+17609457847", "display_phone": "(760) 945-7847", "distance": 5324.1463078944325}, {"id": "zZM82lvl0jQgIuIRN0MJgg", "alias": "mcdonalds-oceanside-7", "name": "McDonald's", "image_url": "https://s3-media3.fl.yelpcdn.com/bphoto/wJEKl3vwMsLRw-9EhZpUAw/o.jpg", "is_closed": false, "url": "https://www.yelp.com/biz/mcdonalds-oceanside-7?adjust_creative=oncXGL2aPIKrtJdnWeFSnA&utm_campaign=yelp_api_v3&utm_medium=api_v3_business_search&utm_source=oncXGL2aPIKrtJdnWeFSnA", "review_count": 50, "categories": [{"alias": "burgers", "title": "Burgers"}, {"alias": "hotdogs", "title": "Fast Food"}, {"alias": "coffee", "title": "Coffee & Tea"}], "rating": 2.0, "coordinates": {"latitude": 33.20626, "longitude": -117.28681}, "transactions": [], "price": "$", "location": {"address1": "4151 Oceanside Blvd", "address2": "", "address3": "", "city": "Oceanside", "zip_code": "92057", "country": "US", "state": "CA", "display_address": ["4151 Oceanside Blvd", "Oceanside, CA 92057"]}, "phone": "+17606391263", "display_phone": "(760) 639-1263", "distance": 3649.0923313404323}, {"id": "pby86wXhVs8Sg-zlhoTSAw", "alias": "burger-king-oceanside-5", "name": "Burger King", "image_url": "https://s3-media2.fl.yelpcdn.com/bphoto/N-dEppvyT10UGyCkTTVebw/o.jpg", "is_closed": false, "url": "https://www.yelp.com/biz/burger-king-oceanside-5?adjust_creative=oncXGL2aPIKrtJdnWeFSnA&utm_campaign=yelp_api_v3&utm_medium=api_v3_business_search&utm_source=oncXGL2aPIKrtJdnWeFSnA", "review_count": 25, "categories": [{"alias": "burgers", "title": "Burgers"}, {"alias": "hotdogs", "title": "Fast Food"}], "rating": 2.0, "coordinates": {"latitude": 33.181706, "longitude": -117.337208}, "transactions": [], "price": "$", "location": {"address1": "2325 Vista Way", "address2": null, "address3": null, "city": "Oceanside", "zip_code": "92054", "country": "US", "state": "CA", "display_address": ["2325 Vista Way", "Oceanside, CA 92054"]}, "phone": "+17607220088", "display_phone": "(760) 722-0088", "distance": 5235.370220276828}, {"id": "azUgKJAjhHF0xHRp41tPQA", "alias": "monster-crafts-food-truck-san-diego-2", "name": "Monster Crafts Food Truck", "image_url": "https://s3-media4.fl.yelpcdn.com/bphoto/-HkN05cCitYZJlrwvJP3xw/o.jpg", "is_closed": false, "url": "https://www.yelp.com/biz/monster-crafts-food-truck-san-diego-2?adjust_creative=oncXGL2aPIKrtJdnWeFSnA&utm_campaign=yelp_api_v3&utm_medium=api_v3_business_search&utm_source=oncXGL2aPIKrtJdnWeFSnA", "review_count": 57, "categories": [{"alias": "foodtrucks", "title": "Food Trucks"}, {"alias": "burgers", "title": "Burgers"}, {"alias": "catering", "title": "Caterers"}], "rating": 4.5, "coordinates": {"latitude": 32.78289, "longitude": -117.11059}, "transactions": [], "price": "$$", "location": {"address1": "", "address2": null, "address3": "", "city": "San Diego", "zip_code": "92108", "country": "US", "state": "CA", "display_address": ["San Diego, CA 92108"]}, "phone": "+16199484458", "display_phone": "(619) 948-4458", "distance": 52876.1011478711}, {"id": "zHoEc98MvN_WOtaPIC7hGA", "alias": "mcdonalds-oceanside-11", "name": "McDonald's", "image_url": "https://s3-media2.fl.yelpcdn.com/bphoto/h4fFS-iKZ82fVdCyDDayTA/o.jpg", "is_closed": false, "url": "https://www.yelp.com/biz/mcdonalds-oceanside-11?adjust_creative=oncXGL2aPIKrtJdnWeFSnA&utm_campaign=yelp_api_v3&utm_medium=api_v3_business_search&utm_source=oncXGL2aPIKrtJdnWeFSnA", "review_count": 48, "categories": [{"alias": "burgers", "title": "Burgers"}, {"alias": "hotdogs", "title": "Fast Food"}, {"alias": "coffee", "title": "Coffee & Tea"}], "rating": 1.5, "coordinates": {"latitude": 33.1821786151965, "longitude": -117.340239286423}, "transactions": [], "price": "$", "location": {"address1": "2185 Vista Way", "address2": "", "address3": "", "city": "Oceanside", "zip_code": "92054", "country": "US", "state": "CA", "display_address": ["2185 Vista Way", "Oceanside, CA 92054"]}, "phone": "+17604392256", "display_phone": "(760) 439-2256", "distance": 5287.855607917621}, {"id": "B9nfAbQbf7AV0u09vDnOqg", "alias": "jack-in-the-box-oceanside-7", "name": "Jack in the Box", "image_url": "https://s3-media2.fl.yelpcdn.com/bphoto/ba_g2Hr1Ln3pu4_pKqTu8Q/o.jpg", "is_closed": false, "url": "https://www.yelp.com/biz/jack-in-the-box-oceanside-7?adjust_creative=oncXGL2aPIKrtJdnWeFSnA&utm_campaign=yelp_api_v3&utm_medium=api_v3_business_search&utm_source=oncXGL2aPIKrtJdnWeFSnA", "review_count": 27, "categories": [{"alias": "hotdogs", "title": "Fast Food"}, {"alias": "burgers", "title": "Burgers"}], "rating": 2.5, "coordinates": {"latitude": 33.183536529541, "longitude": -117.333084106445}, "transactions": ["delivery"], "price": "$", "location": {"address1": "2474 Vista Way", "address2": "", "address3": "", "city": "Oceanside", "zip_code": "92054", "country": "US", "state": "CA", "display_address": ["2474 Vista Way", "Oceanside, CA 92054"]}, "phone": "+17609660041", "display_phone": "(760) 966-0041", "distance": 4922.58891223516}, {"id": "mPymJYpheTBCOO4ab2KSag", "alias": "american-flavors-food-truck-san-diego", "name": "American Flavors Food Truck", "image_url": "https://s3-media4.fl.yelpcdn.com/bphoto/y6dufZ4HreK9bFu73Qgceg/o.jpg", "is_closed": false, "url": "https://www.yelp.com/biz/american-flavors-food-truck-san-diego?adjust_creative=oncXGL2aPIKrtJdnWeFSnA&utm_campaign=yelp_api_v3&utm_medium=api_v3_business_search&utm_source=oncXGL2aPIKrtJdnWeFSnA", "review_count": 37, "categories": [{"alias": "foodtrucks", "title": "Food Trucks"}, {"alias": "burgers", "title": "Burgers"}, {"alias": "sandwiches", "title": "Sandwiches"}], "rating": 4.0, "coordinates": {"latitude": 32.7138557434082, "longitude": -117.139297485352}, "transactions": [], "price": "$$", "location": {"address1": "", "address2": null, "address3": "", "city": "San Diego", "zip_code": "92102", "country": "US", "state": "CA", "display_address": ["San Diego, CA 92102"]}, "phone": "+18583367418", "display_phone": "(858) 336-7418", "distance": 59277.226666373455}], "total": 30, "region": {"center": {"longitude": -117.31819152832031, "latitude": 33.226009439623446}}}