{"businesses": [{"id": "-ZwjF70WAbgieD_QQvETww", "alias": "china-fusion-oceanside", "name": "China Fusion", "image_url": "https://s3-media4.fl.yelpcdn.com/bphoto/qoHlx2aEX7aXoEplULKIpg/o.jpg", "is_closed": false, "url": "https://www.yelp.com/biz/china-fusion-oceanside?adjust_creative=oncXGL2aPIKrtJdnWeFSnA&utm_campaign=yelp_api_v3&utm_medium=api_v3_business_search&utm_source=oncXGL2aPIKrtJdnWeFSnA", "review_count": 206, "categories": [{"alias": "chinese", "title": "Chinese"}], "rating": 4.5, "coordinates": {"latitude": 33.2064214924819, "longitude": -117.28414903418}, "transactions": [], "price": "$$", "location": {"address1": "4225 Oceanside Blvd", "address2": "Ste B", "address3": null, "city": "Oceanside", "zip_code": "92056", "country": "US", "state": "CA", "display_address": ["4225 Oceanside Blvd", "Ste B", "Oceanside, CA 92056"]}, "phone": "+17607268888", "display_phone": "(760) 726-8888", "distance": 3843.567509493159}, {"id": "kgxmvKa-THNtkpj51jw1EQ", "alias": "great-wok-of-china-oceanside", "name": "Great Wok of China", "image_url": "https://s3-media2.fl.yelpcdn.com/bphoto/2-7B4VZC89bkLZov5SpX3A/o.jpg", "is_closed": false, "url": "https://www.yelp.com/biz/great-wok-of-china-oceanside?adjust_creative=oncXGL2aPIKrtJdnWeFSnA&utm_campaign=yelp_api_v3&utm_medium=api_v3_business_search&utm_source=oncXGL2aPIKrtJdnWeFSnA", "review_count": 393, "categories": [{"alias": "chinese", "title": "Chinese"}, {"alias": "seafood", "title": "Seafood"}, {"alias": "chickenshop", "title": "Chicken Shop"}], "rating": 4.0, "coordinates": {"latitude": 33.23736, "longitude": -117.29712}, "transactions": [], "price": "$", "location": {"address1": "4635 Frazee Rd", "address2": "Ste D", "address3": "", "city": "Oceanside", "zip_code": "92057", "country": "US", "state": "CA", "display_address": ["4635 Frazee Rd", "Ste D", "Oceanside, CA 92057"]}, "phone": "+17604398939", "display_phone": "(760) 439-8939", "distance": 2350.8911317327093}, {"id": "oc2_rhnSN6835fS09iu8vQ", "alias": "chins-szechwan-cuisine-oceanside-oceanside-2", "name": "Chin's Szechwan Cuisine - Oceanside", "image_url": "https://s3-media2.fl.yelpcdn.com/bphoto/vLTp7Cmh0x75gvJA4IyAnw/o.jpg", "is_closed": false, "url": "https://www.yelp.com/biz/chins-szechwan-cuisine-oceanside-oceanside-2?adjust_creative=oncXGL2aPIKrtJdnWeFSnA&utm_campaign=yelp_api_v3&utm_medium=api_v3_business_search&utm_source=oncXGL2aPIKrtJdnWeFSnA", "review_count": 257, "categories": [{"alias": "chinese", "title": "Chinese"}, {"alias": "asianfusion", "title": "Asian Fusion"}, {"alias": "soup", "title": "Soup"}], "rating": 4.0, "coordinates": {"latitude": 33.207614, "longitude": -117.287945}, "transactions": ["delivery", "pickup"], "price": "$$", "location": {"address1": "4140 Oceanside Blvd", "address2": "", "address3": "", "city": "Oceanside", "zip_code": "92056", "country": "US", "state": "CA", "display_address": ["4140 Oceanside Blvd", "Oceanside, CA 92056"]}, "phone": "+17606314808", "display_phone": "(760) 631-4808", "distance": 3478.6429283289754}, {"id": "kSRLVc86XstN0Pq2vm-52A", "alias": "panda-wok-oceanside", "name": "Panda Wok", "image_url": "https://s3-media2.fl.yelpcdn.com/bphoto/zm7J9K_WC0WosxO8Eod9bA/o.jpg", "is_closed": false, "url": "https://www.yelp.com/biz/panda-wok-oceanside?adjust_creative=oncXGL2aPIKrtJdnWeFSnA&utm_campaign=yelp_api_v3&utm_medium=api_v3_business_search&utm_source=oncXGL2aPIKrtJdnWeFSnA", "review_count": 6, "categories": [{"alias": "chinese", "title": "Chinese"}], "rating": 4.5, "coordinates": {"latitude": 33.19373, "longitude": -117.35885}, "transactions": [], "location": {"address1": "1836 Oceanside Blvd", "address2": null, "address3": null, "city": "Oceanside", "zip_code": "92054", "country": "US", "state": "CA", "display_address": ["1836 Oceanside Blvd", "Oceanside, CA 92054"]}, "phone": "+17609673956", "display_phone": "(760) 967-3956", "distance": 5181.640981102976}, {"id": "VrKJLtTWIOUVUualtbJ_sQ", "alias": "quik-wok-oceanside-oceanside", "name": "Quik Wok - Oceanside", "image_url": "https://s3-media2.fl.yelpcdn.com/bphoto/D3clNYBd91x3qwpVpHvZFw/o.jpg", "is_closed": false, "url": "https://www.yelp.com/biz/quik-wok-oceanside-oceanside?adjust_creative=oncXGL2aPIKrtJdnWeFSnA&utm_campaign=yelp_api_v3&utm_medium=api_v3_business_search&utm_source=oncXGL2aPIKrtJdnWeFSnA", "review_count": 205, "categories": [{"alias": "chinese", "title": "Chinese"}], "rating": 3.5, "coordinates": {"latitude": 33.1830715830375, "longitude": -117.341621920268}, "transactions": [], "price": "$", "location": {"address1": "2184 Vista Way", "address2": "", "address3": "", "city": "Oceanside", "zip_code": "92054", "country": "US", "state": "CA", "display_address": ["2184 Vista Way", "Oceanside, CA 92054"]}, "phone": "+17604392228", "display_phone": "(760) 439-2228", "distance": 5248.587549894215}, {"id": "ApajR_enAqPxtT2EI-IEbA", "alias": "chus-quik-wok-oceanside", "name": "Chu's Quik Wok", "image_url": "https://s3-media2.fl.yelpcdn.com/bphoto/6o9Gz8_jMEZdW7ZBA0o8Ow/o.jpg", "is_closed": false, "url": "https://www.yelp.com/biz/chus-quik-wok-oceanside?adjust_creative=oncXGL2aPIKrtJdnWeFSnA&utm_campaign=yelp_api_v3&utm_medium=api_v3_business_search&utm_source=oncXGL2aPIKrtJdnWeFSnA", "review_count": 147, "categories": [{"alias": "chinese", "title": "Chinese"}], "rating": 3.5, "coordinates": {"latitude": 33.240561, "longitude": -117.293537}, "transactions": [], "price": "$", "location": {"address1": "815 College Blvd", "address2": "Ste 107", "address3": "", "city": "Oceanside", "zip_code": "92057", "country": "US", "state": "CA", "display_address": ["815 College Blvd", "Ste 107", "Oceanside, CA 92057"]}, "phone": "+17607267771", "display_phone": "(760) 726-7771", "distance": 2806.4791875093715}, {"id": "NZsIIH5zFa9DbBH2gyiwxA", "alias": "panda-wok-oceanside-2", "name": "Panda Wok", "image_url": "https://s3-media4.fl.yelpcdn.com/bphoto/Q6rjHYiSpaiMKlwaJDz5oA/o.jpg", "is_closed": false, "url": "https://www.yelp.com/biz/panda-wok-oceanside-2?adjust_creative=oncXGL2aPIKrtJdnWeFSnA&utm_campaign=yelp_api_v3&utm_medium=api_v3_business_search&utm_source=oncXGL2aPIKrtJdnWeFSnA", "review_count": 1, "categories": [{"alias": "chinese", "title": "Chinese"}], "rating": 4.0, "coordinates": {"latitude": 33.1931156690619, "longitude": -117.357905609654}, "transactions": [], "location": {"address1": "1836 Oceanside Blvd", "address2": "Ste 101", "address3": null, "city": "Oceanside", "zip_code": "92054", "country": "US", "state": "CA", "display_address": ["1836 Oceanside Blvd", "Ste 101", "Oceanside, CA 92054"]}, "phone": "+17609673956", "display_phone": "(760) 967-3956", "distance": 5198.9722798263}, {"id": "Mm1kzhW7TSA7wssjSuSoOw", "alias": "panda-express-oceanside-3", "name": "Panda Express", "image_url": "https://s3-media4.fl.yelpcdn.com/bphoto/p9DoPWAwn7E__lc228k5Cw/o.jpg", "is_closed": false, "url": "https://www.yelp.com/biz/panda-express-oceanside-3?adjust_creative=oncXGL2aPIKrtJdnWeFSnA&utm_campaign=yelp_api_v3&utm_medium=api_v3_business_search&utm_source=oncXGL2aPIKrtJdnWeFSnA", "review_count": 52, "categories": [{"alias": "chinese", "title": "Chinese"}, {"alias": "hotdogs", "title": "Fast Food"}], "rating": 3.5, "coordinates": {"latitude": 33.22728, "longitude": -117.32638}, "transactions": [], "price": "$", "location": {"address1": "47 Douglas Dr", "address2": null, "address3": null, "city": "Oceanside", "zip_code": "92054", "country": "US", "state": "CA", "display_address": ["47 Douglas Dr", "Oceanside, CA 92054"]}, "phone": "+17609679006", "display_phone": "(760) 967-9006", "distance": 788.9674726518251}, {"id": "2BrFsg9tc7HAcaq97bxAZQ", "alias": "pick-up-stix-oceanside", "name": "Pick Up Stix", "image_url": "https://s3-media4.fl.yelpcdn.com/bphoto/P3k-AKUUxVlsSRPmaVN5Qw/o.jpg", "is_closed": false, "url": "https://www.yelp.com/biz/pick-up-stix-oceanside?adjust_creative=oncXGL2aPIKrtJdnWeFSnA&utm_campaign=yelp_api_v3&utm_medium=api_v3_business_search&utm_source=oncXGL2aPIKrtJdnWeFSnA", "review_count": 75, "categories": [{"alias": "chinese", "title": "Chinese"}, {"alias": "asianfusion", "title": "Asian Fusion"}], "rating": 2.5, "coordinates": {"latitude": 33.230465, "longitude": -117.309383}, "transactions": ["delivery", "pickup"], "price": "$", "location": {"address1": "125 Old Grove Rd", "address2": "Ste 6", "address3": "", "city": "Oceanside", "zip_code": "92057", "country": "US", "state": "CA", "display_address": ["125 Old Grove Rd", "Ste 6", "Oceanside, CA 92057"]}, "phone": "+17609674081", "display_phone": "(760) 967-4081", "distance": 957.4617093088877}, {"id": "6FL9seyNKnpMsugRBkMNEQ", "alias": "chinatown-express-oceanside", "name": "Chinatown Express", "image_url": "https://s3-media4.fl.yelpcdn.com/bphoto/6RvMCJ_vvFoInDQq_K48PQ/o.jpg", "is_closed": false, "url": "https://www.yelp.com/biz/chinatown-express-oceanside?adjust_creative=oncXGL2aPIKrtJdnWeFSnA&utm_campaign=yelp_api_v3&utm_medium=api_v3_business_search&utm_source=oncXGL2aPIKrtJdnWeFSnA", "review_count": 61, "categories": [{"alias": "chinese", "title": "Chinese"}], "rating": 3.0, "coordinates": {"latitude": 33.1844825744629, "longitude": -117.29369354248}, "transactions": [], "price": "$", "location": {"address1": "3910 Vista Way", "address2": "Ste 109", "address3": "", "city": "Oceanside", "zip_code": "92056", "country": "US", "state": "CA", "display_address": ["3910 Vista Way", "Ste 109", "Oceanside, CA 92056"]}, "phone": "+17608066567", "display_phone": "(760) 806-6567", "distance": 5154.515307120133}, {"id": "AWQB--GdK2KHNwej0-F2bA", "alias": "sun-hing-buffet-vista", "name": "Sun Hing Buffet", "image_url": "https://s3-media3.fl.yelpcdn.com/bphoto/ZWWg3o2sl180SSMWlHJK9A/o.jpg", "is_closed": false, "url": "https://www.yelp.com/biz/sun-hing-buffet-vista?adjust_creative=oncXGL2aPIKrtJdnWeFSnA&utm_campaign=yelp_api_v3&utm_medium=api_v3_business_search&utm_source=oncXGL2aPIKrtJdnWeFSnA", "review_count": 166, "categories": [{"alias": "buffets", "title": "Buffets"}, {"alias": "chinese", "title": "Chinese"}], "rating": 3.0, "coordinates": {"latitude": 33.1846508919716, "longitude": -117.282936562427}, "transactions": [], "price": "$$", "location": {"address1": "1960 Hacienda Dr", "address2": "", "address3": "", "city": "Vista", "zip_code": "92081", "country": "US", "state": "CA", "display_address": ["1960 Hacienda Dr", "Vista, CA 92081"]}, "phone": "+17608063586", "display_phone": "(760) 806-3586", "distance": 5648.738857187989}, {"id": "rJ5vu8wlhibkLhV6zYWD6g", "alias": "panda-express-oceanside", "name": "Panda Express", "image_url": "https://s3-media4.fl.yelpcdn.com/bphoto/3BJdLj_8IJ1rXcK_7uTo-g/o.jpg", "is_closed": false, "url": "https://www.yelp.com/biz/panda-express-oceanside?adjust_creative=oncXGL2aPIKrtJdnWeFSnA&utm_campaign=yelp_api_v3&utm_medium=api_v3_business_search&utm_source=oncXGL2aPIKrtJdnWeFSnA", "review_count": 63, "categories": [{"alias": "chinese", "title": "Chinese"}, {"alias": "hotdogs", "title": "Fast Food"}], "rating": 2.5, "coordinates": {"latitude": 33.2057495, "longitude": -117.2883377}, "transactions": [], "price": "$", "location": {"address1": "4121 Oceanside Blvd", "address2": "", "address3": "", "city": "Oceanside", "zip_code": "92056", "country": "US", "state": "CA", "display_address": ["4121 Oceanside Blvd", "Oceanside, CA 92056"]}, "phone": "+17607321196", "display_phone": "(760) 732-1196", "distance": 3567.7614720321712}, {"id": "gb_z40Cbs0v3shN1urpuJg", "alias": "peking-garden-oceanside", "name": "Peking Garden", "image_url": "", "is_closed": false, "url": "https://www.yelp.com/biz/peking-garden-oceanside?adjust_creative=oncXGL2aPIKrtJdnWeFSnA&utm_campaign=yelp_api_v3&utm_medium=api_v3_business_search&utm_source=oncXGL2aPIKrtJdnWeFSnA", "review_count": 1, "categories": [{"alias": "catering", "title": "Caterers"}, {"alias": "chinese", "title": "Chinese"}], "rating": 1.0, "coordinates": {"latitude": 33.1818085, "longitude": -117.290947}, "transactions": [], "location": {"address1": "3829 Plaza Dr", "address2": "Ste 601", "address3": "", "city": "Oceanside", "zip_code": "92056", "country": "US", "state": "CA", "display_address": ["3829 Plaza Dr", "Ste 601", "Oceanside, CA 92056"]}, "phone": "+17609410079", "display_phone": "(760) 941-0079", "distance": 5562.02870090652}], "total": 13, "region": {"center": {"longitude": -117.31819152832031, "latitude": 33.226009439623446}}}