{"businesses": [{"id": "A0mWHoOmHUJJdbTDVN1MMA", "alias": "homestyle-hawaiian-oceanside", "name": "Homestyle Hawaiian", "image_url": "https://s3-media1.fl.yelpcdn.com/bphoto/qZ-WDlPUKeU__VQOsxBEJg/o.jpg", "is_closed": false, "url": "https://www.yelp.com/biz/homestyle-hawaiian-oceanside?adjust_creative=oncXGL2aPIKrtJdnWeFSnA&utm_campaign=yelp_api_v3&utm_medium=api_v3_business_search&utm_source=oncXGL2aPIKrtJdnWeFSnA", "review_count": 14, "categories": [{"alias": "hawaiian", "title": "Hawaiian"}], "rating": 4.0, "coordinates": {"latitude": 33.19498, "longitude": -117.35455}, "transactions": [], "location": {"address1": "1950 Oceanside Blvd", "address2": null, "address3": "", "city": "Oceanside", "zip_code": "92054", "country": "US", "state": "CA", "display_address": ["1950 Oceanside Blvd", "Oceanside, CA 92054"]}, "phone": "+17606963030", "display_phone": "(760) 696-3030", "distance": 4845.664218952649}, {"id": "YK1Xrn9MBg4PxrgIIsjheQ", "alias": "wicked-poke-oceanside", "name": "Wicked Poke", "image_url": "https://s3-media1.fl.yelpcdn.com/bphoto/BggOhgd5QUIJSNZlVJamnw/o.jpg", "is_closed": false, "url": "https://www.yelp.com/biz/wicked-poke-oceanside?adjust_creative=oncXGL2aPIKrtJdnWeFSnA&utm_campaign=yelp_api_v3&utm_medium=api_v3_business_search&utm_source=oncXGL2aPIKrtJdnWeFSnA", "review_count": 306, "categories": [{"alias": "poke", "title": "Poke"}, {"alias": "shavedice", "title": "Shaved Ice"}, {"alias": "hawaiian", "title": "Hawaiian"}], "rating": 4.5, "coordinates": {"latitude": 33.1827333308032, "longitude": -117.335424575336}, "transactions": [], "price": "$", "location": {"address1": "2401 Vista Way", "address2": "Ste E", "address3": null, "city": "Oceanside", "zip_code": "92054", "country": "US", "state": "CA", "display_address": ["2401 Vista Way", "Ste E", "Oceanside, CA 92054"]}, "phone": "+17605290774", "display_phone": "(760) 529-0774", "distance": 5072.161858391016}, {"id": "tyAK08taAaH7TJRDYmDNoA", "alias": "teri-cafe-oceanside-2", "name": "Teri Cafe", "image_url": "https://s3-media3.fl.yelpcdn.com/bphoto/EqgDweHE3dVyAl4oVYCk8Q/o.jpg", "is_closed": false, "url": "https://www.yelp.com/biz/teri-cafe-oceanside-2?adjust_creative=oncXGL2aPIKrtJdnWeFSnA&utm_campaign=yelp_api_v3&utm_medium=api_v3_business_search&utm_source=oncXGL2aPIKrtJdnWeFSnA", "review_count": 607, "categories": [{"alias": "sushi", "title": "Sushi Bars"}, {"alias": "hawaiian", "title": "Hawaiian"}, {"alias": "ramen", "title": "Ramen"}], "rating": 4.0, "coordinates": {"latitude": 33.181676135002, "longitude": -117.29310357791}, "transactions": [], "price": "$", "location": {"address1": "3809 Plaza Dr", "address2": "Ste101", "address3": "", "city": "Oceanside", "zip_code": "92056", "country": "US", "state": "CA", "display_address": ["3809 Plaza Dr", "Ste101", "Oceanside, CA 92056"]}, "phone": "+17609458888", "display_phone": "(760) 945-8888", "distance": 5454.32520120165}, {"id": "qM5NeJk4A8tSfdosbgUAdQ", "alias": "l-and-l-hawaiian-barbecue-oceanside-2", "name": "L&L Hawaiian Barbecue", "image_url": "https://s3-media2.fl.yelpcdn.com/bphoto/jWipNNKBB4ZCetHL1Qaalw/o.jpg", "is_closed": false, "url": "https://www.yelp.com/biz/l-and-l-hawaiian-barbecue-oceanside-2?adjust_creative=oncXGL2aPIKrtJdnWeFSnA&utm_campaign=yelp_api_v3&utm_medium=api_v3_business_search&utm_source=oncXGL2aPIKrtJdnWeFSnA", "review_count": 129, "categories": [{"alias": "bbq", "title": "Barbeque"}, {"alias": "hawaiian", "title": "Hawaiian"}], "rating": 4.0, "coordinates": {"latitude": 33.2065510147543, "longitude": -117.283936571967}, "transactions": [], "price": "$", "location": {"address1": "4225 Oceanside Blvd", "address2": "Ste E", "address3": null, "city": "Oceanside", "zip_code": "92056", "country": "US", "state": "CA", "display_address": ["4225 Oceanside Blvd", "Ste E", "Oceanside, CA 92056"]}, "phone": "+17607260888", "display_phone": "(760) 726-0888", "distance": 3851.757986750646}, {"id": "OVAO2XkGwTp_TidI8YSDxw", "alias": "ohana-hawaiian-bbq-oceanside", "name": "Ohana Hawaiian BBQ", "image_url": "https://s3-media2.fl.yelpcdn.com/bphoto/buWhiT7GNPSD3Y-Q2iZovQ/o.jpg", "is_closed": false, "url": "https://www.yelp.com/biz/ohana-hawaiian-bbq-oceanside?adjust_creative=oncXGL2aPIKrtJdnWeFSnA&utm_campaign=yelp_api_v3&utm_medium=api_v3_business_search&utm_source=oncXGL2aPIKrtJdnWeFSnA", "review_count": 125, "categories": [{"alias": "hawaiian", "title": "Hawaiian"}, {"alias": "seafood", "title": "Seafood"}, {"alias": "burgers", "title": "Burgers"}], "rating": 3.5, "coordinates": {"latitude": 33.2452381392478, "longitude": -117.293055949074}, "transactions": [], "price": "$", "location": {"address1": "459 College Blvd", "address2": "", "address3": "", "city": "Oceanside", "zip_code": "92057", "country": "US", "state": "CA", "display_address": ["459 College Blvd", "Oceanside, CA 92057"]}, "phone": "+17606306800", "display_phone": "(760) 630-6800", "distance": 3168.0787178168107}, {"id": "crl2aOL0NiFcPT7spXXVrA", "alias": "maui-hawaiian-bbq-oceanside", "name": "Maui Hawaiian BBQ", "image_url": "https://s3-media2.fl.yelpcdn.com/bphoto/SXP21OoXVeEdvMb_IGTsFQ/o.jpg", "is_closed": false, "url": "https://www.yelp.com/biz/maui-hawaiian-bbq-oceanside?adjust_creative=oncXGL2aPIKrtJdnWeFSnA&utm_campaign=yelp_api_v3&utm_medium=api_v3_business_search&utm_source=oncXGL2aPIKrtJdnWeFSnA", "review_count": 181, "categories": [{"alias": "hawaiian", "title": "Hawaiian"}, {"alias": "bbq", "title": "Barbeque"}], "rating": 3.0, "coordinates": {"latitude": 33.1826324462891, "longitude": -117.333488464355}, "transactions": [], "price": "$", "location": {"address1": "2455 Vista Way", "address2": "Ste D", "address3": "", "city": "Oceanside", "zip_code": "92054", "country": "US", "state": "CA", "display_address": ["2455 Vista Way", "Ste D", "Oceanside, CA 92054"]}, "phone": "+17607228383", "display_phone": "(760) 722-8383", "distance": 5022.853046013988}], "total": 6, "region": {"center": {"longitude": -117.31819152832031, "latitude": 33.226009439623446}}}