{"businesses": [{"id": "v1H9N_3k3ckng8NcZek6gw", "alias": "fratellis-italian-kitchen-oceanside-5", "name": "Fratelli's Italian Kitchen", "image_url": "https://s3-media1.fl.yelpcdn.com/bphoto/rAUy6VUipaPXVzdSQ-g2lg/o.jpg", "is_closed": false, "url": "https://www.yelp.com/biz/fratellis-italian-kitchen-oceanside-5?adjust_creative=oncXGL2aPIKrtJdnWeFSnA&utm_campaign=yelp_api_v3&utm_medium=api_v3_business_search&utm_source=oncXGL2aPIKrtJdnWeFSnA", "review_count": 678, "categories": [{"alias": "italian", "title": "Italian"}, {"alias": "pizza", "title": "Pizza"}, {"alias": "seafood", "title": "Seafood"}], "rating": 4.5, "coordinates": {"latitude": 33.2281406, "longitude": -117.3245743}, "transactions": ["delivery", "pickup"], "price": "$$", "location": {"address1": "3915 Mission Ave", "address2": "Ste 12", "address3": "", "city": "Oceanside", "zip_code": "92058", "country": "US", "state": "CA", "display_address": ["3915 Mission Ave", "Ste 12", "Oceanside, CA 92058"]}, "phone": "+17606969007", "display_phone": "(760) 696-9007", "distance": 624.0395120973519}, {"id": "UPGYeMQGPyKahAsW0AMorw", "alias": "mangia-e-bevi-oceanside", "name": "Mangia e Bevi", "image_url": "https://s3-media2.fl.yelpcdn.com/bphoto/JyNc7RZ6xSYKdnkOArHM2Q/o.jpg", "is_closed": false, "url": "https://www.yelp.com/biz/mangia-e-bevi-oceanside?adjust_creative=oncXGL2aPIKrtJdnWeFSnA&utm_campaign=yelp_api_v3&utm_medium=api_v3_business_search&utm_source=oncXGL2aPIKrtJdnWeFSnA", "review_count": 16, "categories": [{"alias": "italian", "title": "Italian"}, {"alias": "pizza", "title": "Pizza"}, {"alias": "wine_bars", "title": "Wine Bars"}], "rating": 5.0, "coordinates": {"latitude": 33.21011, "longitude": -117.31162}, "transactions": [], "location": {"address1": "3613 Ocean Ranch Blvd", "address2": "Ste 100", "address3": "", "city": "Oceanside", "zip_code": "92056", "country": "US", "state": "CA", "display_address": ["3613 Ocean Ranch Blvd", "Ste 100", "Oceanside, CA 92056"]}, "phone": "+17602311225", "display_phone": "(760) 231-1225", "distance": 1877.8899368942748}, {"id": "EL7USeh31s554-xZzIH32Q", "alias": "upper-crust-pizza-oceanside", "name": "Upper Crust Pizza", "image_url": "https://s3-media2.fl.yelpcdn.com/bphoto/bDpUVBucBIoxbV08_AHrNw/o.jpg", "is_closed": false, "url": "https://www.yelp.com/biz/upper-crust-pizza-oceanside?adjust_creative=oncXGL2aPIKrtJdnWeFSnA&utm_campaign=yelp_api_v3&utm_medium=api_v3_business_search&utm_source=oncXGL2aPIKrtJdnWeFSnA", "review_count": 203, "categories": [{"alias": "pizza", "title": "Pizza"}, {"alias": "italian", "title": "Italian"}, {"alias": "sandwiches", "title": "Sandwiches"}], "rating": 4.0, "coordinates": {"latitude": 33.207398, "longitude": -117.2852966}, "transactions": ["delivery", "pickup"], "price": "$", "location": {"address1": "4196 Oceanside Blvd", "address2": "Ste A", "address3": "", "city": "Oceanside", "zip_code": "92056", "country": "US", "state": "CA", "display_address": ["4196 Oceanside Blvd", "Ste A", "Oceanside, CA 92056"]}, "phone": "+17606309330", "display_phone": "(760) 630-9330", "distance": 3603.9887341595263}, {"id": "ifNdP275VpRv2wW8GhAriQ", "alias": "romanos-macaroni-grill-oceanside", "name": "Romano's Macaroni Grill", "image_url": "https://s3-media2.fl.yelpcdn.com/bphoto/vKi-9UVp6wgUCTjS0qTTZQ/o.jpg", "is_closed": false, "url": "https://www.yelp.com/biz/romanos-macaroni-grill-oceanside?adjust_creative=oncXGL2aPIKrtJdnWeFSnA&utm_campaign=yelp_api_v3&utm_medium=api_v3_business_search&utm_source=oncXGL2aPIKrtJdnWeFSnA", "review_count": 304, "categories": [{"alias": "italian", "title": "Italian"}], "rating": 3.0, "coordinates": {"latitude": 33.1818596992951, "longitude": -117.330654468857}, "transactions": ["delivery", "pickup"], "price": "$$", "location": {"address1": "2655 Vista Way", "address2": "", "address3": "", "city": "Oceanside", "zip_code": "92054", "country": "US", "state": "CA", "display_address": ["2655 Vista Way", "Oceanside, CA 92054"]}, "phone": "+17607229905", "display_phone": "(760) 722-9905", "distance": 5044.304561706345}, {"id": "tLNKsTrU0T8UyilCLaP5-g", "alias": "cusimanos-pizzeria-oceanside", "name": "Cusimano's Pizzeria", "image_url": "https://s3-media2.fl.yelpcdn.com/bphoto/D7ilQsCQoyhId9FiXeYp5g/o.jpg", "is_closed": false, "url": "https://www.yelp.com/biz/cusimanos-pizzeria-oceanside?adjust_creative=oncXGL2aPIKrtJdnWeFSnA&utm_campaign=yelp_api_v3&utm_medium=api_v3_business_search&utm_source=oncXGL2aPIKrtJdnWeFSnA", "review_count": 68, "categories": [{"alias": "pizza", "title": "Pizza"}, {"alias": "italian", "title": "Italian"}], "rating": 4.0, "coordinates": {"latitude": 33.181416, "longitude": -117.293098}, "transactions": [], "price": "$", "location": {"address1": "3809 Plaza Dr", "address2": "", "address3": "", "city": "Oceanside", "zip_code": "92056", "country": "US", "state": "CA", "display_address": ["3809 Plaza Dr", "Oceanside, CA 92056"]}, "phone": "+17604141200", "display_phone": "(760) 414-1200", "distance": 5485.04898102267}, {"id": "phEUoIcACT5PWHDbL27t2w", "alias": "pizza-hut-oceanside-3", "name": "Pizza Hut", "image_url": "https://s3-media1.fl.yelpcdn.com/bphoto/GSktTdUfxFjlU6_GPrcYsw/o.jpg", "is_closed": false, "url": "https://www.yelp.com/biz/pizza-hut-oceanside-3?adjust_creative=oncXGL2aPIKrtJdnWeFSnA&utm_campaign=yelp_api_v3&utm_medium=api_v3_business_search&utm_source=oncXGL2aPIKrtJdnWeFSnA", "review_count": 34, "categories": [{"alias": "pizza", "title": "Pizza"}, {"alias": "italian", "title": "Italian"}, {"alias": "chicken_wings", "title": "Chicken Wings"}], "rating": 2.5, "coordinates": {"latitude": 33.2555999755859, "longitude": -117.300163269043}, "transactions": [], "price": "$", "location": {"address1": "610 North Redondo Dr", "address2": "", "address3": "", "city": "Oceanside", "zip_code": "92057", "country": "US", "state": "CA", "display_address": ["610 North Redondo Dr", "Oceanside, CA 92057"]}, "phone": "+17604334433", "display_phone": "(760) 433-4433", "distance": 3681.4054189847693}, {"id": "bVYYT_Lltr4DzUEArmwvhQ", "alias": "pizza-hut-oceanside-5", "name": "Pizza Hut", "image_url": "https://s3-media3.fl.yelpcdn.com/bphoto/I7OiBIb04Vkf-cGHHZhCiQ/o.jpg", "is_closed": false, "url": "https://www.yelp.com/biz/pizza-hut-oceanside-5?adjust_creative=oncXGL2aPIKrtJdnWeFSnA&utm_campaign=yelp_api_v3&utm_medium=api_v3_business_search&utm_source=oncXGL2aPIKrtJdnWeFSnA", "review_count": 27, "categories": [{"alias": "pizza", "title": "Pizza"}, {"alias": "italian", "title": "Italian"}, {"alias": "chicken_wings", "title": "Chicken Wings"}], "rating": 2.0, "coordinates": {"latitude": 33.2081985, "longitude": -117.2858429}, "transactions": [], "price": "$", "location": {"address1": "4170 Oceanside Blvd", "address2": "Ste 191", "address3": "", "city": "Oceanside", "zip_code": "92056", "country": "US", "state": "CA", "display_address": ["4170 Oceanside Blvd", "Ste 191", "Oceanside, CA 92056"]}, "phone": "+17606310078", "display_phone": "(760) 631-0078", "distance": 3622.3146595657595}, {"id": "ssz7s1CpGeXprObDTKn2qQ", "alias": "pizza-hut-oceanside-2", "name": "Pizza Hut", "image_url": "https://s3-media1.fl.yelpcdn.com/bphoto/lF-3NPtlV2mHcTQyPMr2GQ/o.jpg", "is_closed": false, "url": "https://www.yelp.com/biz/pizza-hut-oceanside-2?adjust_creative=oncXGL2aPIKrtJdnWeFSnA&utm_campaign=yelp_api_v3&utm_medium=api_v3_business_search&utm_source=oncXGL2aPIKrtJdnWeFSnA", "review_count": 43, "categories": [{"alias": "pizza", "title": "Pizza"}, {"alias": "italian", "title": "Italian"}, {"alias": "chicken_wings", "title": "Chicken Wings"}], "rating": 2.5, "coordinates": {"latitude": 33.1926885992289, "longitude": -117.358136996627}, "transactions": [], "price": "$", "location": {"address1": "1836 Oceanside Blvd", "address2": "Ste B", "address3": "", "city": "Oceanside", "zip_code": "92054", "country": "US", "state": "CA", "display_address": ["1836 Oceanside Blvd", "Ste B", "Oceanside, CA 92054"]}, "phone": "+17607213900", "display_phone": "(760) 721-3900", "distance": 5181.640981102976}, {"id": "vfIhADAscU-i_znfoU4mJQ", "alias": "scooters-italian-ice-orange", "name": "Scooters Italian Ice", "image_url": "https://s3-media3.fl.yelpcdn.com/bphoto/uIUZo4YYboFajryu0dxKdg/o.jpg", "is_closed": false, "url": "https://www.yelp.com/biz/scooters-italian-ice-orange?adjust_creative=oncXGL2aPIKrtJdnWeFSnA&utm_campaign=yelp_api_v3&utm_medium=api_v3_business_search&utm_source=oncXGL2aPIKrtJdnWeFSnA", "review_count": 29, "categories": [{"alias": "foodtrucks", "title": "Food Trucks"}, {"alias": "italian", "title": "Italian"}], "rating": 5.0, "coordinates": {"latitude": 33.76342, "longitude": -117.79557}, "transactions": [], "price": "$", "location": {"address1": "", "address2": "", "address3": "", "city": "Orange", "zip_code": "92705", "country": "US", "state": "CA", "display_address": ["Orange, CA 92705"]}, "phone": "+18553372668", "display_phone": "(855) 337-2668", "distance": 73157.72969027409}], "total": 9, "region": {"center": {"longitude": -117.31819152832031, "latitude": 33.226009439623446}}}