{"businesses": [{"id": "6Ge_qt8Ql0H9GUORlv-ryA", "alias": "miramar-fish-tacos-and-beer-oceanside", "name": "Miramar Fish Tacos & Beer", "image_url": "https://s3-media3.fl.yelpcdn.com/bphoto/3LLl3463i_uOHVo2x59Mqw/o.jpg", "is_closed": false, "url": "https://www.yelp.com/biz/miramar-fish-tacos-and-beer-oceanside?adjust_creative=oncXGL2aPIKrtJdnWeFSnA&utm_campaign=yelp_api_v3&utm_medium=api_v3_business_search&utm_source=oncXGL2aPIKrtJdnWeFSnA", "review_count": 961, "categories": [{"alias": "seafood", "title": "Seafood"}, {"alias": "mexican", "title": "Mexican"}, {"alias": "bars", "title": "Bars"}], "rating": 4.5, "coordinates": {"latitude": 33.2266917472111, "longitude": -117.326495720249}, "transactions": [], "price": "$", "location": {"address1": "41 Douglas Dr", "address2": "Ste 100", "address3": "", "city": "Oceanside", "zip_code": "92058", "country": "US", "state": "CA", "display_address": ["41 Douglas Dr", "Ste 100", "Oceanside, CA 92058"]}, "phone": "+17607212147", "display_phone": "(760) 721-2147", "distance": 776.1383935421097}, {"id": "qO_F16kpouPnyAjHnWC-Fg", "alias": "sinaloa-mexican-and-seafood-oceanside", "name": "Sinaloa Mexican & Seafood", "image_url": "https://s3-media1.fl.yelpcdn.com/bphoto/7U6tJ9mvPRfHtcP_i1Tkfw/o.jpg", "is_closed": false, "url": "https://www.yelp.com/biz/sinaloa-mexican-and-seafood-oceanside?adjust_creative=oncXGL2aPIKrtJdnWeFSnA&utm_campaign=yelp_api_v3&utm_medium=api_v3_business_search&utm_source=oncXGL2aPIKrtJdnWeFSnA", "review_count": 158, "categories": [{"alias": "seafood", "title": "Seafood"}, {"alias": "mexican", "title": "Mexican"}], "rating": 4.5, "coordinates": {"latitude": 33.189866, "longitude": -117.359567}, "transactions": [], "price": "$", "location": {"address1": "1759 Oceanside Blvd", "address2": "", "address3": "", "city": "Oceanside", "zip_code": "92054", "country": "US", "state": "CA", "display_address": ["1759 Oceanside Blvd", "Oceanside, CA 92054"]}, "phone": "+17606963507", "display_phone": "(760) 696-3507", "distance": 5565.053066037724}, {"id": "bjN7AFwY8BBrNZsRoazSog", "alias": "los-amigos-mexican-food-oceanside", "name": "Los Amigos Mexican Food", "image_url": "https://s3-media3.fl.yelpcdn.com/bphoto/B8l4lN0SKNnPL3_1A3fCDQ/o.jpg", "is_closed": false, "url": "https://www.yelp.com/biz/los-amigos-mexican-food-oceanside?adjust_creative=oncXGL2aPIKrtJdnWeFSnA&utm_campaign=yelp_api_v3&utm_medium=api_v3_business_search&utm_source=oncXGL2aPIKrtJdnWeFSnA", "review_count": 98, "categories": [{"alias": "mexican", "title": "Mexican"}], "rating": 4.5, "coordinates": {"latitude": 33.2283791, "longitude": -117.3238975}, "transactions": [], "price": "$", "location": {"address1": "3935 Mission Ave", "address2": "", "address3": "", "city": "Oceanside", "zip_code": "92058", "country": "US", "state": "CA", "display_address": ["3935 Mission Ave", "Oceanside, CA 92058"]}, "phone": "+17604350921", "display_phone": "(760) 435-0921", "distance": 510.1057488912018}, {"id": "gfvYmHkZTp0Kbp0Ye_fBpQ", "alias": "los-tacos-oceanside", "name": "Los Tacos", "image_url": "https://s3-media4.fl.yelpcdn.com/bphoto/kOIoffoBqZFlv-L3FxEulw/o.jpg", "is_closed": false, "url": "https://www.yelp.com/biz/los-tacos-oceanside?adjust_creative=oncXGL2aPIKrtJdnWeFSnA&utm_campaign=yelp_api_v3&utm_medium=api_v3_business_search&utm_source=oncXGL2aPIKrtJdnWeFSnA", "review_count": 519, "categories": [{"alias": "mexican", "title": "Mexican"}], "rating": 4.0, "coordinates": {"latitude": 33.18254, "longitude": -117.34075}, "transactions": [], "price": "$", "location": {"address1": "2183 Vista Way", "address2": "Ste B-9", "address3": "", "city": "Oceanside", "zip_code": "92054", "country": "US", "state": "CA", "display_address": ["2183 Vista Way", "Ste B-9", "Oceanside, CA 92054"]}, "phone": "+17607578226", "display_phone": "(760) 757-8226", "distance": 5267.169350799196}, {"id": "2-YtTwY2JkobfdgDqAzTLw", "alias": "marietas-restaurant-oceanside", "name": "Marieta's Fine Mexican Food & Cocktails", "image_url": "https://s3-media4.fl.yelpcdn.com/bphoto/pnOxxiYGwiU-1269bkq9Bw/o.jpg", "is_closed": false, "url": "https://www.yelp.com/biz/marietas-restaurant-oceanside?adjust_creative=oncXGL2aPIKrtJdnWeFSnA&utm_campaign=yelp_api_v3&utm_medium=api_v3_business_search&utm_source=oncXGL2aPIKrtJdnWeFSnA", "review_count": 312, "categories": [{"alias": "mexican", "title": "Mexican"}, {"alias": "bars", "title": "Bars"}], "rating": 4.0, "coordinates": {"latitude": 33.254222, "longitude": -117.299939}, "transactions": [], "price": "$$", "location": {"address1": "485 Vandegrift Blvd", "address2": "", "address3": "", "city": "Oceanside", "zip_code": "92057", "country": "US", "state": "CA", "display_address": ["485 Vandegrift Blvd", "Oceanside, CA 92057"]}, "phone": "+17609671769", "display_phone": "(760) 967-1769", "distance": 3566.9123545923903}, {"id": "hjNP2AePX5ml9e_StmH8Lg", "alias": "mariscos-el-pulpo-loko-oceanside-2", "name": "Mariscos El Pulpo Loko", "image_url": "https://s3-media2.fl.yelpcdn.com/bphoto/zVgBOcPU5ovR_Ay6sHtC6Q/o.jpg", "is_closed": false, "url": "https://www.yelp.com/biz/mariscos-el-pulpo-loko-oceanside-2?adjust_creative=oncXGL2aPIKrtJdnWeFSnA&utm_campaign=yelp_api_v3&utm_medium=api_v3_business_search&utm_source=oncXGL2aPIKrtJdnWeFSnA", "review_count": 99, "categories": [{"alias": "mexican", "title": "Mexican"}, {"alias": "seafood", "title": "Seafood"}, {"alias": "bars", "title": "Bars"}], "rating": 4.0, "coordinates": {"latitude": 33.19414, "longitude": -117.35677}, "transactions": ["delivery", "pickup"], "price": "$$", "location": {"address1": "1906 Oceanside Blvd", "address2": null, "address3": "", "city": "Oceanside", "zip_code": "92054", "country": "US", "state": "CA", "display_address": ["1906 Oceanside Blvd", "Oceanside, CA 92054"]}, "phone": "+17605475624", "display_phone": "(760) 547-5624", "distance": 5022.0395882847315}, {"id": "3Qou07wmYij3Bm9aGhPqGQ", "alias": "valeries-taco-stand-oceanside", "name": "Valeries Taco Stand", "image_url": "https://s3-media1.fl.yelpcdn.com/bphoto/3gOldFW57NCLfRMMIiMbZQ/o.jpg", "is_closed": false, "url": "https://www.yelp.com/biz/valeries-taco-stand-oceanside?adjust_creative=oncXGL2aPIKrtJdnWeFSnA&utm_campaign=yelp_api_v3&utm_medium=api_v3_business_search&utm_source=oncXGL2aPIKrtJdnWeFSnA", "review_count": 61, "categories": [{"alias": "tacos", "title": "Tacos"}], "rating": 4.5, "coordinates": {"latitude": 33.18611, "longitude": -117.3289}, "transactions": [], "price": "$", "location": {"address1": "2213 S El Camino Real", "address2": "Ste D", "address3": null, "city": "Oceanside", "zip_code": "92054", "country": "US", "state": "CA", "display_address": ["2213 S El Camino Real", "Ste D", "Oceanside, CA 92054"]}, "phone": "+17602315458", "display_phone": "(760) 231-5458", "distance": 4548.253151864922}, {"id": "fpeBODForoETVChU_Ddqsw", "alias": "fiesta-mexicana-oceanside-2", "name": "Fiesta Mexicana", "image_url": "https://s3-media2.fl.yelpcdn.com/bphoto/COSRXKW7KbxG5RGhnL-JWw/o.jpg", "is_closed": false, "url": "https://www.yelp.com/biz/fiesta-mexicana-oceanside-2?adjust_creative=oncXGL2aPIKrtJdnWeFSnA&utm_campaign=yelp_api_v3&utm_medium=api_v3_business_search&utm_source=oncXGL2aPIKrtJdnWeFSnA", "review_count": 141, "categories": [{"alias": "mexican", "title": "Mexican"}, {"alias": "wine_bars", "title": "Wine Bars"}, {"alias": "latin", "title": "Latin American"}], "rating": 4.0, "coordinates": {"latitude": 33.227767, "longitude": -117.331779}, "transactions": [], "price": "$$", "location": {"address1": "3784 Mission Ave", "address2": "Ste D", "address3": "", "city": "Oceanside", "zip_code": "92054", "country": "US", "state": "CA", "display_address": ["3784 Mission Ave", "Ste D", "Oceanside, CA 92054"]}, "phone": "+17607579872", "display_phone": "(760) 757-9872", "distance": 1287.335943706509}, {"id": "H-D1wJ345KV2ZLTDX6UMKg", "alias": "mariscos-ensenada-oceanside", "name": "Mariscos Ensenada", "image_url": "https://s3-media2.fl.yelpcdn.com/bphoto/x6A0DzVJy1xWuFn2FvD5BQ/o.jpg", "is_closed": false, "url": "https://www.yelp.com/biz/mariscos-ensenada-oceanside?adjust_creative=oncXGL2aPIKrtJdnWeFSnA&utm_campaign=yelp_api_v3&utm_medium=api_v3_business_search&utm_source=oncXGL2aPIKrtJdnWeFSnA", "review_count": 228, "categories": [{"alias": "mexican", "title": "Mexican"}, {"alias": "seafood", "title": "Seafood"}], "rating": 4.0, "coordinates": {"latitude": 33.2015611, "longitude": -117.3324179}, "transactions": ["delivery", "pickup"], "price": "$$", "location": {"address1": "1405 S El Camino Real", "address2": "", "address3": "", "city": "Oceanside", "zip_code": "92054", "country": "US", "state": "CA", "display_address": ["1405 S El Camino Real", "Oceanside, CA 92054"]}, "phone": "+17609676024", "display_phone": "(760) 967-6024", "distance": 3104.4125762213907}, {"id": "yY_XZ2wZtGI7rdgX2sxMFg", "alias": "cafe-rosarita-oceanside", "name": "Cafe Rosarita", "image_url": "https://s3-media2.fl.yelpcdn.com/bphoto/m3z-1ojv19a8DAbfudCUuA/o.jpg", "is_closed": false, "url": "https://www.yelp.com/biz/cafe-rosarita-oceanside?adjust_creative=oncXGL2aPIKrtJdnWeFSnA&utm_campaign=yelp_api_v3&utm_medium=api_v3_business_search&utm_source=oncXGL2aPIKrtJdnWeFSnA", "review_count": 120, "categories": [{"alias": "mexican", "title": "Mexican"}], "rating": 4.5, "coordinates": {"latitude": 33.1935432771998, "longitude": -117.359334784131}, "transactions": [], "price": "$$", "location": {"address1": "1816 Oceanside Blvd", "address2": "Ste A", "address3": "", "city": "Oceanside", "zip_code": "92054", "country": "US", "state": "CA", "display_address": ["1816 Oceanside Blvd", "Ste A", "Oceanside, CA 92054"]}, "phone": "+17607226224", "display_phone": "(760) 722-6224", "distance": 5261.546789353899}, {"id": "Z3jKZ75wZZ583Q4CewlSDg", "alias": "pollos-maria-oceanside", "name": "Pollos Maria", "image_url": "https://s3-media3.fl.yelpcdn.com/bphoto/quLKKhK-loEkEuXyY2jrtw/o.jpg", "is_closed": false, "url": "https://www.yelp.com/biz/pollos-maria-oceanside?adjust_creative=oncXGL2aPIKrtJdnWeFSnA&utm_campaign=yelp_api_v3&utm_medium=api_v3_business_search&utm_source=oncXGL2aPIKrtJdnWeFSnA", "review_count": 179, "categories": [{"alias": "mexican", "title": "Mexican"}], "rating": 3.5, "coordinates": {"latitude": 33.229769, "longitude": -117.30825}, "transactions": [], "price": "$", "location": {"address1": "125 Old Grove Rd", "address2": "", "address3": "", "city": "Oceanside", "zip_code": "92057", "country": "US", "state": "CA", "display_address": ["125 Old Grove Rd", "Oceanside, CA 92057"]}, "phone": "+17604359071", "display_phone": "(760) 435-9071", "distance": 1014.8086246814177}, {"id": "VjGalCFy15c29ESuLjdf5A", "alias": "san-luis-rey-bakery-and-restaurant-oceanside", "name": "San Luis Rey Bakery & Restaurant", "image_url": "https://s3-media2.fl.yelpcdn.com/bphoto/ASIYpF6m6ioA-5dPB3lvVA/o.jpg", "is_closed": false, "url": "https://www.yelp.com/biz/san-luis-rey-bakery-and-restaurant-oceanside?adjust_creative=oncXGL2aPIKrtJdnWeFSnA&utm_campaign=yelp_api_v3&utm_medium=api_v3_business_search&utm_source=oncXGL2aPIKrtJdnWeFSnA", "review_count": 146, "categories": [{"alias": "bakeries", "title": "Bakeries"}, {"alias": "mexican", "title": "Mexican"}], "rating": 4.0, "coordinates": {"latitude": 33.2319889, "longitude": -117.323606}, "transactions": [], "price": "$", "location": {"address1": "490 N El Camino Real", "address2": "", "address3": "", "city": "Oceanside", "zip_code": "92058", "country": "US", "state": "CA", "display_address": ["490 N El Camino Real", "Oceanside, CA 92058"]}, "phone": "+17604337242", "display_phone": "(760) 433-7242", "distance": 846.4303809938718}, {"id": "fbFTho__NTUAZOvgRUk9Jg", "alias": "gourmet-tamales-oceanside", "name": "Gourmet Tamales", "image_url": "https://s3-media1.fl.yelpcdn.com/bphoto/lfY-01TyqcvMk_0ZMqe-nA/o.jpg", "is_closed": false, "url": "https://www.yelp.com/biz/gourmet-tamales-oceanside?adjust_creative=oncXGL2aPIKrtJdnWeFSnA&utm_campaign=yelp_api_v3&utm_medium=api_v3_business_search&utm_source=oncXGL2aPIKrtJdnWeFSnA", "review_count": 44, "categories": [{"alias": "mexican", "title": "Mexican"}, {"alias": "desserts", "title": "Desserts"}, {"alias": "gluten_free", "title": "Gluten-Free"}], "rating": 4.5, "coordinates": {"latitude": 33.21091, "longitude": -117.3128}, "transactions": [], "price": "$", "location": {"address1": "3616 Ocean Ranch Blvd", "address2": null, "address3": null, "city": "Oceanside", "zip_code": "92056", "country": "US", "state": "CA", "display_address": ["3616 Ocean Ranch Blvd", "Oceanside, CA 92056"]}, "phone": "+17604020805", "display_phone": "(760) 402-0805", "distance": 1787.9157670427164}, {"id": "IZ1dhWZXXQ4ZX0M3sYaSxg", "alias": "panchos-tamales-factory-oceanside", "name": "Pancho's Tamales Factory", "image_url": "https://s3-media4.fl.yelpcdn.com/bphoto/_pjeOXoi7fYtQjS4EYEM2w/o.jpg", "is_closed": false, "url": "https://www.yelp.com/biz/panchos-tamales-factory-oceanside?adjust_creative=oncXGL2aPIKrtJdnWeFSnA&utm_campaign=yelp_api_v3&utm_medium=api_v3_business_search&utm_source=oncXGL2aPIKrtJdnWeFSnA", "review_count": 1, "categories": [{"alias": "mexican", "title": "Mexican"}], "rating": 4.0, "coordinates": {"latitude": 33.1898271, "longitude": -117.359672}, "transactions": [], "location": {"address1": "1759 Oceanside Blvd", "address2": "Ste E", "address3": "", "city": "Oceanside", "zip_code": "92058", "country": "US", "state": "CA", "display_address": ["1759 Oceanside Blvd", "Ste E", "Oceanside, CA 92058"]}, "phone": "+17609784282", "display_phone": "(760) 978-4282", "distance": 5574.935993430888}, {"id": "XFQoLl48Cjcqek9l_lQslg", "alias": "los-kompadres-mexican-food-oceanside", "name": "Los Kompadres Mexican Food", "image_url": "https://s3-media1.fl.yelpcdn.com/bphoto/TG_fsrsP0sVo-5jAuu08kA/o.jpg", "is_closed": false, "url": "https://www.yelp.com/biz/los-kompadres-mexican-food-oceanside?adjust_creative=oncXGL2aPIKrtJdnWeFSnA&utm_campaign=yelp_api_v3&utm_medium=api_v3_business_search&utm_source=oncXGL2aPIKrtJdnWeFSnA", "review_count": 52, "categories": [{"alias": "mexican", "title": "Mexican"}], "rating": 4.0, "coordinates": {"latitude": 33.226761, "longitude": -117.332603}, "transactions": [], "price": "$", "location": {"address1": "3772 Mission Ave", "address2": "Ste 130", "address3": "", "city": "Oceanside", "zip_code": "92058", "country": "US", "state": "CA", "display_address": ["3772 Mission Ave", "Ste 130", "Oceanside, CA 92058"]}, "phone": "+17607217829", "display_phone": "(760) 721-7829", "distance": 1346.3858243600462}, {"id": "-JMaT8dkpZ1gHBCzoeQ1lg", "alias": "cejas-mexican-diner-and-grill-oceanside", "name": "Ceja's Mexican Diner & Grill", "image_url": "https://s3-media4.fl.yelpcdn.com/bphoto/QWbHreJp3VVylpySSLdLOg/o.jpg", "is_closed": false, "url": "https://www.yelp.com/biz/cejas-mexican-diner-and-grill-oceanside?adjust_creative=oncXGL2aPIKrtJdnWeFSnA&utm_campaign=yelp_api_v3&utm_medium=api_v3_business_search&utm_source=oncXGL2aPIKrtJdnWeFSnA", "review_count": 150, "categories": [{"alias": "mexican", "title": "Mexican"}], "rating": 4.0, "coordinates": {"latitude": 33.2085638, "longitude": -117.2810813}, "transactions": ["delivery", "pickup"], "price": "$", "location": {"address1": "4259 Oceanside Blvd", "address2": "", "address3": "", "city": "Oceanside", "zip_code": "92056", "country": "US", "state": "CA", "display_address": ["4259 Oceanside Blvd", "Oceanside, CA 92056"]}, "phone": "+17609452199", "display_phone": "(760) 945-2199", "distance": 4023.8461366003785}, {"id": "qfQHuyMN4KHwFT91P66J8w", "alias": "anitas-mexican-restaurant-and-cantina-oceanside", "name": "Anita's Mexican  Restaurant & Cantina", "image_url": "https://s3-media2.fl.yelpcdn.com/bphoto/3IlA0rkX32efir5YQVN1JQ/o.jpg", "is_closed": false, "url": "https://www.yelp.com/biz/anitas-mexican-restaurant-and-cantina-oceanside?adjust_creative=oncXGL2aPIKrtJdnWeFSnA&utm_campaign=yelp_api_v3&utm_medium=api_v3_business_search&utm_source=oncXGL2aPIKrtJdnWeFSnA", "review_count": 323, "categories": [{"alias": "mexican", "title": "Mexican"}], "rating": 3.0, "coordinates": {"latitude": 33.183429, "longitude": -117.326778}, "transactions": ["delivery", "pickup"], "price": "$$", "location": {"address1": "2250 S El Camino Real", "address2": "", "address3": "", "city": "Oceanside", "zip_code": "92054", "country": "US", "state": "CA", "display_address": ["2250 S El Camino Real", "Oceanside, CA 92054"]}, "phone": "+17607577745", "display_phone": "(760) 757-7745", "distance": 4801.646516681221}, {"id": "tLHSB5Uc59L_oONf_ryZiA", "alias": "carlitos-chicken-oceanside", "name": "Carlito's Chicken", "image_url": "https://s3-media2.fl.yelpcdn.com/bphoto/x3VXbywdMPQqPYRjqi3cOA/o.jpg", "is_closed": false, "url": "https://www.yelp.com/biz/carlitos-chicken-oceanside?adjust_creative=oncXGL2aPIKrtJdnWeFSnA&utm_campaign=yelp_api_v3&utm_medium=api_v3_business_search&utm_source=oncXGL2aPIKrtJdnWeFSnA", "review_count": 79, "categories": [{"alias": "mexican", "title": "Mexican"}], "rating": 4.0, "coordinates": {"latitude": 33.21605, "longitude": -117.34566}, "transactions": [], "price": "$", "location": {"address1": "158 Roymar Rd", "address2": "", "address3": "", "city": "Oceanside", "zip_code": "92054", "country": "US", "state": "CA", "display_address": ["158 Roymar Rd", "Oceanside, CA 92054"]}, "phone": "+17604333427", "display_phone": "(760) 433-3427", "distance": 2768.542204182282}, {"id": "gXrNkMxueZZQDZ9fWSiWQA", "alias": "m-and-m-tacos-ensenada-style-oceanside", "name": "M&M Taco's Ensenada Style", "image_url": "https://s3-media2.fl.yelpcdn.com/bphoto/jWQyZll-jl8qU6EZ-dZqjQ/o.jpg", "is_closed": false, "url": "https://www.yelp.com/biz/m-and-m-tacos-ensenada-style-oceanside?adjust_creative=oncXGL2aPIKrtJdnWeFSnA&utm_campaign=yelp_api_v3&utm_medium=api_v3_business_search&utm_source=oncXGL2aPIKrtJdnWeFSnA", "review_count": 1, "categories": [{"alias": "foodstands", "title": "Food Stands"}, {"alias": "mexican", "title": "Mexican"}], "rating": 5.0, "coordinates": {"latitude": 33.2094145927583, "longitude": -117.357322946191}, "transactions": [], "location": {"address1": "2300 Mission Ave", "address2": "", "address3": null, "city": "Oceanside", "zip_code": "92058", "country": "US", "state": "CA", "display_address": ["2300 Mission Ave", "Oceanside, CA 92058"]}, "phone": "+17605297430", "display_phone": "(760) 529-7430", "distance": 4081.182271210564}, {"id": "J73mhF4MNMj6-KzJAN1NCg", "alias": "deibertos-mexican-restaurant-oceanside-2", "name": "Deiberto's Mexican Restaurant", "image_url": "https://s3-media1.fl.yelpcdn.com/bphoto/J-0eOnJcAlQT2XmqMeuvxA/o.jpg", "is_closed": false, "url": "https://www.yelp.com/biz/deibertos-mexican-restaurant-oceanside-2?adjust_creative=oncXGL2aPIKrtJdnWeFSnA&utm_campaign=yelp_api_v3&utm_medium=api_v3_business_search&utm_source=oncXGL2aPIKrtJdnWeFSnA", "review_count": 96, "categories": [{"alias": "mexican", "title": "Mexican"}], "rating": 3.0, "coordinates": {"latitude": 33.2183020398335, "longitude": -117.340849488974}, "transactions": [], "price": "$", "location": {"address1": "3371 Mission Ave", "address2": "", "address3": null, "city": "Oceanside", "zip_code": "92058", "country": "US", "state": "CA", "display_address": ["3371 Mission Ave", "Oceanside, CA 92058"]}, "phone": "+17607544779", "display_phone": "(760) 754-4779", "distance": 2275.2312153563225}, {"id": "8Ki4jvjfvmIrdrJjIZ5yPQ", "alias": "joses-taco-oceanside", "name": "Jose's Taco", "image_url": "https://s3-media1.fl.yelpcdn.com/bphoto/Ayy9Xjg4ZBLtRcxKOCXWQw/o.jpg", "is_closed": false, "url": "https://www.yelp.com/biz/joses-taco-oceanside?adjust_creative=oncXGL2aPIKrtJdnWeFSnA&utm_campaign=yelp_api_v3&utm_medium=api_v3_business_search&utm_source=oncXGL2aPIKrtJdnWeFSnA", "review_count": 139, "categories": [{"alias": "mexican", "title": "Mexican"}], "rating": 3.5, "coordinates": {"latitude": 33.1844825744629, "longitude": -117.29369354248}, "transactions": [], "price": "$", "location": {"address1": "3910 Vista Way", "address2": "Ste 110", "address3": "", "city": "Oceanside", "zip_code": "92056", "country": "US", "state": "CA", "display_address": ["3910 Vista Way", "Ste 110", "Oceanside, CA 92056"]}, "phone": "+17609418881", "display_phone": "(760) 941-8881", "distance": 5154.515307120133}, {"id": "lMPUCFm_UsbpkmHbamTAQQ", "alias": "victorias-mexican-food-oceanside", "name": "Victoria's Mexican Food", "image_url": "https://s3-media1.fl.yelpcdn.com/bphoto/EQclOkOPYLWST5PIKZcaUQ/o.jpg", "is_closed": false, "url": "https://www.yelp.com/biz/victorias-mexican-food-oceanside?adjust_creative=oncXGL2aPIKrtJdnWeFSnA&utm_campaign=yelp_api_v3&utm_medium=api_v3_business_search&utm_source=oncXGL2aPIKrtJdnWeFSnA", "review_count": 105, "categories": [{"alias": "mexican", "title": "Mexican"}], "rating": 3.5, "coordinates": {"latitude": 33.245251, "longitude": -117.29042}, "transactions": [], "price": "$", "location": {"address1": "495 College Blvd", "address2": "Ste C", "address3": "", "city": "Oceanside", "zip_code": "92057", "country": "US", "state": "CA", "display_address": ["495 College Blvd", "Ste C", "Oceanside, CA 92057"]}, "phone": "+17604141104", "display_phone": "(760) 414-1104", "distance": 3353.9808064691924}, {"id": "4SG-0mF9aSpqJ_MBQI2lQg", "alias": "la-perla-tapatia-oceanside", "name": "La Perla Tapatia", "image_url": "https://s3-media3.fl.yelpcdn.com/bphoto/0Wd0r85KLbJxBKjBB1btbQ/o.jpg", "is_closed": false, "url": "https://www.yelp.com/biz/la-perla-tapatia-oceanside?adjust_creative=oncXGL2aPIKrtJdnWeFSnA&utm_campaign=yelp_api_v3&utm_medium=api_v3_business_search&utm_source=oncXGL2aPIKrtJdnWeFSnA", "review_count": 73, "categories": [{"alias": "bakeries", "title": "Bakeries"}, {"alias": "mexican", "title": "Mexican"}], "rating": 4.0, "coordinates": {"latitude": 33.2546157836914, "longitude": -117.300308227539}, "transactions": [], "price": "$", "location": {"address1": "625 N Redondo Dr", "address2": "", "address3": "", "city": "Oceanside", "zip_code": "92057", "country": "US", "state": "CA", "display_address": ["625 N Redondo Dr", "Oceanside, CA 92057"]}, "phone": "+17607224158", "display_phone": "(760) 722-4158", "distance": 3583.3115498518646}, {"id": "Dti7H6ZuPDhZ7nZURufzOQ", "alias": "valeries-taco-shop-oceanside-2", "name": "Valerie's Taco Shop", "image_url": "https://s3-media2.fl.yelpcdn.com/bphoto/qFtkDSLhrPOMmrJncAhxqg/o.jpg", "is_closed": false, "url": "https://www.yelp.com/biz/valeries-taco-shop-oceanside-2?adjust_creative=oncXGL2aPIKrtJdnWeFSnA&utm_campaign=yelp_api_v3&utm_medium=api_v3_business_search&utm_source=oncXGL2aPIKrtJdnWeFSnA", "review_count": 134, "categories": [{"alias": "mexican", "title": "Mexican"}], "rating": 3.5, "coordinates": {"latitude": 33.2096554, "longitude": -117.3120824}, "transactions": [], "price": "$", "location": {"address1": "3617 Ocean Ranch Blvd", "address2": "Ste 108", "address3": "", "city": "Oceanside", "zip_code": "92056", "country": "US", "state": "CA", "display_address": ["3617 Ocean Ranch Blvd", "Ste 108", "Oceanside, CA 92056"]}, "phone": "+17607211296", "display_phone": "(760) 721-1296", "distance": 1905.2167484230029}, {"id": "xkicaBI4TKTyiLLKfwLpLQ", "alias": "la-hacienda-restaurant-and-party-hall-oceanside", "name": "La Hacienda Restaurant & Party Hall", "image_url": "https://s3-media2.fl.yelpcdn.com/bphoto/kLVwHl1hBxCz75nd_tK_fA/o.jpg", "is_closed": false, "url": "https://www.yelp.com/biz/la-hacienda-restaurant-and-party-hall-oceanside?adjust_creative=oncXGL2aPIKrtJdnWeFSnA&utm_campaign=yelp_api_v3&utm_medium=api_v3_business_search&utm_source=oncXGL2aPIKrtJdnWeFSnA", "review_count": 86, "categories": [{"alias": "mexican", "title": "Mexican"}], "rating": 3.5, "coordinates": {"latitude": 33.23298, "longitude": -117.32393}, "transactions": [], "price": "$", "location": {"address1": "300 Douglas Dr", "address2": "", "address3": "", "city": "Oceanside", "zip_code": "92058", "country": "US", "state": "CA", "display_address": ["300 Douglas Dr", "Oceanside, CA 92058"]}, "phone": "+17607221703", "display_phone": "(760) 722-1703", "distance": 975.2395868444879}, {"id": "DefDRdOvYgAfVHr18OeMrw", "alias": "davinas-mexican-restaurant-oceanside", "name": "Davina's Mexican Restaurant", "image_url": "https://s3-media2.fl.yelpcdn.com/bphoto/CNy6nO6UQzAflK9AX-Ue3w/o.jpg", "is_closed": false, "url": "https://www.yelp.com/biz/davinas-mexican-restaurant-oceanside?adjust_creative=oncXGL2aPIKrtJdnWeFSnA&utm_campaign=yelp_api_v3&utm_medium=api_v3_business_search&utm_source=oncXGL2aPIKrtJdnWeFSnA", "review_count": 116, "categories": [{"alias": "mexican", "title": "Mexican"}], "rating": 3.5, "coordinates": {"latitude": 33.216373, "longitude": -117.34497}, "transactions": [], "price": "$$", "location": {"address1": "3320 Mission Ave", "address2": "Ste R", "address3": "", "city": "Oceanside", "zip_code": "92054", "country": "US", "state": "CA", "display_address": ["3320 Mission Ave", "Ste R", "Oceanside, CA 92054"]}, "phone": "+17607228017", "display_phone": "(760) 722-8017", "distance": 2730.0376598114367}, {"id": "M7aykQpAcGQmz5DY7hdPuQ", "alias": "rubios-coastal-grill-oceanside", "name": "Rubio's Coastal Grill", "image_url": "https://s3-media4.fl.yelpcdn.com/bphoto/PR053Rks519j2qR2T1ZDMA/o.jpg", "is_closed": false, "url": "https://www.yelp.com/biz/rubios-coastal-grill-oceanside?adjust_creative=oncXGL2aPIKrtJdnWeFSnA&utm_campaign=yelp_api_v3&utm_medium=api_v3_business_search&utm_source=oncXGL2aPIKrtJdnWeFSnA", "review_count": 109, "categories": [{"alias": "mexican", "title": "Mexican"}, {"alias": "seafood", "title": "Seafood"}, {"alias": "salad", "title": "Salad"}], "rating": 3.5, "coordinates": {"latitude": 33.2069281430714, "longitude": -117.28447521874}, "transactions": ["delivery"], "price": "$", "location": {"address1": "4201 Oceanside Blvd", "address2": "Ste B", "address3": "", "city": "Oceanside", "zip_code": "92057", "country": "US", "state": "CA", "display_address": ["4201 Oceanside Blvd", "Ste B", "Oceanside, CA 92057"]}, "phone": "+17608064703", "display_phone": "(760) 806-4703", "distance": 3786.7462565675137}, {"id": "QfsxOZG6NRqZv9KnUkAAJQ", "alias": "el-mundo-de-mariscos-oceanside-2", "name": "El Mundo De Mariscos", "image_url": "https://s3-media2.fl.yelpcdn.com/bphoto/ggl5zgLB1TxaZp4TJ-fg7A/o.jpg", "is_closed": false, "url": "https://www.yelp.com/biz/el-mundo-de-mariscos-oceanside-2?adjust_creative=oncXGL2aPIKrtJdnWeFSnA&utm_campaign=yelp_api_v3&utm_medium=api_v3_business_search&utm_source=oncXGL2aPIKrtJdnWeFSnA", "review_count": 12, "categories": [{"alias": "mexican", "title": "Mexican"}, {"alias": "seafood", "title": "Seafood"}], "rating": 3.5, "coordinates": {"latitude": 33.20203, "longitude": -117.33958}, "transactions": [], "location": {"address1": "2936 Oceanside Blvd", "address2": null, "address3": "", "city": "Oceanside", "zip_code": "92054", "country": "US", "state": "CA", "display_address": ["2936 Oceanside Blvd", "Oceanside, CA 92054"]}, "phone": "+17602317355", "display_phone": "(760) 231-7355", "distance": 3325.650459980323}, {"id": "A6sX955uDaPpy5vzGLu-gw", "alias": "pedros-tacos-oceanside", "name": "Pedro's Tacos", "image_url": "https://s3-media4.fl.yelpcdn.com/bphoto/3elFyjgNaWONTzclUK9RoQ/o.jpg", "is_closed": false, "url": "https://www.yelp.com/biz/pedros-tacos-oceanside?adjust_creative=oncXGL2aPIKrtJdnWeFSnA&utm_campaign=yelp_api_v3&utm_medium=api_v3_business_search&utm_source=oncXGL2aPIKrtJdnWeFSnA", "review_count": 171, "categories": [{"alias": "mexican", "title": "Mexican"}], "rating": 3.0, "coordinates": {"latitude": 33.2140922546387, "longitude": -117.356986999512}, "transactions": ["delivery", "pickup"], "price": "$", "location": {"address1": "656 Benet Rd", "address2": "", "address3": "", "city": "Oceanside", "zip_code": "92058", "country": "US", "state": "CA", "display_address": ["656 Benet Rd", "Oceanside, CA 92058"]}, "phone": "+17607227221", "display_phone": "(760) 722-7221", "distance": 3820.8994926551864}, {"id": "mDajqXWWdEitENzdb1_wzg", "alias": "el-pollo-loco-oceanside-6", "name": "El Pollo Loco", "image_url": "https://s3-media2.fl.yelpcdn.com/bphoto/FR-Z7uPSGt1xgiar81et9g/o.jpg", "is_closed": false, "url": "https://www.yelp.com/biz/el-pollo-loco-oceanside-6?adjust_creative=oncXGL2aPIKrtJdnWeFSnA&utm_campaign=yelp_api_v3&utm_medium=api_v3_business_search&utm_source=oncXGL2aPIKrtJdnWeFSnA", "review_count": 41, "categories": [{"alias": "hotdogs", "title": "Fast Food"}, {"alias": "mexican", "title": "Mexican"}], "rating": 3.0, "coordinates": {"latitude": 33.2469313201159, "longitude": -117.291715446391}, "transactions": ["delivery"], "price": "$", "location": {"address1": "483 College Blvd", "address2": null, "address3": null, "city": "Oceanside", "zip_code": "92057", "country": "US", "state": "CA", "display_address": ["483 College Blvd", "Oceanside, CA 92057"]}, "phone": "+17604078279", "display_phone": "(760) 407-8279", "distance": 3387.5683446775365}, {"id": "V1puz02wdZPyGUuaJ6GVkg", "alias": "mundo-de-mariscos-oceanside", "name": "Mundo De Mariscos", "image_url": "https://s3-media2.fl.yelpcdn.com/bphoto/Buf2RlRrTKdgl2XJISLRQQ/o.jpg", "is_closed": false, "url": "https://www.yelp.com/biz/mundo-de-mariscos-oceanside?adjust_creative=oncXGL2aPIKrtJdnWeFSnA&utm_campaign=yelp_api_v3&utm_medium=api_v3_business_search&utm_source=oncXGL2aPIKrtJdnWeFSnA", "review_count": 61, "categories": [{"alias": "mexican", "title": "Mexican"}], "rating": 3.5, "coordinates": {"latitude": 33.2131281, "longitude": -117.349314}, "transactions": [], "price": "$$", "location": {"address1": "3110 San Luis Rey Rd", "address2": "", "address3": "", "city": "Oceanside", "zip_code": "92058", "country": "US", "state": "CA", "display_address": ["3110 San Luis Rey Rd", "Oceanside, CA 92058"]}, "phone": "+17607548922", "display_phone": "(760) 754-8922", "distance": 3237.0725988889494}, {"id": "h46nmV8PWF4T4ULPJztB_Q", "alias": "eribertos-mexican-food-oceanside-2", "name": "Eriberto's Mexican Food", "image_url": "https://s3-media2.fl.yelpcdn.com/bphoto/9s0EQ1NztqTyroV0X_wX4w/o.jpg", "is_closed": false, "url": "https://www.yelp.com/biz/eribertos-mexican-food-oceanside-2?adjust_creative=oncXGL2aPIKrtJdnWeFSnA&utm_campaign=yelp_api_v3&utm_medium=api_v3_business_search&utm_source=oncXGL2aPIKrtJdnWeFSnA", "review_count": 101, "categories": [{"alias": "mexican", "title": "Mexican"}], "rating": 2.5, "coordinates": {"latitude": 33.25511, "longitude": -117.29977}, "transactions": [], "price": "$", "location": {"address1": "644 N Redondo Dr", "address2": "", "address3": "", "city": "Oceanside", "zip_code": "92057", "country": "US", "state": "CA", "display_address": ["644 N Redondo Dr", "Oceanside, CA 92057"]}, "phone": "+17604335300", "display_phone": "(760) 433-5300", "distance": 3662.4273600362626}, {"id": "K1NOJtzcvZ-TFz3SO1iPig", "alias": "california-creative-foods-oceanside-2", "name": "California Creative Foods", "image_url": "", "is_closed": false, "url": "https://www.yelp.com/biz/california-creative-foods-oceanside-2?adjust_creative=oncXGL2aPIKrtJdnWeFSnA&utm_campaign=yelp_api_v3&utm_medium=api_v3_business_search&utm_source=oncXGL2aPIKrtJdnWeFSnA", "review_count": 1, "categories": [{"alias": "mexican", "title": "Mexican"}], "rating": 5.0, "coordinates": {"latitude": 33.2133293, "longitude": -117.3580017}, "transactions": [], "location": {"address1": "649 Benet Rd", "address2": null, "address3": "", "city": "Oceanside", "zip_code": "92058", "country": "US", "state": "CA", "display_address": ["649 Benet Rd", "Oceanside, CA 92058"]}, "phone": "+17607572622", "display_phone": "(760) 757-2622", "distance": 3952.5383796925094}, {"id": "9K-2oBXU6MmBPn0XIfU6eA", "alias": "chipotle-mexican-grill-oceanside-5", "name": "Chipotle Mexican Grill", "image_url": "https://s3-media2.fl.yelpcdn.com/bphoto/AaadVAae67SOdZako2T6SQ/o.jpg", "is_closed": false, "url": "https://www.yelp.com/biz/chipotle-mexican-grill-oceanside-5?adjust_creative=oncXGL2aPIKrtJdnWeFSnA&utm_campaign=yelp_api_v3&utm_medium=api_v3_business_search&utm_source=oncXGL2aPIKrtJdnWeFSnA", "review_count": 43, "categories": [{"alias": "mexican", "title": "Mexican"}, {"alias": "hotdogs", "title": "Fast Food"}], "rating": 2.5, "coordinates": {"latitude": 33.2452251149466, "longitude": -117.290513811569}, "transactions": [], "price": "$", "location": {"address1": "495 College BLVD", "address2": "Ste A&B", "address3": "", "city": "Oceanside", "zip_code": "92057", "country": "US", "state": "CA", "display_address": ["495 College BLVD", "Ste A&B", "Oceanside, CA 92057"]}, "phone": "+17607581493", "display_phone": "(760) 758-1493", "distance": 3345.427476319177}, {"id": "AWysF3FqR5RxqCsO-ZoqDw", "alias": "chipotle-mexican-grill-oceanside-3", "name": "Chipotle Mexican Grill", "image_url": "https://s3-media4.fl.yelpcdn.com/bphoto/5EH5ktmaGJIeJ2379LSadA/o.jpg", "is_closed": false, "url": "https://www.yelp.com/biz/chipotle-mexican-grill-oceanside-3?adjust_creative=oncXGL2aPIKrtJdnWeFSnA&utm_campaign=yelp_api_v3&utm_medium=api_v3_business_search&utm_source=oncXGL2aPIKrtJdnWeFSnA", "review_count": 115, "categories": [{"alias": "mexican", "title": "Mexican"}, {"alias": "hotdogs", "title": "Fast Food"}], "rating": 2.5, "coordinates": {"latitude": 33.20575, "longitude": -117.28835}, "transactions": [], "price": "$", "location": {"address1": "4111 Oceanside Blvd", "address2": "", "address3": "", "city": "Oceanside", "zip_code": "92056", "country": "US", "state": "CA", "display_address": ["4111 Oceanside Blvd", "Oceanside, CA 92056"]}, "phone": "+17606594147", "display_phone": "(760) 659-4147", "distance": 3563.845522903192}, {"id": "q2xn0Bg3tIXKeFU9Z-prQw", "alias": "chipotle-mexican-grill-oceanside-2", "name": "Chipotle Mexican Grill", "image_url": "https://s3-media2.fl.yelpcdn.com/bphoto/-0G9rzLc7hLLhDeHnvAu1g/o.jpg", "is_closed": false, "url": "https://www.yelp.com/biz/chipotle-mexican-grill-oceanside-2?adjust_creative=oncXGL2aPIKrtJdnWeFSnA&utm_campaign=yelp_api_v3&utm_medium=api_v3_business_search&utm_source=oncXGL2aPIKrtJdnWeFSnA", "review_count": 148, "categories": [{"alias": "mexican", "title": "Mexican"}, {"alias": "hotdogs", "title": "Fast Food"}], "rating": 3.5, "coordinates": {"latitude": 33.181867, "longitude": -117.331756}, "transactions": [], "price": "$", "location": {"address1": "2611 Vista Way", "address2": "", "address3": "", "city": "Oceanside", "zip_code": "92054", "country": "US", "state": "CA", "display_address": ["2611 Vista Way", "Oceanside, CA 92054"]}, "phone": "+17607216904", "display_phone": "(760) 721-6904", "distance": 5068.058485602963}, {"id": "g2ctkORtZyFVAtUL2nYhRg", "alias": "phatties-escondido-2", "name": "Phatties", "image_url": "https://s3-media1.fl.yelpcdn.com/bphoto/Pl1xAjUU_xmoaqOXv55sPw/o.jpg", "is_closed": false, "url": "https://www.yelp.com/biz/phatties-escondido-2?adjust_creative=oncXGL2aPIKrtJdnWeFSnA&utm_campaign=yelp_api_v3&utm_medium=api_v3_business_search&utm_source=oncXGL2aPIKrtJdnWeFSnA", "review_count": 57, "categories": [{"alias": "foodtrucks", "title": "Food Trucks"}, {"alias": "mexican", "title": "Mexican"}], "rating": 4.5, "coordinates": {"latitude": 33.130036, "longitude": -117.089063}, "transactions": [], "price": "$", "location": {"address1": "242 W Mission Ave", "address2": "Ste D", "address3": "", "city": "Escondido", "zip_code": "92025", "country": "US", "state": "CA", "display_address": ["242 W Mission Ave", "Ste D", "Escondido, CA 92025"]}, "phone": "+18587171637", "display_phone": "(858) 717-1637", "distance": 23845.620434993223}, {"id": "NQk2Ph5EnF5U6fil3vZwFA", "alias": "albertos-mexican-food-oceanside-6", "name": "Alberto's Mexican Food", "image_url": "https://s3-media4.fl.yelpcdn.com/bphoto/VlvUDtykurb7e387fCgL_w/o.jpg", "is_closed": false, "url": "https://www.yelp.com/biz/albertos-mexican-food-oceanside-6?adjust_creative=oncXGL2aPIKrtJdnWeFSnA&utm_campaign=yelp_api_v3&utm_medium=api_v3_business_search&utm_source=oncXGL2aPIKrtJdnWeFSnA", "review_count": 48, "categories": [{"alias": "mexican", "title": "Mexican"}], "rating": 2.5, "coordinates": {"latitude": 33.2506161345609, "longitude": -117.300826480524}, "transactions": [], "price": "$", "location": {"address1": "4904 N River Rd", "address2": "Ste 100", "address3": "", "city": "Oceanside", "zip_code": "92057", "country": "US", "state": "CA", "display_address": ["4904 N River Rd", "Ste 100", "Oceanside, CA 92057"]}, "phone": "+17604332287", "display_phone": "(760) 433-2287", "distance": 3177.2125355630906}, {"id": "f9HQPfTakFbcWnBtRoAvAA", "alias": "primo-food-mart-vista", "name": "Primo Food Mart", "image_url": "https://s3-media3.fl.yelpcdn.com/bphoto/P9gB9UOaBfsYo23Rxlpx3g/o.jpg", "is_closed": false, "url": "https://www.yelp.com/biz/primo-food-mart-vista?adjust_creative=oncXGL2aPIKrtJdnWeFSnA&utm_campaign=yelp_api_v3&utm_medium=api_v3_business_search&utm_source=oncXGL2aPIKrtJdnWeFSnA", "review_count": 174, "categories": [{"alias": "grocery", "title": "Grocery"}, {"alias": "mexican", "title": "Mexican"}], "rating": 4.0, "coordinates": {"latitude": 33.1913, "longitude": -117.27393}, "transactions": [], "price": "$", "location": {"address1": "1535 W Vista Wy", "address2": "", "address3": "", "city": "Vista", "zip_code": "92083", "country": "US", "state": "CA", "display_address": ["1535 W Vista Wy", "Vista, CA 92083"]}, "phone": "+17607241483", "display_phone": "(760) 724-1483", "distance": 5628.361241150404}, {"id": "LFeBkWAduHleXQYSSeASDQ", "alias": "el-veganito-escondido", "name": "El Veganito", "image_url": "https://s3-media1.fl.yelpcdn.com/bphoto/yTGjqogV1f_-6LUBsed5mA/o.jpg", "is_closed": false, "url": "https://www.yelp.com/biz/el-veganito-escondido?adjust_creative=oncXGL2aPIKrtJdnWeFSnA&utm_campaign=yelp_api_v3&utm_medium=api_v3_business_search&utm_source=oncXGL2aPIKrtJdnWeFSnA", "review_count": 38, "categories": [{"alias": "vegan", "title": "Vegan"}, {"alias": "mexican", "title": "Mexican"}, {"alias": "foodstands", "title": "Food Stands"}], "rating": 4.5, "coordinates": {"latitude": 33.0844917297363, "longitude": -117.028190612793}, "transactions": [], "price": "$$", "location": {"address1": "", "address2": "", "address3": "", "city": "Escondido", "zip_code": "92025", "country": "US", "state": "CA", "display_address": ["Escondido, CA 92025"]}, "phone": "+17607166420", "display_phone": "(760) 716-6420", "distance": 29173.69229705974}, {"id": "HO-h3WtTL6CEnFZAzpau4A", "alias": "albertos-oceanside", "name": "Alberto's", "image_url": "https://s3-media3.fl.yelpcdn.com/bphoto/97W-tchNJmnN0AXC3eambA/o.jpg", "is_closed": false, "url": "https://www.yelp.com/biz/albertos-oceanside?adjust_creative=oncXGL2aPIKrtJdnWeFSnA&utm_campaign=yelp_api_v3&utm_medium=api_v3_business_search&utm_source=oncXGL2aPIKrtJdnWeFSnA", "review_count": 91, "categories": [{"alias": "mexican", "title": "Mexican"}], "rating": 2.5, "coordinates": {"latitude": 33.2379092, "longitude": -117.2975009}, "transactions": [], "price": "$", "location": {"address1": "4645 Frazee Rd", "address2": "Ste H", "address3": "", "city": "Oceanside", "zip_code": "92057", "country": "US", "state": "CA", "display_address": ["4645 Frazee Rd", "Ste H", "Oceanside, CA 92057"]}, "phone": "+17607576500", "display_phone": "(760) 757-6500", "distance": 2326.4692357566114}, {"id": "Uu289Tm4rLD5CaZMg2BK8w", "alias": "el-bronco-oceanside", "name": "El Bronco", "image_url": "https://s3-media4.fl.yelpcdn.com/bphoto/3MDuAsWOgaL9a7LV-nSsEQ/o.jpg", "is_closed": false, "url": "https://www.yelp.com/biz/el-bronco-oceanside?adjust_creative=oncXGL2aPIKrtJdnWeFSnA&utm_campaign=yelp_api_v3&utm_medium=api_v3_business_search&utm_source=oncXGL2aPIKrtJdnWeFSnA", "review_count": 95, "categories": [{"alias": "mexican", "title": "Mexican"}], "rating": 3.0, "coordinates": {"latitude": 33.206159, "longitude": -117.285363}, "transactions": [], "price": "$", "location": {"address1": "4171 Oceanside Blvd", "address2": "Ste 106", "address3": "", "city": "Oceanside", "zip_code": "92056", "country": "US", "state": "CA", "display_address": ["4171 Oceanside Blvd", "Ste 106", "Oceanside, CA 92056"]}, "phone": "+17606430881", "display_phone": "(760) 643-0881", "distance": 3768.0920330761123}, {"id": "XK0w7_iXEntEKIsfPFN9Bw", "alias": "valeries-taco-shop-vista-2", "name": "Valerie's Taco Shop", "image_url": "https://s3-media1.fl.yelpcdn.com/bphoto/9X4iuYqdKYyA5DCAPd2A6A/o.jpg", "is_closed": false, "url": "https://www.yelp.com/biz/valeries-taco-shop-vista-2?adjust_creative=oncXGL2aPIKrtJdnWeFSnA&utm_campaign=yelp_api_v3&utm_medium=api_v3_business_search&utm_source=oncXGL2aPIKrtJdnWeFSnA", "review_count": 176, "categories": [{"alias": "mexican", "title": "Mexican"}], "rating": 4.0, "coordinates": {"latitude": 33.1899568985594, "longitude": -117.27996904403}, "transactions": [], "price": "$", "location": {"address1": "170 N Emerald Dr", "address2": "Ste 3", "address3": null, "city": "Vista", "zip_code": "92083", "country": "US", "state": "CA", "display_address": ["170 N Emerald Dr", "Ste 3", "Vista, CA 92083"]}, "phone": "+17609418381", "display_phone": "(760) 941-8381", "distance": 5358.76455951275}, {"id": "EiaOBgJUIQVj55320YV9LQ", "alias": "rodeos-meat-market-oceanside", "name": "Rodeos Meat Market", "image_url": "https://s3-media2.fl.yelpcdn.com/bphoto/zUc3IvwZByMg278J5RuykQ/o.jpg", "is_closed": false, "url": "https://www.yelp.com/biz/rodeos-meat-market-oceanside?adjust_creative=oncXGL2aPIKrtJdnWeFSnA&utm_campaign=yelp_api_v3&utm_medium=api_v3_business_search&utm_source=oncXGL2aPIKrtJdnWeFSnA", "review_count": 38, "categories": [{"alias": "meats", "title": "Meat Shops"}, {"alias": "mexican", "title": "Mexican"}], "rating": 3.5, "coordinates": {"latitude": 33.2266753, "longitude": -117.3297328}, "transactions": [], "price": "$", "location": {"address1": "3858 Mission Ave", "address2": "", "address3": "", "city": "Oceanside", "zip_code": "92054", "country": "US", "state": "CA", "display_address": ["3858 Mission Ave", "Oceanside, CA 92054"]}, "phone": "+17604391630", "display_phone": "(760) 439-1630", "distance": 1113.1136915293175}, {"id": "gZntgfa1HZGb2DOkbFpIQA", "alias": "senor-albertos-oceanside", "name": "Senor Alberto's", "image_url": "https://s3-media2.fl.yelpcdn.com/bphoto/RetsqFslWSQNf8TKS5jsVQ/o.jpg", "is_closed": false, "url": "https://www.yelp.com/biz/senor-albertos-oceanside?adjust_creative=oncXGL2aPIKrtJdnWeFSnA&utm_campaign=yelp_api_v3&utm_medium=api_v3_business_search&utm_source=oncXGL2aPIKrtJdnWeFSnA", "review_count": 37, "categories": [{"alias": "mexican", "title": "Mexican"}, {"alias": "latin", "title": "Latin American"}, {"alias": "hotdogs", "title": "Fast Food"}], "rating": 3.0, "coordinates": {"latitude": 33.2450226655832, "longitude": -117.321352706771}, "transactions": [], "price": "$", "location": {"address1": "650 Douglas Dr", "address2": "", "address3": "", "city": "Oceanside", "zip_code": "92058", "country": "US", "state": "CA", "display_address": ["650 Douglas Dr", "Oceanside, CA 92058"]}, "phone": "+14426157303", "display_phone": "(442) 615-7303", "distance": 2134.5172992176026}, {"id": "jAyvOg5I2OnRJjl7Hqhwbg", "alias": "taco-bell-oceanside-5", "name": "Taco Bell", "image_url": "https://s3-media3.fl.yelpcdn.com/bphoto/yFIgRwnJpOKaTTN7uF6u1g/o.jpg", "is_closed": false, "url": "https://www.yelp.com/biz/taco-bell-oceanside-5?adjust_creative=oncXGL2aPIKrtJdnWeFSnA&utm_campaign=yelp_api_v3&utm_medium=api_v3_business_search&utm_source=oncXGL2aPIKrtJdnWeFSnA", "review_count": 33, "categories": [{"alias": "mexican", "title": "Mexican"}, {"alias": "hotdogs", "title": "Fast Food"}], "rating": 3.5, "coordinates": {"latitude": 33.2272119758825, "longitude": -117.32697895513}, "transactions": ["delivery"], "price": "$", "location": {"address1": "3895 Mission Ave", "address2": null, "address3": null, "city": "Oceanside", "zip_code": "92054", "country": "US", "state": "CA", "display_address": ["3895 Mission Ave", "Oceanside, CA 92054"]}, "phone": "+17609677533", "display_phone": "(760) 967-7533", "distance": 828.2326644378004}, {"id": "m0SB2eHVRUPfgTZndmGsrQ", "alias": "el-pollo-loco-oceanside-5", "name": "El Pollo Loco", "image_url": "https://s3-media1.fl.yelpcdn.com/bphoto/Re3rfzWAkE2sy5J42FLT0A/o.jpg", "is_closed": false, "url": "https://www.yelp.com/biz/el-pollo-loco-oceanside-5?adjust_creative=oncXGL2aPIKrtJdnWeFSnA&utm_campaign=yelp_api_v3&utm_medium=api_v3_business_search&utm_source=oncXGL2aPIKrtJdnWeFSnA", "review_count": 64, "categories": [{"alias": "hotdogs", "title": "Fast Food"}, {"alias": "mexican", "title": "Mexican"}], "rating": 3.5, "coordinates": {"latitude": 33.1816788, "longitude": -117.2959824}, "transactions": ["delivery", "pickup"], "price": "$", "location": {"address1": "3500 College Blvd", "address2": "", "address3": "", "city": "Oceanside", "zip_code": "92056", "country": "US", "state": "CA", "display_address": ["3500 College Blvd", "Oceanside, CA 92056"]}, "phone": "+17604779345", "display_phone": "(760) 477-9345", "distance": 5355.570452650194}, {"id": "5m3tQ9GNn5AMAkK0uD_0_g", "alias": "del-taco-oceanside-3", "name": "Del Taco", "image_url": "https://s3-media1.fl.yelpcdn.com/bphoto/RWS_blRKYgZyGX8Yb1demw/o.jpg", "is_closed": false, "url": "https://www.yelp.com/biz/del-taco-oceanside-3?adjust_creative=oncXGL2aPIKrtJdnWeFSnA&utm_campaign=yelp_api_v3&utm_medium=api_v3_business_search&utm_source=oncXGL2aPIKrtJdnWeFSnA", "review_count": 52, "categories": [{"alias": "mexican", "title": "Mexican"}], "rating": 2.0, "coordinates": {"latitude": 33.18354, "longitude": -117.32868}, "transactions": [], "price": "$", "location": {"address1": "2269 S El Camino Real", "address2": "", "address3": "", "city": "Oceanside", "zip_code": "92054", "country": "US", "state": "CA", "display_address": ["2269 S El Camino Real", "Oceanside, CA 92054"]}, "phone": "+17604338450", "display_phone": "(760) 433-8450", "distance": 4820.498774796839}, {"id": "jkAZCMERs7F9TmnxUQA4HA", "alias": "tonys-fresh-mexican-food-oceanside", "name": "Tonys Fresh Mexican Food", "image_url": "https://s3-media1.fl.yelpcdn.com/bphoto/AfOCi7zH3BpDqiuj3PApvg/o.jpg", "is_closed": false, "url": "https://www.yelp.com/biz/tonys-fresh-mexican-food-oceanside?adjust_creative=oncXGL2aPIKrtJdnWeFSnA&utm_campaign=yelp_api_v3&utm_medium=api_v3_business_search&utm_source=oncXGL2aPIKrtJdnWeFSnA", "review_count": 38, "categories": [{"alias": "mexican", "title": "Mexican"}], "rating": 3.5, "coordinates": {"latitude": 33.1866264343262, "longitude": -117.328941345215}, "transactions": [], "price": "$", "location": {"address1": "2983 Via Las Rosas", "address2": null, "address3": "", "city": "Oceanside", "zip_code": "92054", "country": "US", "state": "CA", "display_address": ["2983 Via Las Rosas", "Oceanside, CA 92054"]}, "phone": "+17604335004", "display_phone": "(760) 433-5004", "distance": 4500.218710864258}, {"id": "a5dmCm_1sLVPGoxzTwyouA", "alias": "taco-bell-oceanside-3", "name": "Taco Bell", "image_url": "https://s3-media2.fl.yelpcdn.com/bphoto/OIeWXOScXTsoVZpNEJd1PA/o.jpg", "is_closed": false, "url": "https://www.yelp.com/biz/taco-bell-oceanside-3?adjust_creative=oncXGL2aPIKrtJdnWeFSnA&utm_campaign=yelp_api_v3&utm_medium=api_v3_business_search&utm_source=oncXGL2aPIKrtJdnWeFSnA", "review_count": 39, "categories": [{"alias": "mexican", "title": "Mexican"}, {"alias": "tex-mex", "title": "Tex-Mex"}, {"alias": "hotdogs", "title": "Fast Food"}], "rating": 2.5, "coordinates": {"latitude": 33.24304, "longitude": -117.29161}, "transactions": ["delivery"], "price": "$", "location": {"address1": "695 College Blvd", "address2": "", "address3": "", "city": "Oceanside", "zip_code": "92057", "country": "US", "state": "CA", "display_address": ["695 College Blvd", "Oceanside, CA 92057"]}, "phone": "+17606317860", "display_phone": "(760) 631-7860", "distance": 3126.9562639154105}], "total": 66, "region": {"center": {"longitude": -117.31819152832031, "latitude": 33.226009439623446}}}