{"businesses": [{"id": "v1H9N_3k3ckng8NcZek6gw", "alias": "fratellis-italian-kitchen-oceanside-5", "name": "Fratelli's Italian Kitchen", "image_url": "https://s3-media1.fl.yelpcdn.com/bphoto/rAUy6VUipaPXVzdSQ-g2lg/o.jpg", "is_closed": false, "url": "https://www.yelp.com/biz/fratellis-italian-kitchen-oceanside-5?adjust_creative=oncXGL2aPIKrtJdnWeFSnA&utm_campaign=yelp_api_v3&utm_medium=api_v3_business_search&utm_source=oncXGL2aPIKrtJdnWeFSnA", "review_count": 678, "categories": [{"alias": "italian", "title": "Italian"}, {"alias": "pizza", "title": "Pizza"}, {"alias": "seafood", "title": "Seafood"}], "rating": 4.5, "coordinates": {"latitude": 33.2281406, "longitude": -117.3245743}, "transactions": ["pickup", "delivery"], "price": "$$", "location": {"address1": "3915 Mission Ave", "address2": "Ste 12", "address3": "", "city": "Oceanside", "zip_code": "92058", "country": "US", "state": "CA", "display_address": ["3915 Mission Ave", "Ste 12", "Oceanside, CA 92058"]}, "phone": "+17606969007", "display_phone": "(760) 696-9007", "distance": 624.0395120973519}, {"id": "UPGYeMQGPyKahAsW0AMorw", "alias": "mangia-e-bevi-oceanside", "name": "Mangia e Bevi", "image_url": "https://s3-media2.fl.yelpcdn.com/bphoto/JyNc7RZ6xSYKdnkOArHM2Q/o.jpg", "is_closed": false, "url": "https://www.yelp.com/biz/mangia-e-bevi-oceanside?adjust_creative=oncXGL2aPIKrtJdnWeFSnA&utm_campaign=yelp_api_v3&utm_medium=api_v3_business_search&utm_source=oncXGL2aPIKrtJdnWeFSnA", "review_count": 16, "categories": [{"alias": "italian", "title": "Italian"}, {"alias": "pizza", "title": "Pizza"}, {"alias": "wine_bars", "title": "Wine Bars"}], "rating": 5.0, "coordinates": {"latitude": 33.21011, "longitude": -117.31162}, "transactions": [], "location": {"address1": "3613 Ocean Ranch Blvd", "address2": "Ste 100", "address3": "", "city": "Oceanside", "zip_code": "92056", "country": "US", "state": "CA", "display_address": ["3613 Ocean Ranch Blvd", "Ste 100", "Oceanside, CA 92056"]}, "phone": "+17602311225", "display_phone": "(760) 231-1225", "distance": 1877.8899368942748}, {"id": "DnDi5lJ7SKFshww3dZHUHg", "alias": "big-bobs-best-pizza-oceanside", "name": "Big Bob's Best Pizza", "image_url": "https://s3-media1.fl.yelpcdn.com/bphoto/Y5cqqvPVRLLv1ZYGw-Id_Q/o.jpg", "is_closed": false, "url": "https://www.yelp.com/biz/big-bobs-best-pizza-oceanside?adjust_creative=oncXGL2aPIKrtJdnWeFSnA&utm_campaign=yelp_api_v3&utm_medium=api_v3_business_search&utm_source=oncXGL2aPIKrtJdnWeFSnA", "review_count": 432, "categories": [{"alias": "pizza", "title": "Pizza"}], "rating": 4.5, "coordinates": {"latitude": 33.20949, "longitude": -117.31192}, "transactions": [], "price": "$$", "location": {"address1": "3617 Ocean Ranch Blvd", "address2": "Ste 105", "address3": "", "city": "Oceanside", "zip_code": "92056", "country": "US", "state": "CA", "display_address": ["3617 Ocean Ranch Blvd", "Ste 105", "Oceanside, CA 92056"]}, "phone": "+17602315050", "display_phone": "(760) 231-5050", "distance": 1902.29489913474}, {"id": "OitweOChpXLJ_pdwX_4JyQ", "alias": "killer-pizza-from-mars-oceanside-2", "name": "Killer Pizza From Mars", "image_url": "https://s3-media3.fl.yelpcdn.com/bphoto/VZSv8_jCkQCA4unYvpV1Ng/o.jpg", "is_closed": false, "url": "https://www.yelp.com/biz/killer-pizza-from-mars-oceanside-2?adjust_creative=oncXGL2aPIKrtJdnWeFSnA&utm_campaign=yelp_api_v3&utm_medium=api_v3_business_search&utm_source=oncXGL2aPIKrtJdnWeFSnA", "review_count": 332, "categories": [{"alias": "pizza", "title": "Pizza"}], "rating": 4.0, "coordinates": {"latitude": 33.2268608591, "longitude": -117.332498338}, "transactions": [], "price": "$$", "location": {"address1": "3772 Mission Ave", "address2": "Ste 127", "address3": "", "city": "Oceanside", "zip_code": "92058", "country": "US", "state": "CA", "display_address": ["3772 Mission Ave", "Ste 127", "Oceanside, CA 92058"]}, "phone": "+17607226060", "display_phone": "(760) 722-6060", "distance": 1334.121911344815}, {"id": "3DfGQiRIaL2AD18eF4JXFA", "alias": "tony-pepperoni-pizzeria-oceanside", "name": "Tony Pepperoni Pizzeria", "image_url": "https://s3-media4.fl.yelpcdn.com/bphoto/8SkML_caQdsYOTYGUgRM4Q/o.jpg", "is_closed": false, "url": "https://www.yelp.com/biz/tony-pepperoni-pizzeria-oceanside?adjust_creative=oncXGL2aPIKrtJdnWeFSnA&utm_campaign=yelp_api_v3&utm_medium=api_v3_business_search&utm_source=oncXGL2aPIKrtJdnWeFSnA", "review_count": 222, "categories": [{"alias": "pizza", "title": "Pizza"}], "rating": 4.0, "coordinates": {"latitude": 33.2407387179985, "longitude": -117.293069506142}, "transactions": [], "price": "$$", "location": {"address1": "805 College Blvd", "address2": "", "address3": "", "city": "Oceanside", "zip_code": "92057", "country": "US", "state": "CA", "display_address": ["805 College Blvd", "Oceanside, CA 92057"]}, "phone": "+17607266400", "display_phone": "(760) 726-6400", "distance": 2853.4112195974863}, {"id": "MM6uxCzBjCTwKzfFYbagrw", "alias": "the-draft-restaurant-and-sports-bar-oceanside", "name": "The Draft Restaurant & Sports Bar", "image_url": "https://s3-media3.fl.yelpcdn.com/bphoto/d4FSDA0x6Ah5EnlC0T7iQA/o.jpg", "is_closed": false, "url": "https://www.yelp.com/biz/the-draft-restaurant-and-sports-bar-oceanside?adjust_creative=oncXGL2aPIKrtJdnWeFSnA&utm_campaign=yelp_api_v3&utm_medium=api_v3_business_search&utm_source=oncXGL2aPIKrtJdnWeFSnA", "review_count": 356, "categories": [{"alias": "chicken_wings", "title": "Chicken Wings"}, {"alias": "pizza", "title": "Pizza"}, {"alias": "sportsbars", "title": "Sports Bars"}], "rating": 3.5, "coordinates": {"latitude": 33.2070946797679, "longitude": -117.283067769815}, "transactions": ["pickup"], "price": "$$", "location": {"address1": "4225 Oceanside Blvd", "address2": "", "address3": "", "city": "Oceanside", "zip_code": "92056", "country": "US", "state": "CA", "display_address": ["4225 Oceanside Blvd", "Oceanside, CA 92056"]}, "phone": "+17606314700", "display_phone": "(760) 631-4700", "distance": 3885.8275259394272}, {"id": "B0jMCEjkPoftd1StpeBvwA", "alias": "brooklyn-boyz-pizza-oceanside", "name": "Brooklyn Boyz Pizza", "image_url": "https://s3-media3.fl.yelpcdn.com/bphoto/Me3f685-x8JwAQ-RrgwNhw/o.jpg", "is_closed": false, "url": "https://www.yelp.com/biz/brooklyn-boyz-pizza-oceanside?adjust_creative=oncXGL2aPIKrtJdnWeFSnA&utm_campaign=yelp_api_v3&utm_medium=api_v3_business_search&utm_source=oncXGL2aPIKrtJdnWeFSnA", "review_count": 445, "categories": [{"alias": "pizza", "title": "Pizza"}], "rating": 4.0, "coordinates": {"latitude": 33.182539, "longitude": -117.340745}, "transactions": ["pickup", "delivery"], "price": "$", "location": {"address1": "2183 Vista Way", "address2": "Ste B", "address3": "", "city": "Oceanside", "zip_code": "92054", "country": "US", "state": "CA", "display_address": ["2183 Vista Way", "Ste B", "Oceanside, CA 92054"]}, "phone": "+17607574992", "display_phone": "(760) 757-4992", "distance": 5269.501006316142}, {"id": "EL7USeh31s554-xZzIH32Q", "alias": "upper-crust-pizza-oceanside", "name": "Upper Crust Pizza", "image_url": "https://s3-media2.fl.yelpcdn.com/bphoto/bDpUVBucBIoxbV08_AHrNw/o.jpg", "is_closed": false, "url": "https://www.yelp.com/biz/upper-crust-pizza-oceanside?adjust_creative=oncXGL2aPIKrtJdnWeFSnA&utm_campaign=yelp_api_v3&utm_medium=api_v3_business_search&utm_source=oncXGL2aPIKrtJdnWeFSnA", "review_count": 203, "categories": [{"alias": "pizza", "title": "Pizza"}, {"alias": "italian", "title": "Italian"}, {"alias": "sandwiches", "title": "Sandwiches"}], "rating": 4.0, "coordinates": {"latitude": 33.207398, "longitude": -117.2852966}, "transactions": ["pickup", "delivery"], "price": "$", "location": {"address1": "4196 Oceanside Blvd", "address2": "Ste A", "address3": "", "city": "Oceanside", "zip_code": "92056", "country": "US", "state": "CA", "display_address": ["4196 Oceanside Blvd", "Ste A", "Oceanside, CA 92056"]}, "phone": "+17606309330", "display_phone": "(760) 630-9330", "distance": 3603.9887341595263}, {"id": "fvVYXZKYHfgpJ0K98dJ4pA", "alias": "mountain-mikes-pizza-oceanside", "name": "Mountain Mike's Pizza", "image_url": "https://s3-media4.fl.yelpcdn.com/bphoto/tT4aF_R1VyRs_0wAXf6q5w/o.jpg", "is_closed": false, "url": "https://www.yelp.com/biz/mountain-mikes-pizza-oceanside?adjust_creative=oncXGL2aPIKrtJdnWeFSnA&utm_campaign=yelp_api_v3&utm_medium=api_v3_business_search&utm_source=oncXGL2aPIKrtJdnWeFSnA", "review_count": 83, "categories": [{"alias": "pizza", "title": "Pizza"}], "rating": 3.5, "coordinates": {"latitude": 33.2476844, "longitude": -117.2923396}, "transactions": ["pickup", "delivery"], "price": "$$", "location": {"address1": "455 College Blvd", "address2": "", "address3": null, "city": "Oceanside", "zip_code": "92057", "country": "US", "state": "CA", "display_address": ["455 College Blvd", "Oceanside, CA 92057"]}, "phone": "+17602953121", "display_phone": "(760) 295-3121", "distance": 3180.935473910865}, {"id": "EUWF4__8fj7VUWq9c19OoA", "alias": "pizza-on-tap-vista", "name": "Pizza On Tap", "image_url": "https://s3-media4.fl.yelpcdn.com/bphoto/ZUeijKmujSPFlluSTFwmMQ/o.jpg", "is_closed": false, "url": "https://www.yelp.com/biz/pizza-on-tap-vista?adjust_creative=oncXGL2aPIKrtJdnWeFSnA&utm_campaign=yelp_api_v3&utm_medium=api_v3_business_search&utm_source=oncXGL2aPIKrtJdnWeFSnA", "review_count": 216, "categories": [{"alias": "pizza", "title": "Pizza"}, {"alias": "salad", "title": "Salad"}, {"alias": "sportsbars", "title": "Sports Bars"}], "rating": 4.5, "coordinates": {"latitude": 33.1887288, "longitude": -117.2802999}, "transactions": ["pickup", "delivery"], "price": "$", "location": {"address1": "1825 W Vista Way", "address2": "", "address3": "", "city": "Vista", "zip_code": "92083", "country": "US", "state": "CA", "display_address": ["1825 W Vista Way", "Vista, CA 92083"]}, "phone": "+17606304105", "display_phone": "(760) 630-4105", "distance": 5357.527182748288}, {"id": "lRM1MjVvRH5FJOrOOf45vQ", "alias": "romas-pizza-and-grill-oceanside", "name": "Roma's Pizza and Grill", "image_url": "https://s3-media1.fl.yelpcdn.com/bphoto/bkyFpUAvbO3RG8j3NyuxbA/o.jpg", "is_closed": false, "url": "https://www.yelp.com/biz/romas-pizza-and-grill-oceanside?adjust_creative=oncXGL2aPIKrtJdnWeFSnA&utm_campaign=yelp_api_v3&utm_medium=api_v3_business_search&utm_source=oncXGL2aPIKrtJdnWeFSnA", "review_count": 86, "categories": [{"alias": "pizza", "title": "Pizza"}], "rating": 3.5, "coordinates": {"latitude": 33.25464, "longitude": -117.30062}, "transactions": ["pickup", "delivery"], "price": "$$", "location": {"address1": "617 N Redondo Dr", "address2": "Ste B", "address3": "", "city": "Oceanside", "zip_code": "92057", "country": "US", "state": "CA", "display_address": ["617 N Redondo Dr", "Ste B", "Oceanside, CA 92057"]}, "phone": "+17607572003", "display_phone": "(760) 757-2003", "distance": 3566.6849653191325}, {"id": "tLNKsTrU0T8UyilCLaP5-g", "alias": "cusimanos-pizzeria-oceanside", "name": "Cusimano's Pizzeria", "image_url": "https://s3-media2.fl.yelpcdn.com/bphoto/D7ilQsCQoyhId9FiXeYp5g/o.jpg", "is_closed": false, "url": "https://www.yelp.com/biz/cusimanos-pizzeria-oceanside?adjust_creative=oncXGL2aPIKrtJdnWeFSnA&utm_campaign=yelp_api_v3&utm_medium=api_v3_business_search&utm_source=oncXGL2aPIKrtJdnWeFSnA", "review_count": 68, "categories": [{"alias": "pizza", "title": "Pizza"}, {"alias": "italian", "title": "Italian"}], "rating": 4.0, "coordinates": {"latitude": 33.181416, "longitude": -117.293098}, "transactions": [], "price": "$", "location": {"address1": "3809 Plaza Dr", "address2": "", "address3": "", "city": "Oceanside", "zip_code": "92056", "country": "US", "state": "CA", "display_address": ["3809 Plaza Dr", "Oceanside, CA 92056"]}, "phone": "+17604141200", "display_phone": "(760) 414-1200", "distance": 5485.04898102267}, {"id": "E8JIy0Gu8RCQfzuwABw4Nw", "alias": "giannis-pizza-oceanside", "name": "Gianni's Pizza", "image_url": "https://s3-media4.fl.yelpcdn.com/bphoto/UOrAmXVEXpgvtYqLpfc84Q/o.jpg", "is_closed": false, "url": "https://www.yelp.com/biz/giannis-pizza-oceanside?adjust_creative=oncXGL2aPIKrtJdnWeFSnA&utm_campaign=yelp_api_v3&utm_medium=api_v3_business_search&utm_source=oncXGL2aPIKrtJdnWeFSnA", "review_count": 197, "categories": [{"alias": "pizza", "title": "Pizza"}], "rating": 3.0, "coordinates": {"latitude": 33.18448, "longitude": -117.29369}, "transactions": ["pickup", "delivery"], "price": "$", "location": {"address1": "3910 Vista Way", "address2": "Ste 108", "address3": "", "city": "Oceanside", "zip_code": "92056", "country": "US", "state": "CA", "display_address": ["3910 Vista Way", "Ste 108", "Oceanside, CA 92056"]}, "phone": "+17607242670", "display_phone": "(760) 724-2670", "distance": 5154.515307120133}, {"id": "hvvMzqP7t4DxJ2QYi7HdUQ", "alias": "dominos-pizza-oceanside", "name": "Domino's Pizza", "image_url": "https://s3-media2.fl.yelpcdn.com/bphoto/laWAOk7Amn40GTb0nU_wiw/o.jpg", "is_closed": false, "url": "https://www.yelp.com/biz/dominos-pizza-oceanside?adjust_creative=oncXGL2aPIKrtJdnWeFSnA&utm_campaign=yelp_api_v3&utm_medium=api_v3_business_search&utm_source=oncXGL2aPIKrtJdnWeFSnA", "review_count": 94, "categories": [{"alias": "pizza", "title": "Pizza"}], "rating": 2.5, "coordinates": {"latitude": 33.2446674, "longitude": -117.3224113}, "transactions": [], "price": "$", "location": {"address1": "650 Douglas Dr", "address2": "Ste 104", "address3": "", "city": "Oceanside", "zip_code": "92058", "country": "US", "state": "CA", "display_address": ["650 Douglas Dr", "Ste 104", "Oceanside, CA 92058"]}, "phone": "+17604390500", "display_phone": "(760) 439-0500", "distance": 2099.27178234494}, {"id": "j3-YgUDJwe8NkuQQ4mAj3Q", "alias": "little-caesars-pizza-oceanside-2", "name": "Little Caesars Pizza", "image_url": "https://s3-media1.fl.yelpcdn.com/bphoto/3mRCxuE23RClgGASDAVa2w/o.jpg", "is_closed": false, "url": "https://www.yelp.com/biz/little-caesars-pizza-oceanside-2?adjust_creative=oncXGL2aPIKrtJdnWeFSnA&utm_campaign=yelp_api_v3&utm_medium=api_v3_business_search&utm_source=oncXGL2aPIKrtJdnWeFSnA", "review_count": 29, "categories": [{"alias": "pizza", "title": "Pizza"}], "rating": 3.0, "coordinates": {"latitude": 33.2507193681155, "longitude": -117.300803511469}, "transactions": [], "price": "$", "location": {"address1": "4904 N River Rd", "address2": "", "address3": "", "city": "Oceanside", "zip_code": "92057", "country": "US", "state": "CA", "display_address": ["4904 N River Rd", "Oceanside, CA 92057"]}, "phone": "+17604393172", "display_phone": "(760) 439-3172", "distance": 3188.185859246466}, {"id": "bsAsApOl-JlFqe4TbBfUqQ", "alias": "chuck-e-cheeses-oceanside", "name": "Chuck E Cheese's", "image_url": "https://s3-media3.fl.yelpcdn.com/bphoto/vMcurVhaALP2QxqF-M2Z4A/o.jpg", "is_closed": false, "url": "https://www.yelp.com/biz/chuck-e-cheeses-oceanside?adjust_creative=oncXGL2aPIKrtJdnWeFSnA&utm_campaign=yelp_api_v3&utm_medium=api_v3_business_search&utm_source=oncXGL2aPIKrtJdnWeFSnA", "review_count": 64, "categories": [{"alias": "pizza", "title": "Pizza"}, {"alias": "arcades", "title": "Arcades"}], "rating": 2.5, "coordinates": {"latitude": 33.1831072, "longitude": -117.3332872}, "transactions": ["pickup", "delivery"], "price": "$$", "location": {"address1": "2481 Vista Way", "address2": "", "address3": "", "city": "Oceanside", "zip_code": "92054", "country": "US", "state": "CA", "display_address": ["2481 Vista Way", "Oceanside, CA 92054"]}, "phone": "+17604391444", "display_phone": "(760) 439-1444", "distance": 5142.3767404280525}, {"id": "1UIPR4jayQUESdzOMMmi5Q", "alias": "papa-johns-pizza-oceanside", "name": "Papa John's Pizza", "image_url": "https://s3-media3.fl.yelpcdn.com/bphoto/HwtdJWM_70sXn_E3Xwrt2w/o.jpg", "is_closed": false, "url": "https://www.yelp.com/biz/papa-johns-pizza-oceanside?adjust_creative=oncXGL2aPIKrtJdnWeFSnA&utm_campaign=yelp_api_v3&utm_medium=api_v3_business_search&utm_source=oncXGL2aPIKrtJdnWeFSnA", "review_count": 45, "categories": [{"alias": "pizza", "title": "Pizza"}], "rating": 2.5, "coordinates": {"latitude": 33.207439, "longitude": -117.2833753}, "transactions": ["pickup", "delivery"], "price": "$$", "location": {"address1": "4225 Oceanside Blvd", "address2": "", "address3": "", "city": "Oceanside", "zip_code": "92056", "country": "US", "state": "CA", "display_address": ["4225 Oceanside Blvd", "Oceanside, CA 92056"]}, "phone": "+17608062266", "display_phone": "(760) 806-2266", "distance": 3873.750111577762}, {"id": "phEUoIcACT5PWHDbL27t2w", "alias": "pizza-hut-oceanside-3", "name": "Pizza Hut", "image_url": "https://s3-media1.fl.yelpcdn.com/bphoto/GSktTdUfxFjlU6_GPrcYsw/o.jpg", "is_closed": false, "url": "https://www.yelp.com/biz/pizza-hut-oceanside-3?adjust_creative=oncXGL2aPIKrtJdnWeFSnA&utm_campaign=yelp_api_v3&utm_medium=api_v3_business_search&utm_source=oncXGL2aPIKrtJdnWeFSnA", "review_count": 34, "categories": [{"alias": "pizza", "title": "Pizza"}, {"alias": "italian", "title": "Italian"}, {"alias": "chicken_wings", "title": "Chicken Wings"}], "rating": 2.5, "coordinates": {"latitude": 33.2555999755859, "longitude": -117.300163269043}, "transactions": [], "price": "$", "location": {"address1": "610 North Redondo Dr", "address2": "", "address3": "", "city": "Oceanside", "zip_code": "92057", "country": "US", "state": "CA", "display_address": ["610 North Redondo Dr", "Oceanside, CA 92057"]}, "phone": "+17604334433", "display_phone": "(760) 433-4433", "distance": 3681.4054189847693}, {"id": "bVYYT_Lltr4DzUEArmwvhQ", "alias": "pizza-hut-oceanside-5", "name": "Pizza Hut", "image_url": "https://s3-media3.fl.yelpcdn.com/bphoto/I7OiBIb04Vkf-cGHHZhCiQ/o.jpg", "is_closed": false, "url": "https://www.yelp.com/biz/pizza-hut-oceanside-5?adjust_creative=oncXGL2aPIKrtJdnWeFSnA&utm_campaign=yelp_api_v3&utm_medium=api_v3_business_search&utm_source=oncXGL2aPIKrtJdnWeFSnA", "review_count": 27, "categories": [{"alias": "pizza", "title": "Pizza"}, {"alias": "italian", "title": "Italian"}, {"alias": "chicken_wings", "title": "Chicken Wings"}], "rating": 2.0, "coordinates": {"latitude": 33.2081985, "longitude": -117.2858429}, "transactions": [], "price": "$", "location": {"address1": "4170 Oceanside Blvd", "address2": "Ste 191", "address3": "", "city": "Oceanside", "zip_code": "92056", "country": "US", "state": "CA", "display_address": ["4170 Oceanside Blvd", "Ste 191", "Oceanside, CA 92056"]}, "phone": "+17606310078", "display_phone": "(760) 631-0078", "distance": 3622.3146595657595}, {"id": "XISUe16izt9HVbYySaXasw", "alias": "dominos-pizza-oceanside-2", "name": "Domino's Pizza", "image_url": "https://s3-media1.fl.yelpcdn.com/bphoto/ZEbHb-o4o_AQNJy4HwZmgQ/o.jpg", "is_closed": false, "url": "https://www.yelp.com/biz/dominos-pizza-oceanside-2?adjust_creative=oncXGL2aPIKrtJdnWeFSnA&utm_campaign=yelp_api_v3&utm_medium=api_v3_business_search&utm_source=oncXGL2aPIKrtJdnWeFSnA", "review_count": 62, "categories": [{"alias": "pizza", "title": "Pizza"}], "rating": 3.0, "coordinates": {"latitude": 33.19483, "longitude": -117.28793}, "transactions": [], "price": "$", "location": {"address1": "2858 Thunder Dr", "address2": "", "address3": "", "city": "Oceanside", "zip_code": "92056", "country": "US", "state": "CA", "display_address": ["2858 Thunder Dr", "Oceanside, CA 92056"]}, "phone": "+17609418333", "display_phone": "(760) 941-8333", "distance": 4469.582698867133}, {"id": "OYLLWXxvuqWF2WYHeZbivQ", "alias": "papa-johns-pizza-oceanside-4", "name": "Papa John's Pizza", "image_url": "https://s3-media2.fl.yelpcdn.com/bphoto/fdlHLjpTA3AwGGgwBzE2Qg/o.jpg", "is_closed": false, "url": "https://www.yelp.com/biz/papa-johns-pizza-oceanside-4?adjust_creative=oncXGL2aPIKrtJdnWeFSnA&utm_campaign=yelp_api_v3&utm_medium=api_v3_business_search&utm_source=oncXGL2aPIKrtJdnWeFSnA", "review_count": 53, "categories": [{"alias": "pizza", "title": "Pizza"}], "rating": 2.5, "coordinates": {"latitude": 33.1915729, "longitude": -117.3606054}, "transactions": ["pickup", "delivery"], "price": "$$", "location": {"address1": "1710 Oceanside Blvd", "address2": "", "address3": "", "city": "Oceanside", "zip_code": "92054", "country": "US", "state": "CA", "display_address": ["1710 Oceanside Blvd", "Oceanside, CA 92054"]}, "phone": "+17604057272", "display_phone": "(760) 405-7272", "distance": 5348.5661908487255}, {"id": "5EofFE2Eyf5COZyzA1gZLg", "alias": "little-caesars-oceanside", "name": "Little caesars", "image_url": "https://s3-media4.fl.yelpcdn.com/bphoto/Bhk3ZVOh8bVzHhle7jAn9A/o.jpg", "is_closed": false, "url": "https://www.yelp.com/biz/little-caesars-oceanside?adjust_creative=oncXGL2aPIKrtJdnWeFSnA&utm_campaign=yelp_api_v3&utm_medium=api_v3_business_search&utm_source=oncXGL2aPIKrtJdnWeFSnA", "review_count": 23, "categories": [{"alias": "pizza", "title": "Pizza"}], "rating": 2.0, "coordinates": {"latitude": 33.22714, "longitude": -117.32944}, "transactions": [], "price": "$", "location": {"address1": "3852 Mission Ave", "address2": "", "address3": "", "city": "Oceanside", "zip_code": "92058", "country": "US", "state": "CA", "display_address": ["3852 Mission Ave", "Oceanside, CA 92058"]}, "phone": "+17607220248", "display_phone": "(760) 722-0248", "distance": 1135.8127235674592}, {"id": "oV_sCpN-dAYxLyGwGlI_aA", "alias": "pizza-hut-oceanside-10", "name": "Pizza Hut", "image_url": "https://s3-media1.fl.yelpcdn.com/bphoto/VMbJ4GA9FiDSSJhQR9LUVA/o.jpg", "is_closed": false, "url": "https://www.yelp.com/biz/pizza-hut-oceanside-10?adjust_creative=oncXGL2aPIKrtJdnWeFSnA&utm_campaign=yelp_api_v3&utm_medium=api_v3_business_search&utm_source=oncXGL2aPIKrtJdnWeFSnA", "review_count": 14, "categories": [{"alias": "pizza", "title": "Pizza"}], "rating": 3.0, "coordinates": {"latitude": 33.1841098360415, "longitude": -117.333696218773}, "transactions": [], "price": "$$", "location": {"address1": "2530 Vista Way", "address2": "Ste F", "address3": "", "city": "Oceanside", "zip_code": "92054", "country": "US", "state": "CA", "display_address": ["2530 Vista Way", "Ste F", "Oceanside, CA 92054"]}, "phone": "+17607209500", "display_phone": "(760) 720-9500", "distance": 4877.227751096071}, {"id": "ssz7s1CpGeXprObDTKn2qQ", "alias": "pizza-hut-oceanside-2", "name": "Pizza Hut", "image_url": "https://s3-media1.fl.yelpcdn.com/bphoto/lF-3NPtlV2mHcTQyPMr2GQ/o.jpg", "is_closed": false, "url": "https://www.yelp.com/biz/pizza-hut-oceanside-2?adjust_creative=oncXGL2aPIKrtJdnWeFSnA&utm_campaign=yelp_api_v3&utm_medium=api_v3_business_search&utm_source=oncXGL2aPIKrtJdnWeFSnA", "review_count": 43, "categories": [{"alias": "pizza", "title": "Pizza"}, {"alias": "italian", "title": "Italian"}, {"alias": "chicken_wings", "title": "Chicken Wings"}], "rating": 2.5, "coordinates": {"latitude": 33.1926885992289, "longitude": -117.358136996627}, "transactions": [], "price": "$", "location": {"address1": "1836 Oceanside Blvd", "address2": "Ste B", "address3": "", "city": "Oceanside", "zip_code": "92054", "country": "US", "state": "CA", "display_address": ["1836 Oceanside Blvd", "Ste B", "Oceanside, CA 92054"]}, "phone": "+17607213900", "display_phone": "(760) 721-3900", "distance": 5181.640981102976}, {"id": "rbes-0X3BEQ4HqAWYiBKNA", "alias": "little-caesars-oceanside-5", "name": "Little Caesars", "image_url": "https://s3-media3.fl.yelpcdn.com/bphoto/m1rbdVuoUxw0HKiv-nv4Pg/o.jpg", "is_closed": false, "url": "https://www.yelp.com/biz/little-caesars-oceanside-5?adjust_creative=oncXGL2aPIKrtJdnWeFSnA&utm_campaign=yelp_api_v3&utm_medium=api_v3_business_search&utm_source=oncXGL2aPIKrtJdnWeFSnA", "review_count": 16, "categories": [{"alias": "pizza", "title": "Pizza"}], "rating": 2.0, "coordinates": {"latitude": 33.20741, "longitude": -117.2879}, "transactions": [], "price": "$", "location": {"address1": "4140 Oceanside Blvd", "address2": "", "address3": "", "city": "Oceanside", "zip_code": "92056", "country": "US", "state": "CA", "display_address": ["4140 Oceanside Blvd", "Oceanside, CA 92056"]}, "phone": "+17608063535", "display_phone": "(760) 806-3535", "distance": 3478.6197248790195}, {"id": "FU1CQwgB-xHglYgWoZVL7w", "alias": "costco-snack-bar-vista", "name": "Costco Snack Bar", "image_url": "https://s3-media2.fl.yelpcdn.com/bphoto/QXYbDNRkBdzECVmaoqyFPg/o.jpg", "is_closed": false, "url": "https://www.yelp.com/biz/costco-snack-bar-vista?adjust_creative=oncXGL2aPIKrtJdnWeFSnA&utm_campaign=yelp_api_v3&utm_medium=api_v3_business_search&utm_source=oncXGL2aPIKrtJdnWeFSnA", "review_count": 17, "categories": [{"alias": "hotdog", "title": "Hot Dogs"}, {"alias": "pizza", "title": "Pizza"}], "rating": 3.5, "coordinates": {"latitude": 33.188043306347, "longitude": -117.277263279099}, "transactions": [], "price": "$", "location": {"address1": "1755 Hacienda Dr", "address2": "", "address3": "", "city": "Vista", "zip_code": "92081", "country": "US", "state": "CA", "display_address": ["1755 Hacienda Dr", "Vista, CA 92081"]}, "phone": "+17606317255", "display_phone": "(760) 631-7255", "distance": 5685.215716837545}, {"id": "ydjH0pz8I9wX0w3P7fnbZA", "alias": "pizza-xpress-vista-4", "name": "Pizza Xpress", "image_url": "https://s3-media2.fl.yelpcdn.com/bphoto/P_yYJFtifgIuCifotXQDpA/o.jpg", "is_closed": false, "url": "https://www.yelp.com/biz/pizza-xpress-vista-4?adjust_creative=oncXGL2aPIKrtJdnWeFSnA&utm_campaign=yelp_api_v3&utm_medium=api_v3_business_search&utm_source=oncXGL2aPIKrtJdnWeFSnA", "review_count": 13, "categories": [{"alias": "pizza", "title": "Pizza"}, {"alias": "hotdogs", "title": "Fast Food"}], "rating": 3.0, "coordinates": {"latitude": 33.18396, "longitude": -117.28459}, "transactions": ["pickup", "delivery"], "location": {"address1": "2020 Hacienda Dr", "address2": "", "address3": null, "city": "Vista", "zip_code": "92081", "country": "US", "state": "CA", "display_address": ["2020 Hacienda Dr", "Vista, CA 92081"]}, "phone": "+17608066463", "display_phone": "(760) 806-6463", "distance": 5608.604300555965}, {"id": "zY7d3MdWs1e_Agb7V13wvQ", "alias": "the-pizza-bistro-san-diego-2", "name": "The Pizza Bistro", "image_url": "https://s3-media1.fl.yelpcdn.com/bphoto/uy1GgtGFnJuzLDCuK0Iqzw/o.jpg", "is_closed": false, "url": "https://www.yelp.com/biz/the-pizza-bistro-san-diego-2?adjust_creative=oncXGL2aPIKrtJdnWeFSnA&utm_campaign=yelp_api_v3&utm_medium=api_v3_business_search&utm_source=oncXGL2aPIKrtJdnWeFSnA", "review_count": 2, "categories": [{"alias": "catering", "title": "Caterers"}, {"alias": "pizza", "title": "Pizza"}], "rating": 3.5, "coordinates": {"latitude": 33.18627, "longitude": -117.31131}, "transactions": [], "price": "$$", "location": {"address1": null, "address2": null, "address3": "", "city": "San Diego", "zip_code": "92056", "country": "US", "state": "CA", "display_address": ["San Diego, CA 92056"]}, "phone": "+19196362747", "display_phone": "(919) 636-2747", "distance": 4023.5827766953703}], "total": 28, "region": {"center": {"longitude": -117.31819152832031, "latitude": 33.226009439623446}}}