{"businesses": [{"id": "0VRf2BzRjtbl_s6wJH4z4g", "alias": "teri-cafe-oceanside", "name": "Teri Cafe", "image_url": "https://s3-media2.fl.yelpcdn.com/bphoto/ohSXu2p6wAiFBwzgnrAKlQ/o.jpg", "is_closed": false, "url": "https://www.yelp.com/biz/teri-cafe-oceanside?adjust_creative=oncXGL2aPIKrtJdnWeFSnA&utm_campaign=yelp_api_v3&utm_medium=api_v3_business_search&utm_source=oncXGL2aPIKrtJdnWeFSnA", "review_count": 783, "categories": [{"alias": "ramen", "title": "Ramen"}, {"alias": "sushi", "title": "Sushi Bars"}, {"alias": "noodles", "title": "Noodles"}], "rating": 4.0, "coordinates": {"latitude": 33.1856468732919, "longitude": -117.327160384656}, "transactions": [], "price": "$", "location": {"address1": "2216 S El Camino Real", "address2": "Ste 123", "address3": "", "city": "Oceanside", "zip_code": "92054", "country": "US", "state": "CA", "display_address": ["2216 S El Camino Real", "Ste 123", "Oceanside, CA 92054"]}, "phone": "+17607228399", "display_phone": "(760) 722-8399", "distance": 4565.019417950597}, {"id": "Lm0w5kMiQAUE52AX5Y-nfA", "alias": "love-boat-sushi-oceanside", "name": "Love Boat Sushi", "image_url": "https://s3-media4.fl.yelpcdn.com/bphoto/s6cc4odrpxYTdiXQlTccoQ/o.jpg", "is_closed": false, "url": "https://www.yelp.com/biz/love-boat-sushi-oceanside?adjust_creative=oncXGL2aPIKrtJdnWeFSnA&utm_campaign=yelp_api_v3&utm_medium=api_v3_business_search&utm_source=oncXGL2aPIKrtJdnWeFSnA", "review_count": 614, "categories": [{"alias": "japanese", "title": "Japanese"}, {"alias": "sushi", "title": "Sushi Bars"}], "rating": 4.0, "coordinates": {"latitude": 33.229665, "longitude": -117.308063}, "transactions": ["pickup", "delivery"], "price": "$$", "location": {"address1": "125 Old Grove Rd", "address2": "", "address3": "", "city": "Oceanside", "zip_code": "92049", "country": "US", "state": "CA", "display_address": ["125 Old Grove Rd", "Oceanside, CA 92049"]}, "phone": "+17607213737", "display_phone": "(760) 721-3737", "distance": 1026.0473091013657}, {"id": "zWtGcIl_jsUHK3Dhmxu6jw", "alias": "yukiya-sushi-oceanside", "name": "Yukiya Sushi", "image_url": "https://s3-media2.fl.yelpcdn.com/bphoto/EOKGqDJaUBN5WTxXB2th9w/o.jpg", "is_closed": false, "url": "https://www.yelp.com/biz/yukiya-sushi-oceanside?adjust_creative=oncXGL2aPIKrtJdnWeFSnA&utm_campaign=yelp_api_v3&utm_medium=api_v3_business_search&utm_source=oncXGL2aPIKrtJdnWeFSnA", "review_count": 189, "categories": [{"alias": "sushi", "title": "Sushi Bars"}, {"alias": "cocktailbars", "title": "Cocktail Bars"}], "rating": 4.0, "coordinates": {"latitude": 33.1816485, "longitude": -117.3353747}, "transactions": [], "price": "$$", "location": {"address1": "2415 Vista Way", "address2": "", "address3": null, "city": "Oceanside", "zip_code": "92054", "country": "US", "state": "CA", "display_address": ["2415 Vista Way", "Oceanside, CA 92054"]}, "phone": "+17604393283", "display_phone": "(760) 439-3283", "distance": 5185.314678629729}, {"id": "tyAK08taAaH7TJRDYmDNoA", "alias": "teri-cafe-oceanside-2", "name": "Teri Cafe", "image_url": "https://s3-media3.fl.yelpcdn.com/bphoto/EqgDweHE3dVyAl4oVYCk8Q/o.jpg", "is_closed": false, "url": "https://www.yelp.com/biz/teri-cafe-oceanside-2?adjust_creative=oncXGL2aPIKrtJdnWeFSnA&utm_campaign=yelp_api_v3&utm_medium=api_v3_business_search&utm_source=oncXGL2aPIKrtJdnWeFSnA", "review_count": 607, "categories": [{"alias": "sushi", "title": "Sushi Bars"}, {"alias": "hawaiian", "title": "Hawaiian"}, {"alias": "ramen", "title": "Ramen"}], "rating": 4.0, "coordinates": {"latitude": 33.181676135002, "longitude": -117.29310357791}, "transactions": [], "price": "$", "location": {"address1": "3809 Plaza Dr", "address2": "Ste101", "address3": "", "city": "Oceanside", "zip_code": "92056", "country": "US", "state": "CA", "display_address": ["3809 Plaza Dr", "Ste101", "Oceanside, CA 92056"]}, "phone": "+17609458888", "display_phone": "(760) 945-8888", "distance": 5454.32520120165}, {"id": "mbpH2qqhsc0V37UkY4Hp-g", "alias": "cafe-de-thai-and-sushi-oceanside", "name": "Cafe de Thai & Sushi", "image_url": "https://s3-media1.fl.yelpcdn.com/bphoto/SF215PklAeMmMbdCKXe2Yw/o.jpg", "is_closed": false, "url": "https://www.yelp.com/biz/cafe-de-thai-and-sushi-oceanside?adjust_creative=oncXGL2aPIKrtJdnWeFSnA&utm_campaign=yelp_api_v3&utm_medium=api_v3_business_search&utm_source=oncXGL2aPIKrtJdnWeFSnA", "review_count": 420, "categories": [{"alias": "thai", "title": "Thai"}, {"alias": "sushi", "title": "Sushi Bars"}, {"alias": "japanese", "title": "Japanese"}], "rating": 4.0, "coordinates": {"latitude": 33.207398, "longitude": -117.2852966}, "transactions": [], "price": "$$", "location": {"address1": "4196 Oceanside Blvd", "address2": "", "address3": "", "city": "Oceanside", "zip_code": "92056", "country": "US", "state": "CA", "display_address": ["4196 Oceanside Blvd", "Oceanside, CA 92056"]}, "phone": "+17609455533", "display_phone": "(760) 945-5533", "distance": 3603.9887341595263}, {"id": "0YwEa7o4WrDvpTdItKMY5Q", "alias": "kampai-sushi-oceanside", "name": "Kampai Sushi", "image_url": "https://s3-media2.fl.yelpcdn.com/bphoto/Tm1JuiPFGyWN7SeVMnW3Mw/o.jpg", "is_closed": false, "url": "https://www.yelp.com/biz/kampai-sushi-oceanside?adjust_creative=oncXGL2aPIKrtJdnWeFSnA&utm_campaign=yelp_api_v3&utm_medium=api_v3_business_search&utm_source=oncXGL2aPIKrtJdnWeFSnA", "review_count": 216, "categories": [{"alias": "japanese", "title": "Japanese"}, {"alias": "sushi", "title": "Sushi Bars"}], "rating": 4.0, "coordinates": {"latitude": 33.19414, "longitude": -117.35677}, "transactions": ["pickup", "delivery"], "price": "$$", "location": {"address1": "1906 Oceanside Blvd", "address2": "Ste H", "address3": "", "city": "Oceanside", "zip_code": "92054", "country": "US", "state": "CA", "display_address": ["1906 Oceanside Blvd", "Ste H", "Oceanside, CA 92054"]}, "phone": "+17607571484", "display_phone": "(760) 757-1484", "distance": 5022.0395882847315}, {"id": "zBrQ8CVGzQqwMP9GrtGjyQ", "alias": "waraii-sushi-oceanside", "name": "Waraii Sushi", "image_url": "https://s3-media2.fl.yelpcdn.com/bphoto/d_bFazcKMuzZ1npjuBl2lw/o.jpg", "is_closed": false, "url": "https://www.yelp.com/biz/waraii-sushi-oceanside?adjust_creative=oncXGL2aPIKrtJdnWeFSnA&utm_campaign=yelp_api_v3&utm_medium=api_v3_business_search&utm_source=oncXGL2aPIKrtJdnWeFSnA", "review_count": 389, "categories": [{"alias": "japanese", "title": "Japanese"}, {"alias": "sushi", "title": "Sushi Bars"}], "rating": 4.0, "coordinates": {"latitude": 33.2067908786033, "longitude": -117.283924967051}, "transactions": ["pickup", "delivery"], "price": "$$", "location": {"address1": "4225 Oceanside Blvd", "address2": "Ste F", "address3": "", "city": "Oceanside", "zip_code": "92056", "country": "US", "state": "CA", "display_address": ["4225 Oceanside Blvd", "Ste F", "Oceanside, CA 92056"]}, "phone": "+17606303770", "display_phone": "(760) 630-3770", "distance": 3837.732033639288}, {"id": "IXDdSRrGJNf66Ek67gcPdA", "alias": "sushi-n-joy-oceanside", "name": "Sushi N Joy", "image_url": "https://s3-media3.fl.yelpcdn.com/bphoto/L-SV4WhljdiwgEH2D_6KPA/o.jpg", "is_closed": false, "url": "https://www.yelp.com/biz/sushi-n-joy-oceanside?adjust_creative=oncXGL2aPIKrtJdnWeFSnA&utm_campaign=yelp_api_v3&utm_medium=api_v3_business_search&utm_source=oncXGL2aPIKrtJdnWeFSnA", "review_count": 426, "categories": [{"alias": "sushi", "title": "Sushi Bars"}], "rating": 4.0, "coordinates": {"latitude": 33.1833549, "longitude": -117.3319832}, "transactions": [], "price": "$$", "location": {"address1": "2530 Vista Way", "address2": "Ste J", "address3": "", "city": "Oceanside", "zip_code": "92054", "country": "US", "state": "CA", "display_address": ["2530 Vista Way", "Ste J", "Oceanside, CA 92054"]}, "phone": "+17607211888", "display_phone": "(760) 721-1888", "distance": 4869.125174200561}, {"id": "g7EDmHuHmgwodt2MFU9cNg", "alias": "go-go-japan-oceanside", "name": "Go Go  Japan", "image_url": "https://s3-media3.fl.yelpcdn.com/bphoto/DOdTYI31cWEg9Ir7hKE8gQ/o.jpg", "is_closed": false, "url": "https://www.yelp.com/biz/go-go-japan-oceanside?adjust_creative=oncXGL2aPIKrtJdnWeFSnA&utm_campaign=yelp_api_v3&utm_medium=api_v3_business_search&utm_source=oncXGL2aPIKrtJdnWeFSnA", "review_count": 266, "categories": [{"alias": "sushi", "title": "Sushi Bars"}, {"alias": "japanese", "title": "Japanese"}], "rating": 3.5, "coordinates": {"latitude": 33.20589, "longitude": -117.288564}, "transactions": ["pickup", "delivery"], "price": "$$", "location": {"address1": "4121 Oceanside Blvd", "address2": "Ste 202", "address3": "", "city": "Oceanside", "zip_code": "92056", "country": "US", "state": "CA", "display_address": ["4121 Oceanside Blvd", "Ste 202", "Oceanside, CA 92056"]}, "phone": "+17606301288", "display_phone": "(760) 630-1288", "distance": 3549.83968223719}, {"id": "PgSK53vNIOaLZvGHdWpz-Q", "alias": "kona-grill-and-sushi-oceanside", "name": "Kona Grill & Sushi", "image_url": "https://s3-media1.fl.yelpcdn.com/bphoto/w8NktQpqeO8-5eBVyE21WQ/o.jpg", "is_closed": false, "url": "https://www.yelp.com/biz/kona-grill-and-sushi-oceanside?adjust_creative=oncXGL2aPIKrtJdnWeFSnA&utm_campaign=yelp_api_v3&utm_medium=api_v3_business_search&utm_source=oncXGL2aPIKrtJdnWeFSnA", "review_count": 2, "categories": [{"alias": "sushi", "title": "Sushi Bars"}, {"alias": "japanese", "title": "Japanese"}], "rating": 3.5, "coordinates": {"latitude": 33.2269455, "longitude": -117.3281398}, "transactions": [], "location": {"address1": "3861 Mission Ave", "address2": "", "address3": "", "city": "Oceanside", "zip_code": "92054", "country": "US", "state": "CA", "display_address": ["3861 Mission Ave", "Oceanside, CA 92054"]}, "phone": "+17607222793", "display_phone": "(760) 722-2793", "distance": 958.9868086635273}], "total": 10, "region": {"center": {"longitude": -117.31819152832031, "latitude": 33.226009439623446}}}