{"businesses": [{"id": "xctvaTT7WSScCosJ80eMtQ", "alias": "cava-encinitas", "name": "CAVA", "image_url": "https://s3-media2.fl.yelpcdn.com/bphoto/2sz0APGWtXMNoRCoWsroOw/o.jpg", "is_closed": false, "url": "https://www.yelp.com/biz/cava-encinitas?adjust_creative=oncXGL2aPIKrtJdnWeFSnA&utm_campaign=yelp_api_v3&utm_medium=api_v3_business_search&utm_source=oncXGL2aPIKrtJdnWeFSnA", "review_count": 52, "categories": [{"alias": "mediterranean", "title": "Mediterranean"}], "rating": 4.5, "coordinates": {"latitude": 33.065783, "longitude": -117.265282}, "transactions": [], "location": {"address1": "1042 N El Camino Real", "address2": "Ste E", "address3": null, "city": "Encinitas", "zip_code": "92024", "country": "US", "state": "CA", "display_address": ["1042 N El Camino Real", "Ste E", "Encinitas, CA 92024"]}, "phone": "+14422006002", "display_phone": "(442) 200-6002", "distance": 2097.9940054541335}, {"id": "sHx0xEr6droAPxRvmURaRw", "alias": "peachys-market-and-grill-encinitas", "name": "Peachy's Market & Grill", "image_url": "https://s3-media4.fl.yelpcdn.com/bphoto/CQfsjJ7L0vP8POkNclYppw/o.jpg", "is_closed": false, "url": "https://www.yelp.com/biz/peachys-market-and-grill-encinitas?adjust_creative=oncXGL2aPIKrtJdnWeFSnA&utm_campaign=yelp_api_v3&utm_medium=api_v3_business_search&utm_source=oncXGL2aPIKrtJdnWeFSnA", "review_count": 124, "categories": [{"alias": "intlgrocery", "title": "International Grocery"}, {"alias": "mediterranean", "title": "Mediterranean"}, {"alias": "persian", "title": "Persian/Iranian"}], "rating": 4.5, "coordinates": {"latitude": 33.05552, "longitude": -117.263}, "transactions": [], "price": "$", "location": {"address1": "362 N El Camino Real", "address2": null, "address3": "", "city": "Encinitas", "zip_code": "92024", "country": "US", "state": "CA", "display_address": ["362 N El Camino Real", "Encinitas, CA 92024"]}, "phone": "+17604875347", "display_phone": "(760) 487-5347", "distance": 1171.8763249697156}, {"id": "pp4_GAL0j8O3P4JZwQg49Q", "alias": "the-kebab-shop-encinitas", "name": "The Kebab Shop", "image_url": "https://s3-media3.fl.yelpcdn.com/bphoto/h776TleOoXsN4FWX6UUJew/o.jpg", "is_closed": false, "url": "https://www.yelp.com/biz/the-kebab-shop-encinitas?adjust_creative=oncXGL2aPIKrtJdnWeFSnA&utm_campaign=yelp_api_v3&utm_medium=api_v3_business_search&utm_source=oncXGL2aPIKrtJdnWeFSnA", "review_count": 432, "categories": [{"alias": "mediterranean", "title": "Mediterranean"}, {"alias": "kebab", "title": "Kebab"}], "rating": 4.0, "coordinates": {"latitude": 33.0479800538043, "longitude": -117.25793293501}, "transactions": ["delivery", "pickup"], "price": "$", "location": {"address1": "127 N El Camino Real", "address2": null, "address3": "", "city": "Encinitas", "zip_code": "92024", "country": "US", "state": "CA", "display_address": ["127 N El Camino Real", "Encinitas, CA 92024"]}, "phone": "+17606349822", "display_phone": "(760) 634-9822", "distance": 692.6114924528719}, {"id": "jEHNrTHQ6GivufHc3Dqriw", "alias": "solterra-winery-and-kitchen-encinitas-3", "name": "Solterra Winery & Kitchen", "image_url": "https://s3-media2.fl.yelpcdn.com/bphoto/kzwbsWohyqgTKiXby-A-dA/o.jpg", "is_closed": false, "url": "https://www.yelp.com/biz/solterra-winery-and-kitchen-encinitas-3?adjust_creative=oncXGL2aPIKrtJdnWeFSnA&utm_campaign=yelp_api_v3&utm_medium=api_v3_business_search&utm_source=oncXGL2aPIKrtJdnWeFSnA", "review_count": 628, "categories": [{"alias": "wine_bars", "title": "Wine Bars"}, {"alias": "mediterranean", "title": "Mediterranean"}, {"alias": "tapasmallplates", "title": "Tapas/Small Plates"}], "rating": 4.0, "coordinates": {"latitude": 33.0650349813719, "longitude": -117.302681877815}, "transactions": [], "price": "$$", "location": {"address1": "934 N Coast Hwy 101", "address2": "", "address3": "", "city": "Encinitas", "zip_code": "92024", "country": "US", "state": "CA", "display_address": ["934 N Coast Hwy 101", "Encinitas, CA 92024"]}, "phone": "+17602302970", "display_phone": "(760) 230-2970", "distance": 5003.376812631108}, {"id": "XFq1KVvczDQ7Ie0gELdEmw", "alias": "skewers-grill-encinitas", "name": "Skewers Grill", "image_url": "https://s3-media3.fl.yelpcdn.com/bphoto/Z4P758RLKGg9AKVz0kLtHw/o.jpg", "is_closed": false, "url": "https://www.yelp.com/biz/skewers-grill-encinitas?adjust_creative=oncXGL2aPIKrtJdnWeFSnA&utm_campaign=yelp_api_v3&utm_medium=api_v3_business_search&utm_source=oncXGL2aPIKrtJdnWeFSnA", "review_count": 90, "categories": [{"alias": "persian", "title": "Persian/Iranian"}, {"alias": "mediterranean", "title": "Mediterranean"}], "rating": 4.5, "coordinates": {"latitude": 33.06726, "longitude": -117.26452}, "transactions": [], "price": "$$", "location": {"address1": "1060 N El Camino Real", "address2": "", "address3": "", "city": "Encinitas", "zip_code": "92024", "country": "US", "state": "CA", "display_address": ["1060 N El Camino Real", "Encinitas, CA 92024"]}, "phone": "+17604790803", "display_phone": "(760) 479-0803", "distance": 2160.4079636040483}, {"id": "2a40s8vY4NXnFeCSYmfD4Q", "alias": "luna-grill-encinitas-encinitas", "name": "Luna Grill - Encinitas", "image_url": "https://s3-media4.fl.yelpcdn.com/bphoto/S8HmYFzUM5hBA7Fod03HaA/o.jpg", "is_closed": false, "url": "https://www.yelp.com/biz/luna-grill-encinitas-encinitas?adjust_creative=oncXGL2aPIKrtJdnWeFSnA&utm_campaign=yelp_api_v3&utm_medium=api_v3_business_search&utm_source=oncXGL2aPIKrtJdnWeFSnA", "review_count": 58, "categories": [{"alias": "greek", "title": "Greek"}, {"alias": "mediterranean", "title": "Mediterranean"}], "rating": 4.0, "coordinates": {"latitude": 33.0459936, "longitude": -117.2578473}, "transactions": ["delivery", "pickup"], "price": "$", "location": {"address1": "1464 Encinitas Blvd", "address2": "", "address3": null, "city": "Encinitas", "zip_code": "92024", "country": "US", "state": "CA", "display_address": ["1464 Encinitas Blvd", "Encinitas, CA 92024"]}, "phone": "+17604522882", "display_phone": "(760) 452-2882", "distance": 748.5935501482253}], "total": 6}