{"businesses": [{"id": "UPjYdYvxRKHs3xyyNftM9w", "alias": "plum-encinitas-encinitas", "name": "Plum Encinitas", "image_url": "https://s3-media1.fl.yelpcdn.com/bphoto/3CnCOITQJEq_2b498-eFHA/o.jpg", "is_closed": false, "url": "https://www.yelp.com/biz/plum-encinitas-encinitas?adjust_creative=oncXGL2aPIKrtJdnWeFSnA&utm_campaign=yelp_api_v3&utm_medium=api_v3_business_search&utm_source=oncXGL2aPIKrtJdnWeFSnA", "review_count": 24, "categories": [{"alias": "thai", "title": "Thai"}], "rating": 5.0, "coordinates": {"latitude": 33.04551, "longitude": -117.29345}, "transactions": ["delivery", "pickup"], "location": {"address1": "527 S Coast Hwy 101", "address2": "", "address3": null, "city": "Encinitas", "zip_code": "92024", "country": "US", "state": "CA", "display_address": ["527 S Coast Hwy 101", "Encinitas, CA 92024"]}, "phone": "+17604871488", "display_phone": "(760) 487-1488", "distance": 3954.0667634594747}, {"id": "8NUh_LYFzovyPAH28sLncA", "alias": "one2go-thai-kitchen-encinitas-3", "name": "One2Go Thai Kitchen", "image_url": "https://s3-media2.fl.yelpcdn.com/bphoto/3oW-iGyPt8cR5DEI2EtIAg/o.jpg", "is_closed": false, "url": "https://www.yelp.com/biz/one2go-thai-kitchen-encinitas-3?adjust_creative=oncXGL2aPIKrtJdnWeFSnA&utm_campaign=yelp_api_v3&utm_medium=api_v3_business_search&utm_source=oncXGL2aPIKrtJdnWeFSnA", "review_count": 122, "categories": [{"alias": "thai", "title": "Thai"}, {"alias": "bubbletea", "title": "Bubble Tea"}], "rating": 4.0, "coordinates": {"latitude": 33.04923, "longitude": -117.25926}, "transactions": ["delivery", "pickup"], "price": "$$", "location": {"address1": "191 N El Camino Real", "address2": "Ste 110", "address3": "", "city": "Encinitas", "zip_code": "92024", "country": "US", "state": "CA", "display_address": ["191 N El Camino Real", "Ste 110", "Encinitas, CA 92024"]}, "phone": "+17603345555", "display_phone": "(760) 334-5555", "distance": 761.7201075566287}, {"id": "SDv30y573hEIby0MojH7cg", "alias": "birdseye-kitchen-encinitas", "name": "Birdseye Kitchen", "image_url": "https://s3-media1.fl.yelpcdn.com/bphoto/cVy-x0Z7y7izRk3FJFFxLw/o.jpg", "is_closed": false, "url": "https://www.yelp.com/biz/birdseye-kitchen-encinitas?adjust_creative=oncXGL2aPIKrtJdnWeFSnA&utm_campaign=yelp_api_v3&utm_medium=api_v3_business_search&utm_source=oncXGL2aPIKrtJdnWeFSnA", "review_count": 344, "categories": [{"alias": "vietnamese", "title": "Vietnamese"}, {"alias": "thai", "title": "Thai"}, {"alias": "asianfusion", "title": "Asian Fusion"}], "rating": 4.0, "coordinates": {"latitude": 33.0591018255092, "longitude": -117.300049330005}, "transactions": [], "price": "$$", "location": {"address1": "540 N Coast Hwy 101", "address2": "", "address3": "", "city": "Encinitas", "zip_code": "92024", "country": "US", "state": "CA", "display_address": ["540 N Coast Hwy 101", "Encinitas, CA 92024"]}, "phone": "+17604790488", "display_phone": "(760) 479-0488", "distance": 4600.798756308027}, {"id": "CDwXGkxQAnnn0zIbVTGiHg", "alias": "thai-society-encinitas", "name": "Thai Society", "image_url": "https://s3-media1.fl.yelpcdn.com/bphoto/D7JIzavcxmpHuDZWa0ePEQ/o.jpg", "is_closed": false, "url": "https://www.yelp.com/biz/thai-society-encinitas?adjust_creative=oncXGL2aPIKrtJdnWeFSnA&utm_campaign=yelp_api_v3&utm_medium=api_v3_business_search&utm_source=oncXGL2aPIKrtJdnWeFSnA", "review_count": 309, "categories": [{"alias": "thai", "title": "Thai"}, {"alias": "salad", "title": "Salad"}, {"alias": "soup", "title": "Soup"}], "rating": 3.5, "coordinates": {"latitude": 33.0669937133789, "longitude": -117.263328552246}, "transactions": [], "price": "$$", "location": {"address1": "1070 N El Camino Real", "address2": "Ste B", "address3": "", "city": "Encinitas", "zip_code": "92024", "country": "US", "state": "CA", "display_address": ["1070 N El Camino Real", "Ste B", "Encinitas, CA 92024"]}, "phone": "+17606328770", "display_phone": "(760) 632-8770", "distance": 2077.703223218509}, {"id": "TdGtWLjZ-y760XOnBLic5w", "alias": "thai-pan-cuisine-encinitas", "name": "Thai Pan Cuisine", "image_url": "https://s3-media2.fl.yelpcdn.com/bphoto/PN_uhSdo62TMjiHpM1vy-g/o.jpg", "is_closed": false, "url": "https://www.yelp.com/biz/thai-pan-cuisine-encinitas?adjust_creative=oncXGL2aPIKrtJdnWeFSnA&utm_campaign=yelp_api_v3&utm_medium=api_v3_business_search&utm_source=oncXGL2aPIKrtJdnWeFSnA", "review_count": 315, "categories": [{"alias": "thai", "title": "Thai"}], "rating": 3.5, "coordinates": {"latitude": 33.047660832662, "longitude": -117.26129311919}, "transactions": [], "price": "$$", "location": {"address1": "138 N El Camino Real", "address2": "", "address3": "", "city": "Encinitas", "zip_code": "92024", "country": "US", "state": "CA", "display_address": ["138 N El Camino Real", "Encinitas, CA 92024"]}, "phone": "+17606328800", "display_phone": "(760) 632-8800", "distance": 987.4782618389604}, {"id": "hjHGY1WtFPGVpzykxhTcUA", "alias": "thai-pan-encinitas", "name": "Thai Pan", "image_url": "https://s3-media4.fl.yelpcdn.com/bphoto/sSyd30lhjkHr-xK2hlMqgA/o.jpg", "is_closed": false, "url": "https://www.yelp.com/biz/thai-pan-encinitas?adjust_creative=oncXGL2aPIKrtJdnWeFSnA&utm_campaign=yelp_api_v3&utm_medium=api_v3_business_search&utm_source=oncXGL2aPIKrtJdnWeFSnA", "review_count": 12, "categories": [{"alias": "thai", "title": "Thai"}], "rating": 3.5, "coordinates": {"latitude": 33.047828213769, "longitude": -117.260795945448}, "transactions": [], "price": "$", "location": {"address1": "El Camino Real", "address2": "", "address3": "", "city": "Encinitas", "zip_code": "92024", "country": "US", "state": "CA", "display_address": ["El Camino Real", "Encinitas, CA 92024"]}, "phone": "", "display_phone": "", "distance": 937.565669718095}], "total": 6}