{"businesses": [{"id": "c7PEqvKDBcoT2azcNbctFw", "alias": "oc-armenian-center-santa-ana", "name": "OC Armenian Center", "image_url": "", "is_closed": false, "url": "https://www.yelp.com/biz/oc-armenian-center-santa-ana?adjust_creative=oncXGL2aPIKrtJdnWeFSnA&utm_campaign=yelp_api_v3&utm_medium=api_v3_business_search&utm_source=oncXGL2aPIKrtJdnWeFSnA", "review_count": 2, "categories": [{"alias": "armenian", "title": "Armenian"}], "rating": 5.0, "coordinates": {"latitude": 33.73886, "longitude": -117.93802}, "transactions": [], "location": {"address1": "5305 W McFadden Ave", "address2": "", "address3": null, "city": "Santa Ana", "zip_code": "92704", "country": "US", "state": "CA", "display_address": ["5305 W McFadden Ave", "Santa Ana, CA 92704"]}, "phone": "+17148395858", "display_phone": "(714) 839-5858", "distance": 91283.09946452595}, {"id": "HqzSKY6L0Ngqju5vNsuKRw", "alias": "mamas-kabab-stanton", "name": "Mama's Kabab", "image_url": "https://s3-media3.fl.yelpcdn.com/bphoto/8dbjP_LRIeauPL_2APEx6A/o.jpg", "is_closed": false, "url": "https://www.yelp.com/biz/mamas-kabab-stanton?adjust_creative=oncXGL2aPIKrtJdnWeFSnA&utm_campaign=yelp_api_v3&utm_medium=api_v3_business_search&utm_source=oncXGL2aPIKrtJdnWeFSnA", "review_count": 487, "categories": [{"alias": "armenian", "title": "Armenian"}, {"alias": "mediterranean", "title": "Mediterranean"}, {"alias": "mideastern", "title": "Middle Eastern"}], "rating": 4.5, "coordinates": {"latitude": 33.802991732955, "longitude": -118.010370433331}, "transactions": ["pickup", "delivery"], "price": "$", "location": {"address1": "7027 Katella Ave", "address2": null, "address3": "", "city": "Stanton", "zip_code": "90680", "country": "US", "state": "CA", "display_address": ["7027 Katella Ave", "Stanton, CA 90680"]}, "phone": "+17142290100", "display_phone": "(714) 229-0100", "distance": 101074.88253807815}], "total": 2, "region": {"center": {"longitude": -117.28866577148438, "latitude": 33.12198326621279}}}