{"businesses": [{"id": "p48RoXvB6So_VT7t3VJUbA", "alias": "harumama-carlsbad-carlsbad-4", "name": "Harumama Carlsbad", "image_url": "https://s3-media3.fl.yelpcdn.com/bphoto/fj0eI7Pt4tk5agxcSVI6xg/o.jpg", "is_closed": false, "url": "https://www.yelp.com/biz/harumama-carlsbad-carlsbad-4?adjust_creative=oncXGL2aPIKrtJdnWeFSnA&utm_campaign=yelp_api_v3&utm_medium=api_v3_business_search&utm_source=oncXGL2aPIKrtJdnWeFSnA", "review_count": 5, "categories": [{"alias": "ramen", "title": "Ramen"}, {"alias": "asianfusion", "title": "Asian Fusion"}], "rating": 5.0, "coordinates": {"latitude": 33.16156, "longitude": -117.34686}, "transactions": [], "location": {"address1": "2958 Madison St", "address2": "", "address3": null, "city": "Carlsbad", "zip_code": "92008", "country": "US", "state": "CA", "display_address": ["2958 Madison St", "Carlsbad, CA 92008"]}, "phone": "+17607207874", "display_phone": "(760) 720-7874", "distance": 2759.3487525610785}, {"id": "nrqFHR5sjvXKKC2BtzR3gA", "alias": "blue-ocean-robata-and-sushi-bar-carlsbad-2", "name": "Blue Ocean Robata & Sushi Bar", "image_url": "https://s3-media3.fl.yelpcdn.com/bphoto/w1niqsSE0i5Oo7TJSWiO1g/o.jpg", "is_closed": false, "url": "https://www.yelp.com/biz/blue-ocean-robata-and-sushi-bar-carlsbad-2?adjust_creative=oncXGL2aPIKrtJdnWeFSnA&utm_campaign=yelp_api_v3&utm_medium=api_v3_business_search&utm_source=oncXGL2aPIKrtJdnWeFSnA", "review_count": 902, "categories": [{"alias": "asianfusion", "title": "Asian Fusion"}, {"alias": "sushi", "title": "Sushi Bars"}], "rating": 4.0, "coordinates": {"latitude": 33.1614177, "longitude": -117.3468266}, "transactions": [], "price": "$$", "location": {"address1": "2958 Madison St", "address2": "", "address3": "", "city": "Carlsbad", "zip_code": "92008", "country": "US", "state": "CA", "display_address": ["2958 Madison St", "Carlsbad, CA 92008"]}, "phone": "+17604344959", "display_phone": "(760) 434-4959", "distance": 2756.86371928365}, {"id": "Hqk7azstDh8NpBMXOTEwhw", "alias": "j-box-carlsbad", "name": "J BOX", "image_url": "https://s3-media2.fl.yelpcdn.com/bphoto/h81ddL3qvvs6QnZvjI5QUw/o.jpg", "is_closed": false, "url": "https://www.yelp.com/biz/j-box-carlsbad?adjust_creative=oncXGL2aPIKrtJdnWeFSnA&utm_campaign=yelp_api_v3&utm_medium=api_v3_business_search&utm_source=oncXGL2aPIKrtJdnWeFSnA", "review_count": 89, "categories": [{"alias": "japanese", "title": "Japanese"}, {"alias": "asianfusion", "title": "Asian Fusion"}, {"alias": "korean", "title": "Korean"}], "rating": 4.0, "coordinates": {"latitude": 33.1347745768318, "longitude": -117.287347264279}, "transactions": [], "price": "$$", "location": {"address1": "5814 Van Allen Way", "address2": "Ste 135", "address3": "", "city": "Carlsbad", "zip_code": "92008", "country": "US", "state": "CA", "display_address": ["5814 Van Allen Way", "Ste 135", "Carlsbad, CA 92008"]}, "phone": "+17604310056", "display_phone": "(760) 431-0056", "distance": 3526.1409716927346}, {"id": "s6scKVmZ-PWs77o7yUNsuQ", "alias": "p-f-changs-carlsbad", "name": "P.F. Chang's", "image_url": "https://s3-media2.fl.yelpcdn.com/bphoto/uqbj13Dt3uIB5GVd_Cpldw/o.jpg", "is_closed": false, "url": "https://www.yelp.com/biz/p-f-changs-carlsbad?adjust_creative=oncXGL2aPIKrtJdnWeFSnA&utm_campaign=yelp_api_v3&utm_medium=api_v3_business_search&utm_source=oncXGL2aPIKrtJdnWeFSnA", "review_count": 441, "categories": [{"alias": "chinese", "title": "Chinese"}, {"alias": "asianfusion", "title": "Asian Fusion"}, {"alias": "gluten_free", "title": "Gluten-Free"}], "rating": 3.0, "coordinates": {"latitude": 33.1251713786098, "longitude": -117.322928294477}, "transactions": ["delivery", "pickup"], "price": "$$", "location": {"address1": "5621 Paseo Del Norte", "address2": "", "address3": "", "city": "Carlsbad", "zip_code": "92008", "country": "US", "state": "CA", "display_address": ["5621 Paseo Del Norte", "Carlsbad, CA 92008"]}, "phone": "+17607950595", "display_phone": "(760) 795-0595", "distance": 2824.8111372184094}, {"id": "WDd-W00FnJv4Q01JSNWb-Q", "alias": "super-sushi-carlsbad-4", "name": "Super Sushi", "image_url": "https://s3-media2.fl.yelpcdn.com/bphoto/M78mp2hgkXVuN1-fDc__Xw/o.jpg", "is_closed": false, "url": "https://www.yelp.com/biz/super-sushi-carlsbad-4?adjust_creative=oncXGL2aPIKrtJdnWeFSnA&utm_campaign=yelp_api_v3&utm_medium=api_v3_business_search&utm_source=oncXGL2aPIKrtJdnWeFSnA", "review_count": 206, "categories": [{"alias": "sushi", "title": "Sushi Bars"}, {"alias": "asianfusion", "title": "Asian Fusion"}, {"alias": "ramen", "title": "Ramen"}], "rating": 4.0, "coordinates": {"latitude": 33.1766161322594, "longitude": -117.338841184974}, "transactions": ["delivery", "pickup"], "price": "$$", "location": {"address1": "1854 Marron Rd", "address2": "", "address3": "", "city": "Carlsbad", "zip_code": "92008", "country": "US", "state": "CA", "display_address": ["1854 Marron Rd", "Carlsbad, CA 92008"]}, "phone": "+17607295888", "display_phone": "(760) 729-5888", "distance": 3414.246923584093}, {"id": "AQ8gXL1-u57FkIUK89M7Kg", "alias": "pick-up-stix-carlsbad-8", "name": "Pick Up Stix", "image_url": "https://s3-media1.fl.yelpcdn.com/bphoto/bNL_eeSQixsRP9Tu_kzGlA/o.jpg", "is_closed": false, "url": "https://www.yelp.com/biz/pick-up-stix-carlsbad-8?adjust_creative=oncXGL2aPIKrtJdnWeFSnA&utm_campaign=yelp_api_v3&utm_medium=api_v3_business_search&utm_source=oncXGL2aPIKrtJdnWeFSnA", "review_count": 65, "categories": [{"alias": "chinese", "title": "Chinese"}, {"alias": "asianfusion", "title": "Asian Fusion"}], "rating": 3.0, "coordinates": {"latitude": 33.1003341674805, "longitude": -117.311668395996}, "transactions": ["delivery", "pickup"], "price": "$", "location": {"address1": "7150 Avenida Encinas", "address2": "Ste 102", "address3": "", "city": "Carlsbad", "zip_code": "92011", "country": "US", "state": "CA", "display_address": ["7150 Avenida Encinas", "Ste 102", "Carlsbad, CA 92011"]}, "phone": "+17606021077", "display_phone": "(760) 602-1077", "distance": 5637.390501889635}, {"id": "bwu_8ScPI7H9EW89-C1NLA", "alias": "pick-up-stix-carlsbad-4", "name": "Pick Up Stix", "image_url": "https://s3-media3.fl.yelpcdn.com/bphoto/Xkl0gzPtIxojJ0vkalFiQw/o.jpg", "is_closed": false, "url": "https://www.yelp.com/biz/pick-up-stix-carlsbad-4?adjust_creative=oncXGL2aPIKrtJdnWeFSnA&utm_campaign=yelp_api_v3&utm_medium=api_v3_business_search&utm_source=oncXGL2aPIKrtJdnWeFSnA", "review_count": 69, "categories": [{"alias": "asianfusion", "title": "Asian Fusion"}, {"alias": "chinese", "title": "Chinese"}], "rating": 3.5, "coordinates": {"latitude": 33.12669, "longitude": -117.25386}, "transactions": ["delivery", "pickup"], "price": "$", "location": {"address1": "2641 Gateway Rd", "address2": "Ste 101", "address3": "", "city": "Carlsbad", "zip_code": "92009", "country": "US", "state": "CA", "display_address": ["2641 Gateway Rd", "Ste 101", "Carlsbad, CA 92009"]}, "phone": "+17608041301", "display_phone": "(760) 804-1301", "distance": 6690.340550883705}], "total": 7}