{"businesses": [{"id": "bo_MkHA5nc6jkBDDQjhVxQ", "alias": "one-love-island-cuisine-oceanside", "name": "One Love Island Cuisine", "image_url": "https://s3-media3.fl.yelpcdn.com/bphoto/iwp1eSLGrQe64ePCF9sGEA/o.jpg", "is_closed": false, "url": "https://www.yelp.com/biz/one-love-island-cuisine-oceanside?adjust_creative=oncXGL2aPIKrtJdnWeFSnA&utm_campaign=yelp_api_v3&utm_medium=api_v3_business_search&utm_source=oncXGL2aPIKrtJdnWeFSnA", "review_count": 311, "categories": [{"alias": "caribbean", "title": "Caribbean"}, {"alias": "bbq", "title": "Barbeque"}, {"alias": "seafood", "title": "Seafood"}], "rating": 4.5, "coordinates": {"latitude": 33.207439, "longitude": -117.2833753}, "transactions": ["pickup"], "price": "$", "location": {"address1": "4225 Oceanside Blvd", "address2": "Ste K", "address3": "", "city": "Oceanside", "zip_code": "92056", "country": "US", "state": "CA", "display_address": ["4225 Oceanside Blvd", "Ste K", "Oceanside, CA 92056"]}, "phone": "+17606854618", "display_phone": "(760) 685-4618", "distance": 9436.536410439716}, {"id": "3XXpsHCrQfkCP6_Po1nA0A", "alias": "mozy-cafe-encinitas", "name": "Mozy Cafe", "image_url": "https://s3-media2.fl.yelpcdn.com/bphoto/kosP7unGr5vn_4oQ9sjGZA/o.jpg", "is_closed": false, "url": "https://www.yelp.com/biz/mozy-cafe-encinitas?adjust_creative=oncXGL2aPIKrtJdnWeFSnA&utm_campaign=yelp_api_v3&utm_medium=api_v3_business_search&utm_source=oncXGL2aPIKrtJdnWeFSnA", "review_count": 397, "categories": [{"alias": "caribbean", "title": "Caribbean"}, {"alias": "mexican", "title": "Mexican"}, {"alias": "breakfast_brunch", "title": "Breakfast & Brunch"}], "rating": 4.0, "coordinates": {"latitude": 33.0616172521144, "longitude": -117.30148519266}, "transactions": [], "price": "$", "location": {"address1": "698 N Coast Hwy 101", "address2": "", "address3": "", "city": "Encinitas", "zip_code": "92024", "country": "US", "state": "CA", "display_address": ["698 N Coast Hwy 101", "Encinitas, CA 92024"]}, "phone": "+17609449168", "display_phone": "(760) 944-9168", "distance": 6817.7965015169975}, {"id": "zN6mWxcrik-wDxrDmqAPLg", "alias": "puertorican-fusion-grill-encinitas", "name": "Puertorican Fusion Grill", "image_url": "https://s3-media2.fl.yelpcdn.com/bphoto/U9eBR-ossyya5iuwDiLKmg/o.jpg", "is_closed": false, "url": "https://www.yelp.com/biz/puertorican-fusion-grill-encinitas?adjust_creative=oncXGL2aPIKrtJdnWeFSnA&utm_campaign=yelp_api_v3&utm_medium=api_v3_business_search&utm_source=oncXGL2aPIKrtJdnWeFSnA", "review_count": 1, "categories": [{"alias": "streetvendors", "title": "Street Vendors"}, {"alias": "puertorican", "title": "Puerto Rican"}, {"alias": "food_court", "title": "Food Court"}], "rating": 5.0, "coordinates": {"latitude": 33.06844, "longitude": -117.26446}, "transactions": [], "location": {"address1": "1580 Leucadia Blvd", "address2": "", "address3": null, "city": "Encinitas", "zip_code": "92024", "country": "US", "state": "CA", "display_address": ["1580 Leucadia Blvd", "Encinitas, CA 92024"]}, "phone": "+17606341002", "display_phone": "(760) 634-1002", "distance": 6379.409828446937}, {"id": "ZVIYF78mykOlT5jDSpPWKA", "alias": "da-big-show-bbq-oceanside", "name": "Da Big Show BBQ", "image_url": "https://s3-media2.fl.yelpcdn.com/bphoto/lsNgp5RcqrnVJS3ysR_tVA/o.jpg", "is_closed": false, "url": "https://www.yelp.com/biz/da-big-show-bbq-oceanside?adjust_creative=oncXGL2aPIKrtJdnWeFSnA&utm_campaign=yelp_api_v3&utm_medium=api_v3_business_search&utm_source=oncXGL2aPIKrtJdnWeFSnA", "review_count": 4, "categories": [{"alias": "bbq", "title": "Barbeque"}, {"alias": "caribbean", "title": "Caribbean"}, {"alias": "foodtrucks", "title": "Food Trucks"}], "rating": 5.0, "coordinates": {"latitude": 33.18951, "longitude": -117.37193}, "transactions": [], "location": {"address1": "", "address2": "", "address3": null, "city": "Oceanside", "zip_code": "92054", "country": "US", "state": "CA", "display_address": ["Oceanside, CA 92054"]}, "phone": "+16198529129", "display_phone": "(619) 852-9129", "distance": 10736.893231316282}, {"id": "-4xXAT3x_AeBrbD9kfAoSA", "alias": "havana-kitchen-temecula-2", "name": "Havana Kitchen", "image_url": "https://s3-media2.fl.yelpcdn.com/bphoto/YcVVg1h0d-5lmEVUVg8t8A/o.jpg", "is_closed": false, "url": "https://www.yelp.com/biz/havana-kitchen-temecula-2?adjust_creative=oncXGL2aPIKrtJdnWeFSnA&utm_campaign=yelp_api_v3&utm_medium=api_v3_business_search&utm_source=oncXGL2aPIKrtJdnWeFSnA", "review_count": 1456, "categories": [{"alias": "cuban", "title": "Cuban"}, {"alias": "coffee", "title": "Coffee & Tea"}, {"alias": "caribbean", "title": "Caribbean"}], "rating": 4.5, "coordinates": {"latitude": 33.4951128473868, "longitude": -117.1503308073}, "transactions": ["pickup"], "price": "$$", "location": {"address1": "41955 5th St", "address2": "Ste 101", "address3": "", "city": "Temecula", "zip_code": "92590", "country": "US", "state": "CA", "display_address": ["41955 5th St", "Ste 101", "Temecula, CA 92590"]}, "phone": "+19516997300", "display_phone": "(951) 699-7300", "distance": 43435.94923838535}, {"id": "BNKrRIjY-WHU1qjzvOL8Mw", "alias": "miss-bs-coconut-club-san-diego", "name": "Miss B's Coconut Club", "image_url": "https://s3-media3.fl.yelpcdn.com/bphoto/Px-ghEDTMvYMGE05pafivw/o.jpg", "is_closed": false, "url": "https://www.yelp.com/biz/miss-bs-coconut-club-san-diego?adjust_creative=oncXGL2aPIKrtJdnWeFSnA&utm_campaign=yelp_api_v3&utm_medium=api_v3_business_search&utm_source=oncXGL2aPIKrtJdnWeFSnA", "review_count": 445, "categories": [{"alias": "caribbean", "title": "Caribbean"}, {"alias": "bars", "title": "Bars"}, {"alias": "breakfast_brunch", "title": "Breakfast & Brunch"}], "rating": 4.0, "coordinates": {"latitude": 32.78266, "longitude": -117.25274}, "transactions": [], "price": "$$", "location": {"address1": "3704 Mission Blvd", "address2": null, "address3": "", "city": "San Diego", "zip_code": "92109", "country": "US", "state": "CA", "display_address": ["3704 Mission Blvd", "San Diego, CA 92109"]}, "phone": "+18583810855", "display_phone": "(858) 381-0855", "distance": 37876.74478910325}, {"id": "JeV7NP5apmLwlEzAICJgZA", "alias": "embargo-grill-san-diego", "name": "Embargo Grill", "image_url": "https://s3-media3.fl.yelpcdn.com/bphoto/br4vpLdgXThsUZIrzlmExA/o.jpg", "is_closed": false, "url": "https://www.yelp.com/biz/embargo-grill-san-diego?adjust_creative=oncXGL2aPIKrtJdnWeFSnA&utm_campaign=yelp_api_v3&utm_medium=api_v3_business_search&utm_source=oncXGL2aPIKrtJdnWeFSnA", "review_count": 1836, "categories": [{"alias": "caribbean", "title": "Caribbean"}, {"alias": "cuban", "title": "Cuban"}, {"alias": "latin", "title": "Latin American"}], "rating": 4.5, "coordinates": {"latitude": 32.7551901, "longitude": -117.2220253}, "transactions": ["delivery"], "price": "$", "location": {"address1": "3960 W Point Loma Blvd", "address2": null, "address3": "", "city": "San Diego", "zip_code": "92110", "country": "US", "state": "CA", "display_address": ["3960 W Point Loma Blvd", "San Diego, CA 92110"]}, "phone": "+16197867522", "display_phone": "(619) 786-7522", "distance": 41256.894588736424}, {"id": "E1u4hVrLU-TIRpWta4uXSA", "alias": "world-beat-cafe-san-diego", "name": "World Beat Cafe", "image_url": "https://s3-media1.fl.yelpcdn.com/bphoto/ShoqitDhegJwZ30PeFHPvA/o.jpg", "is_closed": false, "url": "https://www.yelp.com/biz/world-beat-cafe-san-diego?adjust_creative=oncXGL2aPIKrtJdnWeFSnA&utm_campaign=yelp_api_v3&utm_medium=api_v3_business_search&utm_source=oncXGL2aPIKrtJdnWeFSnA", "review_count": 33, "categories": [{"alias": "caribbean", "title": "Caribbean"}, {"alias": "vegan", "title": "Vegan"}, {"alias": "soulfood", "title": "Soul Food"}], "rating": 5.0, "coordinates": {"latitude": 32.727417, "longitude": -117.1484528}, "transactions": [], "price": "$", "location": {"address1": "2100 Park Blvd", "address2": null, "address3": null, "city": "San Diego", "zip_code": "92101", "country": "US", "state": "CA", "display_address": ["2100 Park Blvd", "San Diego, CA 92101"]}, "phone": "+16192301190", "display_phone": "(619) 230-1190", "distance": 45778.10830601597}, {"id": "vCuzbkelTakBh3hlKm5fnA", "alias": "jamaican-jerk-hut-san-diego-2", "name": "Jamaican Jerk Hut", "image_url": "https://s3-media2.fl.yelpcdn.com/bphoto/RBYRdtEm2SPl07WaidLbTw/o.jpg", "is_closed": false, "url": "https://www.yelp.com/biz/jamaican-jerk-hut-san-diego-2?adjust_creative=oncXGL2aPIKrtJdnWeFSnA&utm_campaign=yelp_api_v3&utm_medium=api_v3_business_search&utm_source=oncXGL2aPIKrtJdnWeFSnA", "review_count": 18, "categories": [{"alias": "foodstands", "title": "Food Stands"}, {"alias": "caribbean", "title": "Caribbean"}], "rating": 5.0, "coordinates": {"latitude": 32.93266, "longitude": -117.08991}, "transactions": [], "price": "$", "location": {"address1": "", "address2": null, "address3": "", "city": "San Diego", "zip_code": "92131", "country": "US", "state": "CA", "display_address": ["San Diego, CA 92131"]}, "phone": "+16195175340", "display_phone": "(619) 517-5340", "distance": 32739.414767759896}, {"id": "5V89wU3GgYckxQeZau57QA", "alias": "evas-a-caribbean-kitchen-laguna-beach", "name": "Eva's-A Caribbean Kitchen", "image_url": "https://s3-media4.fl.yelpcdn.com/bphoto/I-5jRJ8fzzN88gWZqMWUXw/o.jpg", "is_closed": false, "url": "https://www.yelp.com/biz/evas-a-caribbean-kitchen-laguna-beach?adjust_creative=oncXGL2aPIKrtJdnWeFSnA&utm_campaign=yelp_api_v3&utm_medium=api_v3_business_search&utm_source=oncXGL2aPIKrtJdnWeFSnA", "review_count": 750, "categories": [{"alias": "caribbean", "title": "Caribbean"}, {"alias": "seafood", "title": "Seafood"}], "rating": 4.5, "coordinates": {"latitude": 33.501776, "longitude": -117.743908}, "transactions": [], "price": "$$", "location": {"address1": "31732 S Pacific Coast Hwy", "address2": "", "address3": "", "city": "Laguna Beach", "zip_code": "92651", "country": "US", "state": "CA", "display_address": ["31732 S Pacific Coast Hwy", "Laguna Beach, CA 92651"]}, "phone": "+19494996311", "display_phone": "(949) 499-6311", "distance": 59774.62091135927}, {"id": "jevw1yLTN0IylksPG8_HOA", "alias": "tropical-savor-bar-and-grill-san-diego", "name": "Tropical Savor Bar & Grill", "image_url": "https://s3-media1.fl.yelpcdn.com/bphoto/ZeWKshSRKgD8yYaQ3qEkFg/o.jpg", "is_closed": false, "url": "https://www.yelp.com/biz/tropical-savor-bar-and-grill-san-diego?adjust_creative=oncXGL2aPIKrtJdnWeFSnA&utm_campaign=yelp_api_v3&utm_medium=api_v3_business_search&utm_source=oncXGL2aPIKrtJdnWeFSnA", "review_count": 134, "categories": [{"alias": "dominican", "title": "Dominican"}, {"alias": "cuban", "title": "Cuban"}], "rating": 4.0, "coordinates": {"latitude": 32.7130680975872, "longitude": -117.161006557289}, "transactions": ["pickup", "delivery"], "price": "$$", "location": {"address1": "729 4th Ave", "address2": null, "address3": "", "city": "San Diego", "zip_code": "92101", "country": "US", "state": "CA", "display_address": ["729 4th Ave", "San Diego, CA 92101"]}, "phone": "+16192289385", "display_phone": "(619) 228-9385", "distance": 47010.17813447865}, {"id": "1Or_sE6FcqK9_IXwr5W72Q", "alias": "laylahs-jamaican-food-san-diego-2", "name": "Laylah's Jamaican Food", "image_url": "https://s3-media2.fl.yelpcdn.com/bphoto/7CU1vK0JQ_Y_4k0xaQxe4Q/o.jpg", "is_closed": false, "url": "https://www.yelp.com/biz/laylahs-jamaican-food-san-diego-2?adjust_creative=oncXGL2aPIKrtJdnWeFSnA&utm_campaign=yelp_api_v3&utm_medium=api_v3_business_search&utm_source=oncXGL2aPIKrtJdnWeFSnA", "review_count": 104, "categories": [{"alias": "caribbean", "title": "Caribbean"}], "rating": 4.0, "coordinates": {"latitude": 32.6927624, "longitude": -117.1259925}, "transactions": ["pickup"], "price": "$$", "location": {"address1": "3160 Main St", "address2": null, "address3": "", "city": "San Diego", "zip_code": "92113", "country": "US", "state": "CA", "display_address": ["3160 Main St", "San Diego, CA 92113"]}, "phone": "+16192695937", "display_phone": "(619) 269-5937", "distance": 50084.879119235724}, {"id": "_y_aUOEw3DiqHzJfGwpk1w", "alias": "caribbean-escape-san-diego", "name": "Caribbean Escape", "image_url": "https://s3-media4.fl.yelpcdn.com/bphoto/bInVfm3GRY5vkG8cZrW9yA/o.jpg", "is_closed": false, "url": "https://www.yelp.com/biz/caribbean-escape-san-diego?adjust_creative=oncXGL2aPIKrtJdnWeFSnA&utm_campaign=yelp_api_v3&utm_medium=api_v3_business_search&utm_source=oncXGL2aPIKrtJdnWeFSnA", "review_count": 34, "categories": [{"alias": "caribbean", "title": "Caribbean"}], "rating": 4.0, "coordinates": {"latitude": 32.77273, "longitude": -117.2511}, "transactions": [], "price": "$", "location": {"address1": "3231 Mission Blvd", "address2": "", "address3": "", "city": "San Diego", "zip_code": "92109", "country": "US", "state": "CA", "display_address": ["3231 Mission Blvd", "San Diego, CA 92109"]}, "phone": "+18589990419", "display_phone": "(858) 999-0419", "distance": 38986.877412960304}, {"id": "if332Kwh1fMekDI5-q7o7A", "alias": "andr\u00e9s-restaurant-san-diego-3", "name": "Andr\u00e9s Restaurant", "image_url": "https://s3-media4.fl.yelpcdn.com/bphoto/YCvW8Zc1r2hnu0-2AldTUw/o.jpg", "is_closed": false, "url": "https://www.yelp.com/biz/andr%C3%A9s-restaurant-san-diego-3?adjust_creative=oncXGL2aPIKrtJdnWeFSnA&utm_campaign=yelp_api_v3&utm_medium=api_v3_business_search&utm_source=oncXGL2aPIKrtJdnWeFSnA", "review_count": 519, "categories": [{"alias": "cuban", "title": "Cuban"}, {"alias": "latin", "title": "Latin American"}, {"alias": "caribbean", "title": "Caribbean"}], "rating": 3.5, "coordinates": {"latitude": 32.77059, "longitude": -117.20147}, "transactions": ["pickup", "delivery"], "price": "$$", "location": {"address1": "1235 Morena Blvd", "address2": "", "address3": "", "city": "San Diego", "zip_code": "92110", "country": "US", "state": "CA", "display_address": ["1235 Morena Blvd", "San Diego, CA 92110"]}, "phone": "+16192754114", "display_phone": "(619) 275-4114", "distance": 39903.71637146731}, {"id": "sbBF60ESYFM1VdbDtfvzQA", "alias": "caribbean-taste-san-diego", "name": "Caribbean Taste", "image_url": "https://s3-media2.fl.yelpcdn.com/bphoto/LNBMszKg3va7wgAfSk6gVQ/o.jpg", "is_closed": false, "url": "https://www.yelp.com/biz/caribbean-taste-san-diego?adjust_creative=oncXGL2aPIKrtJdnWeFSnA&utm_campaign=yelp_api_v3&utm_medium=api_v3_business_search&utm_source=oncXGL2aPIKrtJdnWeFSnA", "review_count": 193, "categories": [{"alias": "caribbean", "title": "Caribbean"}, {"alias": "seafood", "title": "Seafood"}, {"alias": "breakfast_brunch", "title": "Breakfast & Brunch"}], "rating": 4.5, "coordinates": {"latitude": 32.70948, "longitude": -117.0633}, "transactions": [], "price": "$$", "location": {"address1": "6171 Imperial Ave", "address2": "", "address3": "", "city": "San Diego", "zip_code": "92114", "country": "US", "state": "CA", "display_address": ["6171 Imperial Ave", "San Diego, CA 92114"]}, "phone": "+16197951772", "display_phone": "(619) 795-1772", "distance": 50418.31841370805}, {"id": "79UWKb1YZt26GwpCK6MyGg", "alias": "rock-steady-jamaican-restaurant-san-diego", "name": "Rock Steady Jamaican Restaurant", "image_url": "https://s3-media4.fl.yelpcdn.com/bphoto/FFWRJEu9gYwfY4hhLwFT7g/o.jpg", "is_closed": false, "url": "https://www.yelp.com/biz/rock-steady-jamaican-restaurant-san-diego?adjust_creative=oncXGL2aPIKrtJdnWeFSnA&utm_campaign=yelp_api_v3&utm_medium=api_v3_business_search&utm_source=oncXGL2aPIKrtJdnWeFSnA", "review_count": 181, "categories": [{"alias": "caribbean", "title": "Caribbean"}], "rating": 4.0, "coordinates": {"latitude": 32.71195, "longitude": -117.13332}, "transactions": ["pickup", "delivery"], "price": "$$", "location": {"address1": "2820 Market St", "address2": null, "address3": "", "city": "San Diego", "zip_code": "92102", "country": "US", "state": "CA", "display_address": ["2820 Market St", "San Diego, CA 92102"]}, "phone": "+16194315937", "display_phone": "(619) 431-5937", "distance": 47848.73187400275}, {"id": "1vxSeGTXC3V0hFvJM5zqJg", "alias": "bennys-on-the-go-san-diego", "name": "Benny's On The Go", "image_url": "https://s3-media3.fl.yelpcdn.com/bphoto/DRZ-wZTaJEGewJVSNZIItA/o.jpg", "is_closed": false, "url": "https://www.yelp.com/biz/bennys-on-the-go-san-diego?adjust_creative=oncXGL2aPIKrtJdnWeFSnA&utm_campaign=yelp_api_v3&utm_medium=api_v3_business_search&utm_source=oncXGL2aPIKrtJdnWeFSnA", "review_count": 47, "categories": [{"alias": "puertorican", "title": "Puerto Rican"}, {"alias": "empanadas", "title": "Empanadas"}, {"alias": "sandwiches", "title": "Sandwiches"}], "rating": 5.0, "coordinates": {"latitude": 32.71457, "longitude": -117.16145}, "transactions": ["pickup", "delivery"], "price": "$", "location": {"address1": "502 Horton Plz", "address2": "Ste A", "address3": "Mad House Comedy Club", "city": "San Diego", "zip_code": "92101", "country": "US", "state": "CA", "display_address": ["502 Horton Plz", "Ste A", "Mad House Comedy Club", "San Diego, CA 92101"]}, "phone": "+16194931156", "display_phone": "(619) 493-1156", "distance": 46915.64962979854}, {"id": "C83-XuqsZTbQNadsezc7nw", "alias": "ackee-tree-the-real-jamaican-cuisine-san-diego-2", "name": "Ackee Tree The Real Jamaican Cuisine", "image_url": "https://s3-media4.fl.yelpcdn.com/bphoto/THbllA5XAKIvSuVlK87vyw/o.jpg", "is_closed": false, "url": "https://www.yelp.com/biz/ackee-tree-the-real-jamaican-cuisine-san-diego-2?adjust_creative=oncXGL2aPIKrtJdnWeFSnA&utm_campaign=yelp_api_v3&utm_medium=api_v3_business_search&utm_source=oncXGL2aPIKrtJdnWeFSnA", "review_count": 79, "categories": [{"alias": "caribbean", "title": "Caribbean"}, {"alias": "soulfood", "title": "Soul Food"}, {"alias": "seafood", "title": "Seafood"}], "rating": 4.5, "coordinates": {"latitude": 32.7589172, "longitude": -117.0733556}, "transactions": ["pickup", "delivery"], "price": "$$", "location": {"address1": "5712 El Cajon Blvd", "address2": "", "address3": "", "city": "San Diego", "zip_code": "92115", "country": "US", "state": "CA", "display_address": ["5712 El Cajon Blvd", "San Diego, CA 92115"]}, "phone": "+16194506284", "display_phone": "(619) 450-6284", "distance": 45094.638897153796}, {"id": "-XVj5RAklZzdURR0Tx_-Gg", "alias": "by-the-beach-caribbean-cuisine-san-diego", "name": "By The Beach Caribbean Cuisine", "image_url": "https://s3-media3.fl.yelpcdn.com/bphoto/KDuMkvQ43BD07mdvLd5ybQ/o.jpg", "is_closed": false, "url": "https://www.yelp.com/biz/by-the-beach-caribbean-cuisine-san-diego?adjust_creative=oncXGL2aPIKrtJdnWeFSnA&utm_campaign=yelp_api_v3&utm_medium=api_v3_business_search&utm_source=oncXGL2aPIKrtJdnWeFSnA", "review_count": 1, "categories": [{"alias": "caribbean", "title": "Caribbean"}, {"alias": "bbq", "title": "Barbeque"}, {"alias": "foodstands", "title": "Food Stands"}], "rating": 4.0, "coordinates": {"latitude": 32.8771649662756, "longitude": -117.237356698791}, "transactions": [], "location": {"address1": "9500 Gilman Dr", "address2": "", "address3": "UCSD Farmers Market", "city": "San Diego", "zip_code": "92093", "country": "US", "state": "CA", "display_address": ["9500 Gilman Dr", "UCSD Farmers Market", "San Diego, CA 92093"]}, "phone": "+19513820224", "display_phone": "(951) 382-0224", "distance": 27108.796374853668}, {"id": "8lH74eEj5voHfmYP1S8nCA", "alias": "island-spice-san-diego", "name": "Island Spice", "image_url": "https://s3-media1.fl.yelpcdn.com/bphoto/t0KXoF4SlF1LxBWU4ehl4g/o.jpg", "is_closed": false, "url": "https://www.yelp.com/biz/island-spice-san-diego?adjust_creative=oncXGL2aPIKrtJdnWeFSnA&utm_campaign=yelp_api_v3&utm_medium=api_v3_business_search&utm_source=oncXGL2aPIKrtJdnWeFSnA", "review_count": 117, "categories": [{"alias": "caribbean", "title": "Caribbean"}], "rating": 4.0, "coordinates": {"latitude": 32.75271, "longitude": -117.06399}, "transactions": ["pickup"], "price": "$$", "location": {"address1": "6109 University Ave", "address2": "", "address3": "", "city": "San Diego", "zip_code": "92115", "country": "US", "state": "CA", "display_address": ["6109 University Ave", "San Diego, CA 92115"]}, "phone": "+16197029309", "display_phone": "(619) 702-9309", "distance": 46102.66701537749}, {"id": "dKRRBQQrBfUO6KUmXwOpQQ", "alias": "caribbean-pleasures-bonita", "name": "Caribbean Pleasures", "image_url": "https://s3-media3.fl.yelpcdn.com/bphoto/fVvltdJlqSKpTYMHEwMoxw/o.jpg", "is_closed": false, "url": "https://www.yelp.com/biz/caribbean-pleasures-bonita?adjust_creative=oncXGL2aPIKrtJdnWeFSnA&utm_campaign=yelp_api_v3&utm_medium=api_v3_business_search&utm_source=oncXGL2aPIKrtJdnWeFSnA", "review_count": 88, "categories": [{"alias": "cajun", "title": "Cajun/Creole"}, {"alias": "haitian", "title": "Haitian"}, {"alias": "bars", "title": "Bars"}], "rating": 3.0, "coordinates": {"latitude": 32.65806, "longitude": -117.0401}, "transactions": [], "price": "$$", "location": {"address1": "4014 Bonita Rd", "address2": null, "address3": "", "city": "Bonita", "zip_code": "91902", "country": "US", "state": "CA", "display_address": ["4014 Bonita Rd", "Bonita, CA 91902"]}, "phone": "+16194349252", "display_phone": "(619) 434-9252", "distance": 56565.174560065425}, {"id": "hiur8VsECv_Wk6guIFM0GQ", "alias": "carters-catering-and-event-planning-lemon-grove", "name": "Carter's Catering & Event Planning", "image_url": "https://s3-media2.fl.yelpcdn.com/bphoto/qnHFoTOpSI_3eS31j10yvQ/o.jpg", "is_closed": false, "url": "https://www.yelp.com/biz/carters-catering-and-event-planning-lemon-grove?adjust_creative=oncXGL2aPIKrtJdnWeFSnA&utm_campaign=yelp_api_v3&utm_medium=api_v3_business_search&utm_source=oncXGL2aPIKrtJdnWeFSnA", "review_count": 2, "categories": [{"alias": "trinidadian", "title": "Trinidadian"}, {"alias": "eventservices", "title": "Event Planning & Services"}], "rating": 4.5, "coordinates": {"latitude": 32.732743, "longitude": -117.033541}, "transactions": [], "location": {"address1": "Mount Vernon St", "address2": "Ste 112", "address3": "", "city": "Lemon Grove", "zip_code": "91945", "country": "US", "state": "CA", "display_address": ["Mount Vernon St", "Ste 112", "Lemon Grove, CA 91945"]}, "phone": "+16193728982", "display_phone": "(619) 372-8982", "distance": 49399.059189719614}, {"id": "_kYIucvTXmlg88d-Wgj-OQ", "alias": "la-luz-ultra-lounge-bonita", "name": "La Luz Ultra Lounge", "image_url": "https://s3-media4.fl.yelpcdn.com/bphoto/prKcYe1XaVeslOtOh89QHQ/o.jpg", "is_closed": false, "url": "https://www.yelp.com/biz/la-luz-ultra-lounge-bonita?adjust_creative=oncXGL2aPIKrtJdnWeFSnA&utm_campaign=yelp_api_v3&utm_medium=api_v3_business_search&utm_source=oncXGL2aPIKrtJdnWeFSnA", "review_count": 66, "categories": [{"alias": "danceclubs", "title": "Dance Clubs"}, {"alias": "caribbean", "title": "Caribbean"}, {"alias": "lounges", "title": "Lounges"}], "rating": 3.0, "coordinates": {"latitude": 32.670075, "longitude": -117.021123}, "transactions": [], "price": "$$", "location": {"address1": "5080 Bonita Rd", "address2": "Ste H", "address3": "", "city": "Bonita", "zip_code": "91902", "country": "US", "state": "CA", "display_address": ["5080 Bonita Rd", "Ste H", "Bonita, CA 91902"]}, "phone": "+16194722400", "display_phone": "(619) 472-2400", "distance": 56115.98900478366}, {"id": "XJ98IzbMqfEC6wiQz8TH1A", "alias": "mariscos-titos-tijuana", "name": "Mariscos Tito's", "image_url": "https://s3-media1.fl.yelpcdn.com/bphoto/9aN84oSxlZgu0o4OrwPy6w/o.jpg", "is_closed": false, "url": "https://www.yelp.com/biz/mariscos-titos-tijuana?adjust_creative=oncXGL2aPIKrtJdnWeFSnA&utm_campaign=yelp_api_v3&utm_medium=api_v3_business_search&utm_source=oncXGL2aPIKrtJdnWeFSnA", "review_count": 2, "categories": [{"alias": "caribbean", "title": "Caribbean"}, {"alias": "seafood", "title": "Seafood"}, {"alias": "raw_food", "title": "Live/Raw Food"}], "rating": 4.0, "coordinates": {"latitude": 32.5334892, "longitude": -117.0057678}, "transactions": [], "location": {"address1": "Av. Luis Moya calle 15 , #1991, Col. Libertad P/B", "address2": "", "address3": "", "city": "Tijuana", "zip_code": "22400", "country": "MX", "state": "BCN", "display_address": ["Av. Luis Moya calle 15 , #1991, Col. Libertad P/B", "22400 Tijuana, Baja California", "Mexico"]}, "phone": "+526643811335", "display_phone": "+52 664 381 1335", "distance": 70172.22548522812}, {"id": "DgfNIVTjSPhsOQZ44Ql-HA", "alias": "loncher\u00eda-dulce-tijuana", "name": "Loncher\u00eda Dulce", "image_url": "https://s3-media1.fl.yelpcdn.com/bphoto/uMx552z4es3_-yGZTojr1Q/o.jpg", "is_closed": false, "url": "https://www.yelp.com/biz/loncher%C3%ADa-dulce-tijuana?adjust_creative=oncXGL2aPIKrtJdnWeFSnA&utm_campaign=yelp_api_v3&utm_medium=api_v3_business_search&utm_source=oncXGL2aPIKrtJdnWeFSnA", "review_count": 3, "categories": [{"alias": "caribbean", "title": "Caribbean"}], "rating": 4.5, "coordinates": {"latitude": 32.5350771041323, "longitude": -117.032148018479}, "transactions": [], "location": {"address1": "Av. Melchor Ocampo 869", "address2": "Col. Centro", "address3": null, "city": "Tijuana", "zip_code": "22000", "country": "MX", "state": "BCN", "display_address": ["Av. Melchor Ocampo 869", "Col. Centro", "22000 Tijuana, Baja California", "Mexico"]}, "phone": "", "display_phone": "", "distance": 69523.0029598478}, {"id": "_PddrzVKfVFXBKo4JNrKCA", "alias": "tropical-vibes-caribbean-soul-and-bbq-riverside-3", "name": "Tropical Vibes Caribbean Soul & BBQ", "image_url": "https://s3-media3.fl.yelpcdn.com/bphoto/aNCy0VArbRY1ev1gDx7E-w/o.jpg", "is_closed": false, "url": "https://www.yelp.com/biz/tropical-vibes-caribbean-soul-and-bbq-riverside-3?adjust_creative=oncXGL2aPIKrtJdnWeFSnA&utm_campaign=yelp_api_v3&utm_medium=api_v3_business_search&utm_source=oncXGL2aPIKrtJdnWeFSnA", "review_count": 5, "categories": [{"alias": "bbq", "title": "Barbeque"}, {"alias": "caribbean", "title": "Caribbean"}, {"alias": "foodtrucks", "title": "Food Trucks"}], "rating": 5.0, "coordinates": {"latitude": 33.9816284179688, "longitude": -117.373878479004}, "transactions": [], "price": "$", "location": {"address1": "", "address2": null, "address3": "", "city": "Riverside", "zip_code": "92518", "country": "US", "state": "CA", "display_address": ["Riverside, CA 92518"]}, "phone": "+16198529129", "display_phone": "(619) 852-9129", "distance": 85197.48388629095}, {"id": "8yyPSBq6w5xKXd6sndP-Aw", "alias": "porko-rico-bbq-orange", "name": "Porko Rico BBQ", "image_url": "https://s3-media4.fl.yelpcdn.com/bphoto/sF9pFtRxnj0hMDIdo5Inzw/o.jpg", "is_closed": false, "url": "https://www.yelp.com/biz/porko-rico-bbq-orange?adjust_creative=oncXGL2aPIKrtJdnWeFSnA&utm_campaign=yelp_api_v3&utm_medium=api_v3_business_search&utm_source=oncXGL2aPIKrtJdnWeFSnA", "review_count": 120, "categories": [{"alias": "foodtrucks", "title": "Food Trucks"}, {"alias": "bbq", "title": "Barbeque"}, {"alias": "caribbean", "title": "Caribbean"}], "rating": 4.5, "coordinates": {"latitude": 33.72271, "longitude": -118.00662}, "transactions": [], "price": "$", "location": {"address1": null, "address2": null, "address3": "", "city": "Orange", "zip_code": "92647", "country": "US", "state": "CA", "display_address": ["Orange, CA 92647"]}, "phone": "+17143699800", "display_phone": "(714) 369-9800", "distance": 93948.152609174}, {"id": "MSOVu2AMK0K_Sd6DoxFwog", "alias": "yucatan-grill-seal-beach", "name": "Yucatan Grill", "image_url": "https://s3-media2.fl.yelpcdn.com/bphoto/xUTe8OECTa_uikPVYA6jZg/o.jpg", "is_closed": false, "url": "https://www.yelp.com/biz/yucatan-grill-seal-beach?adjust_creative=oncXGL2aPIKrtJdnWeFSnA&utm_campaign=yelp_api_v3&utm_medium=api_v3_business_search&utm_source=oncXGL2aPIKrtJdnWeFSnA", "review_count": 311, "categories": [{"alias": "caribbean", "title": "Caribbean"}, {"alias": "mexican", "title": "Mexican"}], "rating": 4.0, "coordinates": {"latitude": 33.7460861, "longitude": -118.105278}, "transactions": [], "price": "$$", "location": {"address1": "550 Pacific Coast Hwy", "address2": "Ste 111", "address3": "", "city": "Seal Beach", "zip_code": "90740", "country": "US", "state": "CA", "display_address": ["550 Pacific Coast Hwy", "Ste 111", "Seal Beach, CA 90740"]}, "phone": "+15624304422", "display_phone": "(562) 430-4422", "distance": 102749.10416719856}, {"id": "be_D6z3oa1ddbHGHaWOu5A", "alias": "the-tropic-truck-los-angeles-5", "name": "The Tropic Truck", "image_url": "https://s3-media2.fl.yelpcdn.com/bphoto/o5fcJaclMbJFMV8tECsd0g/o.jpg", "is_closed": false, "url": "https://www.yelp.com/biz/the-tropic-truck-los-angeles-5?adjust_creative=oncXGL2aPIKrtJdnWeFSnA&utm_campaign=yelp_api_v3&utm_medium=api_v3_business_search&utm_source=oncXGL2aPIKrtJdnWeFSnA", "review_count": 69, "categories": [{"alias": "foodtrucks", "title": "Food Trucks"}, {"alias": "caribbean", "title": "Caribbean"}], "rating": 4.0, "coordinates": {"latitude": 34.1259460449219, "longitude": -118.291015625}, "transactions": [], "price": "$$", "location": {"address1": null, "address2": null, "address3": "", "city": "Los Angeles", "zip_code": "90027", "country": "US", "state": "CA", "display_address": ["Los Angeles, CA 90027"]}, "phone": "+13234776764", "display_phone": "(323) 477-6764", "distance": 144994.9359218497}, {"id": "QDyTm30VBP6H0DKwDAcL_Q", "alias": "socal-caribbean-los-angeles", "name": "Socal Caribbean", "image_url": "https://s3-media4.fl.yelpcdn.com/bphoto/wMUoxjpiaHZX7ga-csU_AA/o.jpg", "is_closed": false, "url": "https://www.yelp.com/biz/socal-caribbean-los-angeles?adjust_creative=oncXGL2aPIKrtJdnWeFSnA&utm_campaign=yelp_api_v3&utm_medium=api_v3_business_search&utm_source=oncXGL2aPIKrtJdnWeFSnA", "review_count": 84, "categories": [{"alias": "caribbean", "title": "Caribbean"}, {"alias": "foodtrucks", "title": "Food Trucks"}], "rating": 4.5, "coordinates": {"latitude": 34.10115, "longitude": -118.34372}, "transactions": ["pickup"], "price": "$", "location": {"address1": "7060 Hollywood Blvd", "address2": null, "address3": "", "city": "Los Angeles", "zip_code": "90028", "country": "US", "state": "CA", "display_address": ["7060 Hollywood Blvd", "Los Angeles, CA 90028"]}, "phone": "+17148849566", "display_phone": "(714) 884-9566", "distance": 146291.5132468889}], "total": 30, "region": {"center": {"longitude": -117.28866577148438, "latitude": 33.12198326621279}}}