{"businesses": [{"id": "cJIcN2kZHiOvuvQrH_Ep8g", "alias": "benitos-cafe-oceanside", "name": "Benito's Cafe", "image_url": "https://s3-media2.fl.yelpcdn.com/bphoto/n4K1JC7Z18MNUFaxXir-YA/o.jpg", "is_closed": false, "url": "https://www.yelp.com/biz/benitos-cafe-oceanside?adjust_creative=oncXGL2aPIKrtJdnWeFSnA&utm_campaign=yelp_api_v3&utm_medium=api_v3_business_search&utm_source=oncXGL2aPIKrtJdnWeFSnA", "review_count": 18, "categories": [{"alias": "pizza", "title": "Pizza"}, {"alias": "pastashops", "title": "Pasta Shops"}, {"alias": "chickenshop", "title": "Chicken Shop"}], "rating": 4.5, "coordinates": {"latitude": 33.19667, "longitude": -117.37853}, "transactions": [], "location": {"address1": "610 Mission Ave", "address2": "", "address3": null, "city": "Oceanside", "zip_code": "92054", "country": "US", "state": "CA", "display_address": ["610 Mission Ave", "Oceanside, CA 92054"]}, "phone": "+17607213000", "display_phone": "(760) 721-3000", "distance": 11794.380542696064}, {"id": "PqTUa25qT766-xSbK856tw", "alias": "cowboy-chicken-san-diego-6", "name": "Cowboy Chicken", "image_url": "https://s3-media1.fl.yelpcdn.com/bphoto/xY821afdpDNgQ8XPRrzzww/o.jpg", "is_closed": false, "url": "https://www.yelp.com/biz/cowboy-chicken-san-diego-6?adjust_creative=oncXGL2aPIKrtJdnWeFSnA&utm_campaign=yelp_api_v3&utm_medium=api_v3_business_search&utm_source=oncXGL2aPIKrtJdnWeFSnA", "review_count": 115, "categories": [{"alias": "tradamerican", "title": "American (Traditional)"}, {"alias": "chickenshop", "title": "Chicken Shop"}], "rating": 3.5, "coordinates": {"latitude": 33.0196228, "longitude": -117.110638}, "transactions": ["delivery", "pickup"], "price": "$", "location": {"address1": "10562 Craftsman Way", "address2": "Ste 192", "address3": null, "city": "San Diego", "zip_code": "92127", "country": "US", "state": "CA", "display_address": ["10562 Craftsman Way", "Ste 192", "San Diego, CA 92127"]}, "phone": "+18586741981", "display_phone": "(858) 674-1981", "distance": 20123.848330076828}, {"id": "kgxmvKa-THNtkpj51jw1EQ", "alias": "great-wok-of-china-oceanside", "name": "Great Wok of China", "image_url": "https://s3-media2.fl.yelpcdn.com/bphoto/2-7B4VZC89bkLZov5SpX3A/o.jpg", "is_closed": false, "url": "https://www.yelp.com/biz/great-wok-of-china-oceanside?adjust_creative=oncXGL2aPIKrtJdnWeFSnA&utm_campaign=yelp_api_v3&utm_medium=api_v3_business_search&utm_source=oncXGL2aPIKrtJdnWeFSnA", "review_count": 393, "categories": [{"alias": "chinese", "title": "Chinese"}, {"alias": "seafood", "title": "Seafood"}, {"alias": "chickenshop", "title": "Chicken Shop"}], "rating": 4.0, "coordinates": {"latitude": 33.23736, "longitude": -117.29712}, "transactions": [], "price": "$", "location": {"address1": "4635 Frazee Rd", "address2": "Ste D", "address3": "", "city": "Oceanside", "zip_code": "92057", "country": "US", "state": "CA", "display_address": ["4635 Frazee Rd", "Ste D", "Oceanside, CA 92057"]}, "phone": "+17604398939", "display_phone": "(760) 439-8939", "distance": 12879.040665741075}, {"id": "blfPxmIyUrWWuvDcAoOFWg", "alias": "kfc-carlsbad-3", "name": "KFC", "image_url": "https://s3-media1.fl.yelpcdn.com/bphoto/fs_zpnX99Qx_6tdLH2omIQ/o.jpg", "is_closed": false, "url": "https://www.yelp.com/biz/kfc-carlsbad-3?adjust_creative=oncXGL2aPIKrtJdnWeFSnA&utm_campaign=yelp_api_v3&utm_medium=api_v3_business_search&utm_source=oncXGL2aPIKrtJdnWeFSnA", "review_count": 45, "categories": [{"alias": "chicken_wings", "title": "Chicken Wings"}, {"alias": "hotdogs", "title": "Fast Food"}, {"alias": "chickenshop", "title": "Chicken Shop"}], "rating": 2.0, "coordinates": {"latitude": 33.1609, "longitude": -117.346}, "transactions": ["delivery"], "price": "$", "location": {"address1": "745 Carlsbad Village Dr", "address2": "", "address3": "", "city": "Carlsbad", "zip_code": "92008", "country": "US", "state": "CA", "display_address": ["745 Carlsbad Village Dr", "Carlsbad, CA 92008"]}, "phone": "+17607297213", "display_phone": "(760) 729-7213", "distance": 6871.814101565163}, {"id": "ouVYbwBfUjejp3xwg2KdGQ", "alias": "kfc-san-marcos", "name": "KFC", "image_url": "https://s3-media2.fl.yelpcdn.com/bphoto/iuiPQo-xVH5LBniZ1_AfTA/o.jpg", "is_closed": false, "url": "https://www.yelp.com/biz/kfc-san-marcos?adjust_creative=oncXGL2aPIKrtJdnWeFSnA&utm_campaign=yelp_api_v3&utm_medium=api_v3_business_search&utm_source=oncXGL2aPIKrtJdnWeFSnA", "review_count": 24, "categories": [{"alias": "hotdogs", "title": "Fast Food"}, {"alias": "chicken_wings", "title": "Chicken Wings"}, {"alias": "chickenshop", "title": "Chicken Shop"}], "rating": 2.5, "coordinates": {"latitude": 33.146, "longitude": -117.2}, "transactions": ["delivery"], "price": "$", "location": {"address1": "201 S Rancho Santa Fe Rd", "address2": "", "address3": "", "city": "San Marcos", "zip_code": "92078", "country": "US", "state": "CA", "display_address": ["201 S Rancho Santa Fe Rd", "San Marcos, CA 92078"]}, "phone": "+17607440672", "display_phone": "(760) 744-0672", "distance": 8677.187971887444}, {"id": "ptaF8CBiNWMyd9TurD3RbQ", "alias": "kfc-oceanside-2", "name": "KFC", "image_url": "https://s3-media1.fl.yelpcdn.com/bphoto/9T5sq2nNJArl3Giu23EBIQ/o.jpg", "is_closed": false, "url": "https://www.yelp.com/biz/kfc-oceanside-2?adjust_creative=oncXGL2aPIKrtJdnWeFSnA&utm_campaign=yelp_api_v3&utm_medium=api_v3_business_search&utm_source=oncXGL2aPIKrtJdnWeFSnA", "review_count": 34, "categories": [{"alias": "hotdogs", "title": "Fast Food"}, {"alias": "chicken_wings", "title": "Chicken Wings"}, {"alias": "chickenshop", "title": "Chicken Shop"}], "rating": 2.5, "coordinates": {"latitude": 33.2063, "longitude": -117.289}, "transactions": ["delivery"], "price": "$", "location": {"address1": "4100 Oceanside Blvd", "address2": "", "address3": "", "city": "Oceanside", "zip_code": "92056", "country": "US", "state": "CA", "display_address": ["4100 Oceanside Blvd", "Oceanside, CA 92056"]}, "phone": "+17606309600", "display_phone": "(760) 630-9600", "distance": 9375.634246353602}, {"id": "-me7Al8qNDQ9MIU1x1S4Vw", "alias": "kfc-vista-2", "name": "KFC", "image_url": "https://s3-media3.fl.yelpcdn.com/bphoto/QywIFGRVwQVrMPjVNgVBew/o.jpg", "is_closed": false, "url": "https://www.yelp.com/biz/kfc-vista-2?adjust_creative=oncXGL2aPIKrtJdnWeFSnA&utm_campaign=yelp_api_v3&utm_medium=api_v3_business_search&utm_source=oncXGL2aPIKrtJdnWeFSnA", "review_count": 19, "categories": [{"alias": "hotdogs", "title": "Fast Food"}, {"alias": "chicken_wings", "title": "Chicken Wings"}, {"alias": "chickenshop", "title": "Chicken Shop"}], "rating": 2.0, "coordinates": {"latitude": 33.2103, "longitude": -117.234}, "transactions": ["delivery"], "price": "$", "location": {"address1": "840 E Vista Way", "address2": "", "address3": "", "city": "Vista", "zip_code": "92084", "country": "US", "state": "CA", "display_address": ["840 E Vista Way", "Vista, CA 92084"]}, "phone": "+17609411295", "display_phone": "(760) 941-1295", "distance": 11060.29305014426}, {"id": "BEifR3zRVbpFh62zq3QFJA", "alias": "kfc-oceanside-7", "name": "KFC", "image_url": "https://s3-media3.fl.yelpcdn.com/bphoto/xd-GUKBybn8ebnZnFfvzwA/o.jpg", "is_closed": false, "url": "https://www.yelp.com/biz/kfc-oceanside-7?adjust_creative=oncXGL2aPIKrtJdnWeFSnA&utm_campaign=yelp_api_v3&utm_medium=api_v3_business_search&utm_source=oncXGL2aPIKrtJdnWeFSnA", "review_count": 17, "categories": [{"alias": "hotdogs", "title": "Fast Food"}, {"alias": "chicken_wings", "title": "Chicken Wings"}, {"alias": "chickenshop", "title": "Chicken Shop"}], "rating": 2.5, "coordinates": {"latitude": 33.2042, "longitude": -117.364}, "transactions": [], "price": "$", "location": {"address1": "2007 Mission Ave", "address2": null, "address3": null, "city": "Oceanside", "zip_code": "92054", "country": "US", "state": "CA", "display_address": ["2007 Mission Ave", "Oceanside, CA 92054"]}, "phone": "+17607577514", "display_phone": "(760) 757-7514", "distance": 11521.735593553463}, {"id": "kNNt-y6MUZY5HVQ1AFXoBQ", "alias": "kfc-oceanside", "name": "KFC", "image_url": "https://s3-media3.fl.yelpcdn.com/bphoto/ky7vtpPJo9PAer-kkv5rRA/o.jpg", "is_closed": false, "url": "https://www.yelp.com/biz/kfc-oceanside?adjust_creative=oncXGL2aPIKrtJdnWeFSnA&utm_campaign=yelp_api_v3&utm_medium=api_v3_business_search&utm_source=oncXGL2aPIKrtJdnWeFSnA", "review_count": 52, "categories": [{"alias": "hotdogs", "title": "Fast Food"}, {"alias": "chicken_wings", "title": "Chicken Wings"}, {"alias": "chickenshop", "title": "Chicken Shop"}], "rating": 1.5, "coordinates": {"latitude": 33.2238824094632, "longitude": -117.332548979286}, "transactions": ["delivery"], "price": "$$", "location": {"address1": "3747 Mission Ave", "address2": "", "address3": "", "city": "Oceanside", "zip_code": "92058", "country": "US", "state": "CA", "display_address": ["3747 Mission Ave", "Oceanside, CA 92058"]}, "phone": "+17607224196", "display_phone": "(760) 722-4196", "distance": 12044.311519755694}, {"id": "cJ2YJPZcM9OcsXQ-wyj5rA", "alias": "kfc-san-marcos-3", "name": "KFC", "image_url": "https://s3-media1.fl.yelpcdn.com/bphoto/bvcFCVsVKp4of54887BILg/o.jpg", "is_closed": false, "url": "https://www.yelp.com/biz/kfc-san-marcos-3?adjust_creative=oncXGL2aPIKrtJdnWeFSnA&utm_campaign=yelp_api_v3&utm_medium=api_v3_business_search&utm_source=oncXGL2aPIKrtJdnWeFSnA", "review_count": 24, "categories": [{"alias": "chicken_wings", "title": "Chicken Wings"}, {"alias": "hotdogs", "title": "Fast Food"}, {"alias": "chickenshop", "title": "Chicken Shop"}], "rating": 2.0, "coordinates": {"latitude": 33.1355, "longitude": -117.121}, "transactions": ["delivery"], "price": "$", "location": {"address1": "771 Center Dr", "address2": "", "address3": "", "city": "San Marcos", "zip_code": "92069", "country": "US", "state": "CA", "display_address": ["771 Center Dr", "San Marcos, CA 92069"]}, "phone": "+17607813384", "display_phone": "(760) 781-3384", "distance": 15685.12656393163}], "total": 10, "region": {"center": {"longitude": -117.28866577148438, "latitude": 33.12198326621279}}}