{"businesses": [{"id": "Qt4fUndy7VFCFraOPrrnGA", "alias": "luxe-buffet-carlsbad", "name": "Luxe Buffet", "image_url": "https://s3-media4.fl.yelpcdn.com/bphoto/6WcqFbz0oCpSQC8VDvfrTg/o.jpg", "is_closed": false, "url": "https://www.yelp.com/biz/luxe-buffet-carlsbad?adjust_creative=oncXGL2aPIKrtJdnWeFSnA&utm_campaign=yelp_api_v3&utm_medium=api_v3_business_search&utm_source=oncXGL2aPIKrtJdnWeFSnA", "review_count": 458, "categories": [{"alias": "buffets", "title": "Buffets"}, {"alias": "seafood", "title": "Seafood"}, {"alias": "chinese", "title": "Chinese"}], "rating": 3.5, "coordinates": {"latitude": 33.1798820495605, "longitude": -117.327186584473}, "transactions": [], "price": "$$", "location": {"address1": "2515 El Camino Real", "address2": "", "address3": "", "city": "Carlsbad", "zip_code": "92008", "country": "US", "state": "CA", "display_address": ["2515 El Camino Real", "Carlsbad, CA 92008"]}, "phone": "+17607293888", "display_phone": "(760) 729-3888", "distance": 7364.9935345386775}, {"id": "s6scKVmZ-PWs77o7yUNsuQ", "alias": "p-f-changs-carlsbad", "name": "P.F. Chang's", "image_url": "https://s3-media2.fl.yelpcdn.com/bphoto/uqbj13Dt3uIB5GVd_Cpldw/o.jpg", "is_closed": false, "url": "https://www.yelp.com/biz/p-f-changs-carlsbad?adjust_creative=oncXGL2aPIKrtJdnWeFSnA&utm_campaign=yelp_api_v3&utm_medium=api_v3_business_search&utm_source=oncXGL2aPIKrtJdnWeFSnA", "review_count": 441, "categories": [{"alias": "chinese", "title": "Chinese"}, {"alias": "asianfusion", "title": "Asian Fusion"}, {"alias": "gluten_free", "title": "Gluten-Free"}], "rating": 3.0, "coordinates": {"latitude": 33.1251713786098, "longitude": -117.322928294477}, "transactions": ["pickup", "delivery"], "price": "$$", "location": {"address1": "5621 Paseo Del Norte", "address2": "", "address3": "", "city": "Carlsbad", "zip_code": "92008", "country": "US", "state": "CA", "display_address": ["5621 Paseo Del Norte", "Carlsbad, CA 92008"]}, "phone": "+17607950595", "display_phone": "(760) 795-0595", "distance": 3210.3294823845335}, {"id": "TXaU8fcElFrOYIt0nP7w5A", "alias": "overseas-restaurant-carlsbad-2", "name": "Overseas Restaurant", "image_url": "https://s3-media1.fl.yelpcdn.com/bphoto/ik35nbDskUfexstOJoOi4Q/o.jpg", "is_closed": false, "url": "https://www.yelp.com/biz/overseas-restaurant-carlsbad-2?adjust_creative=oncXGL2aPIKrtJdnWeFSnA&utm_campaign=yelp_api_v3&utm_medium=api_v3_business_search&utm_source=oncXGL2aPIKrtJdnWeFSnA", "review_count": 219, "categories": [{"alias": "chinese", "title": "Chinese"}], "rating": 3.5, "coordinates": {"latitude": 33.1621017, "longitude": -117.3490593}, "transactions": [], "price": "$$", "location": {"address1": "2820 Roosevelt St", "address2": "", "address3": "", "city": "Carlsbad", "zip_code": "92008", "country": "US", "state": "CA", "display_address": ["2820 Roosevelt St", "Carlsbad, CA 92008"]}, "phone": "+17607290348", "display_phone": "(760) 729-0348", "distance": 7199.30172374525}, {"id": "YckPmm8RWebdKXf-k1lFhw", "alias": "chef-tang-vista", "name": "Chef Tang", "image_url": "https://s3-media3.fl.yelpcdn.com/bphoto/0Xi6xa4jKrB1s2eH0AlMxQ/o.jpg", "is_closed": false, "url": "https://www.yelp.com/biz/chef-tang-vista?adjust_creative=oncXGL2aPIKrtJdnWeFSnA&utm_campaign=yelp_api_v3&utm_medium=api_v3_business_search&utm_source=oncXGL2aPIKrtJdnWeFSnA", "review_count": 116, "categories": [{"alias": "chinese", "title": "Chinese"}], "rating": 4.0, "coordinates": {"latitude": 33.16782, "longitude": -117.24717}, "transactions": [], "price": "$$", "location": {"address1": "1580 S Melrose Dr", "address2": "Ste 106", "address3": "", "city": "Vista", "zip_code": "92081", "country": "US", "state": "CA", "display_address": ["1580 S Melrose Dr", "Ste 106", "Vista, CA 92081"]}, "phone": "+17605979900", "display_phone": "(760) 597-9900", "distance": 6426.1557814663975}, {"id": "kE90EEmscN5FPma9GlD0og", "alias": "panda-garden-san-marcos", "name": "Panda Garden", "image_url": "https://s3-media3.fl.yelpcdn.com/bphoto/Y-47TAyg584YFYkIDC65xA/o.jpg", "is_closed": false, "url": "https://www.yelp.com/biz/panda-garden-san-marcos?adjust_creative=oncXGL2aPIKrtJdnWeFSnA&utm_campaign=yelp_api_v3&utm_medium=api_v3_business_search&utm_source=oncXGL2aPIKrtJdnWeFSnA", "review_count": 388, "categories": [{"alias": "chinese", "title": "Chinese"}], "rating": 4.0, "coordinates": {"latitude": 33.132276, "longitude": -117.209051}, "transactions": [], "price": "$$", "location": {"address1": "742 Rancho Santa Fe Rd", "address2": null, "address3": "", "city": "San Marcos", "zip_code": "92078", "country": "US", "state": "CA", "display_address": ["742 Rancho Santa Fe Rd", "San Marcos, CA 92078"]}, "phone": "+17607272322", "display_phone": "(760) 727-2322", "distance": 7501.643272294104}, {"id": "TwxxZav5ix_GUE2V0BP3YQ", "alias": "chins-gourmet-carlsbad", "name": "Chins Gourmet", "image_url": "https://s3-media2.fl.yelpcdn.com/bphoto/L1KI7gcSNz9bVcBg7NZiOw/o.jpg", "is_closed": false, "url": "https://www.yelp.com/biz/chins-gourmet-carlsbad?adjust_creative=oncXGL2aPIKrtJdnWeFSnA&utm_campaign=yelp_api_v3&utm_medium=api_v3_business_search&utm_source=oncXGL2aPIKrtJdnWeFSnA", "review_count": 35, "categories": [{"alias": "chinese", "title": "Chinese"}], "rating": 3.0, "coordinates": {"latitude": 33.1042138301478, "longitude": -117.266007228243}, "transactions": ["pickup", "delivery"], "price": "$$", "location": {"address1": "6990 El Camino Real", "address2": "", "address3": null, "city": "Carlsbad", "zip_code": "92009", "country": "US", "state": "CA", "display_address": ["6990 El Camino Real", "Carlsbad, CA 92009"]}, "phone": "+17604387886", "display_phone": "(760) 438-7886", "distance": 2890.941394236253}, {"id": "-ZwjF70WAbgieD_QQvETww", "alias": "china-fusion-oceanside", "name": "China Fusion", "image_url": "https://s3-media4.fl.yelpcdn.com/bphoto/qoHlx2aEX7aXoEplULKIpg/o.jpg", "is_closed": false, "url": "https://www.yelp.com/biz/china-fusion-oceanside?adjust_creative=oncXGL2aPIKrtJdnWeFSnA&utm_campaign=yelp_api_v3&utm_medium=api_v3_business_search&utm_source=oncXGL2aPIKrtJdnWeFSnA", "review_count": 206, "categories": [{"alias": "chinese", "title": "Chinese"}], "rating": 4.5, "coordinates": {"latitude": 33.2064214924819, "longitude": -117.28414903418}, "transactions": [], "price": "$$", "location": {"address1": "4225 Oceanside Blvd", "address2": "Ste B", "address3": null, "city": "Oceanside", "zip_code": "92056", "country": "US", "state": "CA", "display_address": ["4225 Oceanside Blvd", "Ste B", "Oceanside, CA 92056"]}, "phone": "+17607268888", "display_phone": "(760) 726-8888", "distance": 9398.500205467191}, {"id": "R0Zgcp0PZfOaXh-PEa9Mng", "alias": "pho-truc-xanh-escondido", "name": "Pho Truc Xanh", "image_url": "https://s3-media4.fl.yelpcdn.com/bphoto/71Z4dwkLY1ZEA7WELil1dA/o.jpg", "is_closed": false, "url": "https://www.yelp.com/biz/pho-truc-xanh-escondido?adjust_creative=oncXGL2aPIKrtJdnWeFSnA&utm_campaign=yelp_api_v3&utm_medium=api_v3_business_search&utm_source=oncXGL2aPIKrtJdnWeFSnA", "review_count": 940, "categories": [{"alias": "vietnamese", "title": "Vietnamese"}, {"alias": "chinese", "title": "Chinese"}], "rating": 4.5, "coordinates": {"latitude": 33.127895, "longitude": -117.091797}, "transactions": [], "price": "$", "location": {"address1": "503 W Mission Ave", "address2": "", "address3": "", "city": "Escondido", "zip_code": "92025", "country": "US", "state": "CA", "display_address": ["503 W Mission Ave", "Escondido, CA 92025"]}, "phone": "+17604898201", "display_phone": "(760) 489-8201", "distance": 18344.79212712384}, {"id": "mspwZETSQkWbx01SkcLV2g", "alias": "chins-szechwan-cuisine-encinitas-encinitas", "name": "Chin's Szechwan Cuisine - Encinitas", "image_url": "https://s3-media2.fl.yelpcdn.com/bphoto/pUndntoAEanLjdhH9v5DMg/o.jpg", "is_closed": false, "url": "https://www.yelp.com/biz/chins-szechwan-cuisine-encinitas-encinitas?adjust_creative=oncXGL2aPIKrtJdnWeFSnA&utm_campaign=yelp_api_v3&utm_medium=api_v3_business_search&utm_source=oncXGL2aPIKrtJdnWeFSnA", "review_count": 312, "categories": [{"alias": "chinese", "title": "Chinese"}, {"alias": "asianfusion", "title": "Asian Fusion"}, {"alias": "soup", "title": "Soup"}], "rating": 4.0, "coordinates": {"latitude": 33.047369, "longitude": -117.278725}, "transactions": ["pickup", "delivery"], "price": "$$", "location": {"address1": "625 Encinitas Blvd", "address2": "", "address3": "", "city": "Encinitas", "zip_code": "92024", "country": "US", "state": "CA", "display_address": ["625 Encinitas Blvd", "Encinitas, CA 92024"]}, "phone": "+17607533903", "display_phone": "(760) 753-3903", "distance": 8348.250284545875}, {"id": "kSRLVc86XstN0Pq2vm-52A", "alias": "panda-wok-oceanside", "name": "Panda Wok", "image_url": "https://s3-media3.fl.yelpcdn.com/bphoto/as4a5ZufsP2Zg7XSw3u4hQ/o.jpg", "is_closed": false, "url": "https://www.yelp.com/biz/panda-wok-oceanside?adjust_creative=oncXGL2aPIKrtJdnWeFSnA&utm_campaign=yelp_api_v3&utm_medium=api_v3_business_search&utm_source=oncXGL2aPIKrtJdnWeFSnA", "review_count": 6, "categories": [{"alias": "chinese", "title": "Chinese"}], "rating": 4.5, "coordinates": {"latitude": 33.19373, "longitude": -117.35885}, "transactions": [], "location": {"address1": "1836 Oceanside Blvd", "address2": null, "address3": null, "city": "Oceanside", "zip_code": "92054", "country": "US", "state": "CA", "display_address": ["1836 Oceanside Blvd", "Oceanside, CA 92054"]}, "phone": "+17609673956", "display_phone": "(760) 967-3956", "distance": 10189.174054998202}, {"id": "Cj0HSg9eLUpUaDijuQh19g", "alias": "chinatown-restaurant-encinitas-2", "name": "Chinatown Restaurant", "image_url": "https://s3-media2.fl.yelpcdn.com/bphoto/PDUegLO53CDirf-txIO9fQ/o.jpg", "is_closed": false, "url": "https://www.yelp.com/biz/chinatown-restaurant-encinitas-2?adjust_creative=oncXGL2aPIKrtJdnWeFSnA&utm_campaign=yelp_api_v3&utm_medium=api_v3_business_search&utm_source=oncXGL2aPIKrtJdnWeFSnA", "review_count": 154, "categories": [{"alias": "chinese", "title": "Chinese"}, {"alias": "italian", "title": "Italian"}], "rating": 4.0, "coordinates": {"latitude": 33.064755, "longitude": -117.300905}, "transactions": ["pickup", "delivery"], "price": "$", "location": {"address1": "118 Leucadia Blvd", "address2": "", "address3": "", "city": "Encinitas", "zip_code": "92024", "country": "US", "state": "CA", "display_address": ["118 Leucadia Blvd", "Encinitas, CA 92024"]}, "phone": "+17607530565", "display_phone": "(760) 753-0565", "distance": 6433.371826994528}, {"id": "bwu_8ScPI7H9EW89-C1NLA", "alias": "pick-up-stix-carlsbad-4", "name": "Pick Up Stix", "image_url": "https://s3-media3.fl.yelpcdn.com/bphoto/Xkl0gzPtIxojJ0vkalFiQw/o.jpg", "is_closed": false, "url": "https://www.yelp.com/biz/pick-up-stix-carlsbad-4?adjust_creative=oncXGL2aPIKrtJdnWeFSnA&utm_campaign=yelp_api_v3&utm_medium=api_v3_business_search&utm_source=oncXGL2aPIKrtJdnWeFSnA", "review_count": 69, "categories": [{"alias": "asianfusion", "title": "Asian Fusion"}, {"alias": "chinese", "title": "Chinese"}], "rating": 3.5, "coordinates": {"latitude": 33.12669, "longitude": -117.25386}, "transactions": ["pickup", "delivery"], "price": "$", "location": {"address1": "2641 Gateway Rd", "address2": "Ste 101", "address3": "", "city": "Carlsbad", "zip_code": "92009", "country": "US", "state": "CA", "display_address": ["2641 Gateway Rd", "Ste 101", "Carlsbad, CA 92009"]}, "phone": "+17608041301", "display_phone": "(760) 804-1301", "distance": 3260.4526357658924}, {"id": "AQ8gXL1-u57FkIUK89M7Kg", "alias": "pick-up-stix-carlsbad-8", "name": "Pick Up Stix", "image_url": "https://s3-media1.fl.yelpcdn.com/bphoto/bNL_eeSQixsRP9Tu_kzGlA/o.jpg", "is_closed": false, "url": "https://www.yelp.com/biz/pick-up-stix-carlsbad-8?adjust_creative=oncXGL2aPIKrtJdnWeFSnA&utm_campaign=yelp_api_v3&utm_medium=api_v3_business_search&utm_source=oncXGL2aPIKrtJdnWeFSnA", "review_count": 65, "categories": [{"alias": "chinese", "title": "Chinese"}, {"alias": "asianfusion", "title": "Asian Fusion"}], "rating": 3.0, "coordinates": {"latitude": 33.1003341674805, "longitude": -117.311668395996}, "transactions": ["pickup", "delivery"], "price": "$", "location": {"address1": "7150 Avenida Encinas", "address2": "Ste 102", "address3": "", "city": "Carlsbad", "zip_code": "92011", "country": "US", "state": "CA", "display_address": ["7150 Avenida Encinas", "Ste 102", "Carlsbad, CA 92011"]}, "phone": "+17606021077", "display_phone": "(760) 602-1077", "distance": 3229.871075190196}, {"id": "oc2_rhnSN6835fS09iu8vQ", "alias": "chins-szechwan-cuisine-oceanside-oceanside-2", "name": "Chin's Szechwan Cuisine - Oceanside", "image_url": "https://s3-media2.fl.yelpcdn.com/bphoto/vLTp7Cmh0x75gvJA4IyAnw/o.jpg", "is_closed": false, "url": "https://www.yelp.com/biz/chins-szechwan-cuisine-oceanside-oceanside-2?adjust_creative=oncXGL2aPIKrtJdnWeFSnA&utm_campaign=yelp_api_v3&utm_medium=api_v3_business_search&utm_source=oncXGL2aPIKrtJdnWeFSnA", "review_count": 258, "categories": [{"alias": "chinese", "title": "Chinese"}, {"alias": "asianfusion", "title": "Asian Fusion"}, {"alias": "soup", "title": "Soup"}], "rating": 4.0, "coordinates": {"latitude": 33.207614, "longitude": -117.287945}, "transactions": ["pickup", "delivery"], "price": "$$", "location": {"address1": "4140 Oceanside Blvd", "address2": "", "address3": "", "city": "Oceanside", "zip_code": "92056", "country": "US", "state": "CA", "display_address": ["4140 Oceanside Blvd", "Oceanside, CA 92056"]}, "phone": "+17606314808", "display_phone": "(760) 631-4808", "distance": 9521.928959145183}, {"id": "FmD9_DP7px43pLzPiNZATQ", "alias": "del-mar-rendezvous-del-mar", "name": "Del Mar Rendezvous", "image_url": "https://s3-media2.fl.yelpcdn.com/bphoto/ntqytCfQioOS0Lf9lmZFgw/o.jpg", "is_closed": false, "url": "https://www.yelp.com/biz/del-mar-rendezvous-del-mar?adjust_creative=oncXGL2aPIKrtJdnWeFSnA&utm_campaign=yelp_api_v3&utm_medium=api_v3_business_search&utm_source=oncXGL2aPIKrtJdnWeFSnA", "review_count": 652, "categories": [{"alias": "chinese", "title": "Chinese"}, {"alias": "gluten_free", "title": "Gluten-Free"}, {"alias": "vegetarian", "title": "Vegetarian"}], "rating": 4.0, "coordinates": {"latitude": 32.9607441389406, "longitude": -117.265116690795}, "transactions": ["pickup", "delivery"], "price": "$$", "location": {"address1": "1555 Camino Del Mar", "address2": "Ste 102", "address3": "", "city": "Del Mar", "zip_code": "92014", "country": "US", "state": "CA", "display_address": ["1555 Camino Del Mar", "Ste 102", "Del Mar, CA 92014"]}, "phone": "+18587552669", "display_phone": "(858) 755-2669", "distance": 18062.824569598135}, {"id": "NZsIIH5zFa9DbBH2gyiwxA", "alias": "panda-wok-oceanside-2", "name": "Panda Wok", "image_url": "https://s3-media4.fl.yelpcdn.com/bphoto/Q6rjHYiSpaiMKlwaJDz5oA/o.jpg", "is_closed": false, "url": "https://www.yelp.com/biz/panda-wok-oceanside-2?adjust_creative=oncXGL2aPIKrtJdnWeFSnA&utm_campaign=yelp_api_v3&utm_medium=api_v3_business_search&utm_source=oncXGL2aPIKrtJdnWeFSnA", "review_count": 1, "categories": [{"alias": "chinese", "title": "Chinese"}], "rating": 4.0, "coordinates": {"latitude": 33.1931156690619, "longitude": -117.357905609654}, "transactions": [], "location": {"address1": "1836 Oceanside Blvd", "address2": "Ste 101", "address3": null, "city": "Oceanside", "zip_code": "92054", "country": "US", "state": "CA", "display_address": ["1836 Oceanside Blvd", "Ste 101", "Oceanside, CA 92054"]}, "phone": "+17609673956", "display_phone": "(760) 967-3956", "distance": 10203.18618500307}, {"id": "YvUXMzn9vGyrtk29YNB0lw", "alias": "panda-express-carlsbad", "name": "Panda Express", "image_url": "https://s3-media2.fl.yelpcdn.com/bphoto/k0ndYAA2R6dft9Um9Q_W9g/o.jpg", "is_closed": false, "url": "https://www.yelp.com/biz/panda-express-carlsbad?adjust_creative=oncXGL2aPIKrtJdnWeFSnA&utm_campaign=yelp_api_v3&utm_medium=api_v3_business_search&utm_source=oncXGL2aPIKrtJdnWeFSnA", "review_count": 27, "categories": [{"alias": "chinese", "title": "Chinese"}, {"alias": "hotdogs", "title": "Fast Food"}], "rating": 3.0, "coordinates": {"latitude": 33.1034164428711, "longitude": -117.268577575684}, "transactions": [], "price": "$", "location": {"address1": "6951 El Camino Real", "address2": "", "address3": "", "city": "Carlsbad", "zip_code": "92009", "country": "US", "state": "CA", "display_address": ["6951 El Camino Real", "Carlsbad, CA 92009"]}, "phone": "+17604311061", "display_phone": "(760) 431-1061", "distance": 2774.2886343415544}, {"id": "Z22lzt8mfZQNsCipm5Msng", "alias": "wonderwok-san-marcos", "name": "Wonderwok", "image_url": "https://s3-media2.fl.yelpcdn.com/bphoto/UWpqQLMTTLWqb-63YNw42g/o.jpg", "is_closed": false, "url": "https://www.yelp.com/biz/wonderwok-san-marcos?adjust_creative=oncXGL2aPIKrtJdnWeFSnA&utm_campaign=yelp_api_v3&utm_medium=api_v3_business_search&utm_source=oncXGL2aPIKrtJdnWeFSnA", "review_count": 3, "categories": [{"alias": "fooddeliveryservices", "title": "Food Delivery Services"}, {"alias": "chinese", "title": "Chinese"}], "rating": 3.5, "coordinates": {"latitude": 33.1415416, "longitude": -117.1854618}, "transactions": ["pickup", "delivery"], "location": {"address1": "980 Los Vallecitos Blvd", "address2": "unit B & C", "address3": "", "city": "San Marcos", "zip_code": "92069", "country": "US", "state": "CA", "display_address": ["980 Los Vallecitos Blvd", "unit B & C", "San Marcos, CA 92069"]}, "phone": "+16194908558", "display_phone": "(619) 490-8558", "distance": 9869.294151058246}, {"id": "0wN1Iz1pGQ5IBEGeAtWCEA", "alias": "pei-wei-encinitas", "name": "Pei Wei", "image_url": "https://s3-media1.fl.yelpcdn.com/bphoto/38yDUxDqsRsOqTDZkTsGFw/o.jpg", "is_closed": false, "url": "https://www.yelp.com/biz/pei-wei-encinitas?adjust_creative=oncXGL2aPIKrtJdnWeFSnA&utm_campaign=yelp_api_v3&utm_medium=api_v3_business_search&utm_source=oncXGL2aPIKrtJdnWeFSnA", "review_count": 162, "categories": [{"alias": "chinese", "title": "Chinese"}, {"alias": "gluten_free", "title": "Gluten-Free"}, {"alias": "asianfusion", "title": "Asian Fusion"}], "rating": 3.0, "coordinates": {"latitude": 33.068531036377, "longitude": -117.265289306641}, "transactions": [], "price": "$", "location": {"address1": "1560-A Leucadia Blvd", "address2": "", "address3": "", "city": "Encinitas", "zip_code": "92024", "country": "US", "state": "CA", "display_address": ["1560-A Leucadia Blvd", "Encinitas, CA 92024"]}, "phone": "+17606352888", "display_phone": "(760) 635-2888", "distance": 6337.435327032557}, {"id": "-eSkO5VA2s82TND9y7z2Ug", "alias": "golden-dragon-vista", "name": "Golden Dragon", "image_url": "https://s3-media2.fl.yelpcdn.com/bphoto/N4pC7KZL9rWAGofjuf0M5w/o.jpg", "is_closed": false, "url": "https://www.yelp.com/biz/golden-dragon-vista?adjust_creative=oncXGL2aPIKrtJdnWeFSnA&utm_campaign=yelp_api_v3&utm_medium=api_v3_business_search&utm_source=oncXGL2aPIKrtJdnWeFSnA", "review_count": 143, "categories": [{"alias": "chinese", "title": "Chinese"}], "rating": 4.0, "coordinates": {"latitude": 33.2192043, "longitude": -117.2262549}, "transactions": [], "price": "$$", "location": {"address1": "1350 E Vista Way", "address2": "Ste 10", "address3": "", "city": "Vista", "zip_code": "92084", "country": "US", "state": "CA", "display_address": ["1350 E Vista Way", "Ste 10", "Vista, CA 92084"]}, "phone": "+17607264246", "display_phone": "(760) 726-4246", "distance": 12203.67300050252}, {"id": "kgxmvKa-THNtkpj51jw1EQ", "alias": "great-wok-of-china-oceanside", "name": "Great Wok of China", "image_url": "https://s3-media2.fl.yelpcdn.com/bphoto/2-7B4VZC89bkLZov5SpX3A/o.jpg", "is_closed": false, "url": "https://www.yelp.com/biz/great-wok-of-china-oceanside?adjust_creative=oncXGL2aPIKrtJdnWeFSnA&utm_campaign=yelp_api_v3&utm_medium=api_v3_business_search&utm_source=oncXGL2aPIKrtJdnWeFSnA", "review_count": 393, "categories": [{"alias": "chinese", "title": "Chinese"}, {"alias": "seafood", "title": "Seafood"}, {"alias": "chickenshop", "title": "Chicken Shop"}], "rating": 4.0, "coordinates": {"latitude": 33.23736, "longitude": -117.29712}, "transactions": [], "price": "$", "location": {"address1": "4635 Frazee Rd", "address2": "Ste D", "address3": "", "city": "Oceanside", "zip_code": "92057", "country": "US", "state": "CA", "display_address": ["4635 Frazee Rd", "Ste D", "Oceanside, CA 92057"]}, "phone": "+17604398939", "display_phone": "(760) 439-8939", "distance": 12879.040665741075}, {"id": "wGJJi6enDpzj1WzVsmhrug", "alias": "pho-4-queen-san-marcos", "name": "Pho 4 Queen", "image_url": "https://s3-media2.fl.yelpcdn.com/bphoto/HxAIuDYYsYGTqmLcxFVnHg/o.jpg", "is_closed": false, "url": "https://www.yelp.com/biz/pho-4-queen-san-marcos?adjust_creative=oncXGL2aPIKrtJdnWeFSnA&utm_campaign=yelp_api_v3&utm_medium=api_v3_business_search&utm_source=oncXGL2aPIKrtJdnWeFSnA", "review_count": 182, "categories": [{"alias": "vietnamese", "title": "Vietnamese"}, {"alias": "chinese", "title": "Chinese"}, {"alias": "soup", "title": "Soup"}], "rating": 4.0, "coordinates": {"latitude": 33.1471976, "longitude": -117.1995141}, "transactions": ["pickup"], "price": "$", "location": {"address1": "159 S Rancho Santa Fe Rd", "address2": "", "address3": "", "city": "San Marcos", "zip_code": "92078", "country": "US", "state": "CA", "display_address": ["159 S Rancho Santa Fe Rd", "San Marcos, CA 92078"]}, "phone": "+17604712572", "display_phone": "(760) 471-2572", "distance": 8796.784869634403}, {"id": "1ZflRsr-3BuNgQel1GHCQQ", "alias": "pho-saigon-express-escondido", "name": "Pho Saigon Express", "image_url": "https://s3-media1.fl.yelpcdn.com/bphoto/gBLX--Q607TSLMtCef5Ong/o.jpg", "is_closed": false, "url": "https://www.yelp.com/biz/pho-saigon-express-escondido?adjust_creative=oncXGL2aPIKrtJdnWeFSnA&utm_campaign=yelp_api_v3&utm_medium=api_v3_business_search&utm_source=oncXGL2aPIKrtJdnWeFSnA", "review_count": 659, "categories": [{"alias": "vietnamese", "title": "Vietnamese"}, {"alias": "chinese", "title": "Chinese"}, {"alias": "vegetarian", "title": "Vegetarian"}], "rating": 4.5, "coordinates": {"latitude": 33.126807, "longitude": -117.084974}, "transactions": ["pickup"], "price": "$", "location": {"address1": "605 N Broadway", "address2": null, "address3": "", "city": "Escondido", "zip_code": "92025", "country": "US", "state": "CA", "display_address": ["605 N Broadway", "Escondido, CA 92025"]}, "phone": "+17607464669", "display_phone": "(760) 746-4669", "distance": 18976.192877410027}, {"id": "AWQB--GdK2KHNwej0-F2bA", "alias": "sun-hing-buffet-vista", "name": "Sun Hing Buffet", "image_url": "https://s3-media3.fl.yelpcdn.com/bphoto/ZWWg3o2sl180SSMWlHJK9A/o.jpg", "is_closed": false, "url": "https://www.yelp.com/biz/sun-hing-buffet-vista?adjust_creative=oncXGL2aPIKrtJdnWeFSnA&utm_campaign=yelp_api_v3&utm_medium=api_v3_business_search&utm_source=oncXGL2aPIKrtJdnWeFSnA", "review_count": 166, "categories": [{"alias": "buffets", "title": "Buffets"}, {"alias": "chinese", "title": "Chinese"}], "rating": 3.0, "coordinates": {"latitude": 33.1846508919716, "longitude": -117.282936562427}, "transactions": [], "price": "$$", "location": {"address1": "1960 Hacienda Dr", "address2": "", "address3": "", "city": "Vista", "zip_code": "92081", "country": "US", "state": "CA", "display_address": ["1960 Hacienda Dr", "Vista, CA 92081"]}, "phone": "+17608063586", "display_phone": "(760) 806-3586", "distance": 6988.695758830892}, {"id": "Sfp0o1lJtvymEeiSZ_cgFw", "alias": "chef-wong-chinese-cuisine-san-diego-4", "name": "Chef Wong Chinese Cuisine", "image_url": "https://s3-media2.fl.yelpcdn.com/bphoto/GxcDX0KoUsc02_X2vOW2WA/o.jpg", "is_closed": false, "url": "https://www.yelp.com/biz/chef-wong-chinese-cuisine-san-diego-4?adjust_creative=oncXGL2aPIKrtJdnWeFSnA&utm_campaign=yelp_api_v3&utm_medium=api_v3_business_search&utm_source=oncXGL2aPIKrtJdnWeFSnA", "review_count": 221, "categories": [{"alias": "chinese", "title": "Chinese"}], "rating": 4.0, "coordinates": {"latitude": 32.9598594164377, "longitude": -117.112495897982}, "transactions": ["pickup", "delivery"], "price": "$$", "location": {"address1": "9995 Carmel Mountain Rd", "address2": "Ste 6", "address3": "", "city": "San Diego", "zip_code": "92129", "country": "US", "state": "CA", "display_address": ["9995 Carmel Mountain Rd", "Ste 6", "San Diego, CA 92129"]}, "phone": "+18585381388", "display_phone": "(858) 538-1388", "distance": 24385.267290683518}, {"id": "b1oik1z7AUZ943ctnLHkMA", "alias": "panda-express-carlsbad-4", "name": "Panda Express", "image_url": "https://s3-media4.fl.yelpcdn.com/bphoto/gxwZBeWZXRwRQ5KI9tDbDg/o.jpg", "is_closed": false, "url": "https://www.yelp.com/biz/panda-express-carlsbad-4?adjust_creative=oncXGL2aPIKrtJdnWeFSnA&utm_campaign=yelp_api_v3&utm_medium=api_v3_business_search&utm_source=oncXGL2aPIKrtJdnWeFSnA", "review_count": 85, "categories": [{"alias": "hotdogs", "title": "Fast Food"}, {"alias": "chinese", "title": "Chinese"}], "rating": 2.5, "coordinates": {"latitude": 33.1254723, "longitude": -117.3222824}, "transactions": [], "price": "$", "location": {"address1": "5630 Paseo Del Norte", "address2": "Ste 141", "address3": "Carlsbad Premium Outlets Mall", "city": "Carlsbad", "zip_code": "92008", "country": "US", "state": "CA", "display_address": ["5630 Paseo Del Norte", "Ste 141", "Carlsbad Premium Outlets Mall", "Carlsbad, CA 92008"]}, "phone": "+17606038830", "display_phone": "(760) 603-8830", "distance": 3065.567001813849}, {"id": "etbd6jMgSW2zz1vN8qBOcw", "alias": "chins-szechwan-cuisine-vista-vista", "name": "Chin's Szechwan Cuisine - Vista", "image_url": "https://s3-media2.fl.yelpcdn.com/bphoto/vQ-p-pje9BgwHqSHIcfqPQ/o.jpg", "is_closed": false, "url": "https://www.yelp.com/biz/chins-szechwan-cuisine-vista-vista?adjust_creative=oncXGL2aPIKrtJdnWeFSnA&utm_campaign=yelp_api_v3&utm_medium=api_v3_business_search&utm_source=oncXGL2aPIKrtJdnWeFSnA", "review_count": 175, "categories": [{"alias": "chinese", "title": "Chinese"}, {"alias": "asianfusion", "title": "Asian Fusion"}, {"alias": "soup", "title": "Soup"}], "rating": 4.0, "coordinates": {"latitude": 33.205905, "longitude": -117.237127}, "transactions": ["pickup", "delivery"], "price": "$$", "location": {"address1": "600 E Vista Way", "address2": "", "address3": "", "city": "Vista", "zip_code": "92084", "country": "US", "state": "CA", "display_address": ["600 E Vista Way", "Vista, CA 92084"]}, "phone": "+17607323880", "display_phone": "(760) 732-3880", "distance": 10492.585198805413}, {"id": "VrKJLtTWIOUVUualtbJ_sQ", "alias": "quik-wok-oceanside-oceanside", "name": "Quik Wok - Oceanside", "image_url": "https://s3-media2.fl.yelpcdn.com/bphoto/D3clNYBd91x3qwpVpHvZFw/o.jpg", "is_closed": false, "url": "https://www.yelp.com/biz/quik-wok-oceanside-oceanside?adjust_creative=oncXGL2aPIKrtJdnWeFSnA&utm_campaign=yelp_api_v3&utm_medium=api_v3_business_search&utm_source=oncXGL2aPIKrtJdnWeFSnA", "review_count": 206, "categories": [{"alias": "chinese", "title": "Chinese"}], "rating": 3.5, "coordinates": {"latitude": 33.1830715830375, "longitude": -117.341621920268}, "transactions": [], "price": "$", "location": {"address1": "2184 Vista Way", "address2": "", "address3": "", "city": "Oceanside", "zip_code": "92054", "country": "US", "state": "CA", "display_address": ["2184 Vista Way", "Oceanside, CA 92054"]}, "phone": "+17604392228", "display_phone": "(760) 439-2228", "distance": 8393.14360995693}, {"id": "vgoXE_XgWjE8hzzj3ag3iA", "alias": "spicy-king-vista-12", "name": "Spicy King", "image_url": "https://s3-media2.fl.yelpcdn.com/bphoto/dQnvhdtYOo8AW1t-zJlhJQ/o.jpg", "is_closed": false, "url": "https://www.yelp.com/biz/spicy-king-vista-12?adjust_creative=oncXGL2aPIKrtJdnWeFSnA&utm_campaign=yelp_api_v3&utm_medium=api_v3_business_search&utm_source=oncXGL2aPIKrtJdnWeFSnA", "review_count": 306, "categories": [{"alias": "szechuan", "title": "Szechuan"}], "rating": 3.5, "coordinates": {"latitude": 33.218775, "longitude": -117.2259751}, "transactions": [], "price": "$$", "location": {"address1": "1233 E Vista Way", "address2": null, "address3": "", "city": "Vista", "zip_code": "92084", "country": "US", "state": "CA", "display_address": ["1233 E Vista Way", "Vista, CA 92084"]}, "phone": "+17606391888", "display_phone": "(760) 639-1888", "distance": 12204.965623344751}, {"id": "gVEDdSfCVeIjdrDNXKblFg", "alias": "zen-modern-asian-san-diego", "name": "ZEN Modern Asian", "image_url": "https://s3-media1.fl.yelpcdn.com/bphoto/8aHUXskU2k_FL7QPzN49Kg/o.jpg", "is_closed": false, "url": "https://www.yelp.com/biz/zen-modern-asian-san-diego?adjust_creative=oncXGL2aPIKrtJdnWeFSnA&utm_campaign=yelp_api_v3&utm_medium=api_v3_business_search&utm_source=oncXGL2aPIKrtJdnWeFSnA", "review_count": 425, "categories": [{"alias": "asianfusion", "title": "Asian Fusion"}, {"alias": "sushi", "title": "Sushi Bars"}, {"alias": "chinese", "title": "Chinese"}], "rating": 4.0, "coordinates": {"latitude": 32.96267, "longitude": -117.09202}, "transactions": ["pickup", "delivery"], "price": "$$", "location": {"address1": "13510 Sabre Spring Pkwy", "address2": "Ste 103", "address3": "", "city": "San Diego", "zip_code": "92128", "country": "US", "state": "CA", "display_address": ["13510 Sabre Spring Pkwy", "Ste 103", "San Diego, CA 92128"]}, "phone": "+18582161068", "display_phone": "(858) 216-1068", "distance": 25488.352019656708}, {"id": "nW4dlm1kYr1AcK5pxpt24g", "alias": "panda-wok-vista-4", "name": "Panda Wok", "image_url": "https://s3-media2.fl.yelpcdn.com/bphoto/KoZOCJzmAJMUwuanTM5Gqg/o.jpg", "is_closed": false, "url": "https://www.yelp.com/biz/panda-wok-vista-4?adjust_creative=oncXGL2aPIKrtJdnWeFSnA&utm_campaign=yelp_api_v3&utm_medium=api_v3_business_search&utm_source=oncXGL2aPIKrtJdnWeFSnA", "review_count": 48, "categories": [{"alias": "hotdogs", "title": "Fast Food"}, {"alias": "chinese", "title": "Chinese"}], "rating": 3.0, "coordinates": {"latitude": 33.1659035, "longitude": -117.2467837}, "transactions": ["pickup", "delivery"], "price": "$", "location": {"address1": "1611 S Melrose Dr", "address2": "Ste O", "address3": null, "city": "Vista", "zip_code": "92081", "country": "US", "state": "CA", "display_address": ["1611 S Melrose Dr", "Ste O", "Vista, CA 92081"]}, "phone": "+14422045700", "display_phone": "(442) 204-5700", "distance": 6152.815681669951}, {"id": "CE_6L0_txHkGcZVBRvv_3A", "alias": "china-wokery-san-marcos", "name": "China Wokery", "image_url": "https://s3-media1.fl.yelpcdn.com/bphoto/UoENjc8rvQo2ZglRU--mnQ/o.jpg", "is_closed": false, "url": "https://www.yelp.com/biz/china-wokery-san-marcos?adjust_creative=oncXGL2aPIKrtJdnWeFSnA&utm_campaign=yelp_api_v3&utm_medium=api_v3_business_search&utm_source=oncXGL2aPIKrtJdnWeFSnA", "review_count": 194, "categories": [{"alias": "chinese", "title": "Chinese"}], "rating": 3.5, "coordinates": {"latitude": 33.13535, "longitude": -117.18991}, "transactions": [], "price": "$$", "location": {"address1": "1020 W San Marcos Blvd", "address2": "Ste 142", "address3": "", "city": "San Marcos", "zip_code": "92078", "country": "US", "state": "CA", "display_address": ["1020 W San Marcos Blvd", "Ste 142", "San Marcos, CA 92078"]}, "phone": "+17604716066", "display_phone": "(760) 471-6066", "distance": 9245.412711617084}, {"id": "6FL9seyNKnpMsugRBkMNEQ", "alias": "chinatown-express-oceanside", "name": "Chinatown Express", "image_url": "https://s3-media4.fl.yelpcdn.com/bphoto/6RvMCJ_vvFoInDQq_K48PQ/o.jpg", "is_closed": false, "url": "https://www.yelp.com/biz/chinatown-express-oceanside?adjust_creative=oncXGL2aPIKrtJdnWeFSnA&utm_campaign=yelp_api_v3&utm_medium=api_v3_business_search&utm_source=oncXGL2aPIKrtJdnWeFSnA", "review_count": 61, "categories": [{"alias": "chinese", "title": "Chinese"}], "rating": 3.0, "coordinates": {"latitude": 33.1844825744629, "longitude": -117.29369354248}, "transactions": [], "price": "$", "location": {"address1": "3910 Vista Way", "address2": "Ste 109", "address3": "", "city": "Oceanside", "zip_code": "92056", "country": "US", "state": "CA", "display_address": ["3910 Vista Way", "Ste 109", "Oceanside, CA 92056"]}, "phone": "+17608066567", "display_phone": "(760) 806-6567", "distance": 6968.773612376084}, {"id": "uOmzq7DCdfHo638KoGEh2w", "alias": "pick-up-stix-encinitas-2", "name": "Pick Up Stix", "image_url": "https://s3-media2.fl.yelpcdn.com/bphoto/6CnwwkTL7Y6PunQ0yyqrCg/o.jpg", "is_closed": false, "url": "https://www.yelp.com/biz/pick-up-stix-encinitas-2?adjust_creative=oncXGL2aPIKrtJdnWeFSnA&utm_campaign=yelp_api_v3&utm_medium=api_v3_business_search&utm_source=oncXGL2aPIKrtJdnWeFSnA", "review_count": 20, "categories": [{"alias": "asianfusion", "title": "Asian Fusion"}, {"alias": "chinese", "title": "Chinese"}], "rating": 4.0, "coordinates": {"latitude": 33.0465057439054, "longitude": -117.257539889047}, "transactions": [], "price": "$", "location": {"address1": "1460 Encinitas Blvd", "address2": "", "address3": null, "city": "Encinitas", "zip_code": "92024", "country": "US", "state": "CA", "display_address": ["1460 Encinitas Blvd", "Encinitas, CA 92024"]}, "phone": "+17606326678", "display_phone": "(760) 632-6678", "distance": 8879.579804959047}, {"id": "DXRYScpMT3uzD_sA5OfTIA", "alias": "the-mandarin-oceanside", "name": "The Mandarin", "image_url": "https://s3-media2.fl.yelpcdn.com/bphoto/-DiMbAL30nVwquB8SI46TA/o.jpg", "is_closed": false, "url": "https://www.yelp.com/biz/the-mandarin-oceanside?adjust_creative=oncXGL2aPIKrtJdnWeFSnA&utm_campaign=yelp_api_v3&utm_medium=api_v3_business_search&utm_source=oncXGL2aPIKrtJdnWeFSnA", "review_count": 240, "categories": [{"alias": "chinese", "title": "Chinese"}], "rating": 3.5, "coordinates": {"latitude": 33.1999772279184, "longitude": -117.374549718524}, "transactions": [], "price": "$", "location": {"address1": "1058 Mission Ave", "address2": "", "address3": "", "city": "Oceanside", "zip_code": "92054", "country": "US", "state": "CA", "display_address": ["1058 Mission Ave", "Oceanside, CA 92054"]}, "phone": "+17604390288", "display_phone": "(760) 439-0288", "distance": 11795.133411041917}, {"id": "kj9g39Mz_q21831-2ya3SQ", "alias": "panda-express-encinitas-2", "name": "Panda Express", "image_url": "https://s3-media2.fl.yelpcdn.com/bphoto/x1VL9oYFM8mqsj6BHNHpGg/o.jpg", "is_closed": false, "url": "https://www.yelp.com/biz/panda-express-encinitas-2?adjust_creative=oncXGL2aPIKrtJdnWeFSnA&utm_campaign=yelp_api_v3&utm_medium=api_v3_business_search&utm_source=oncXGL2aPIKrtJdnWeFSnA", "review_count": 59, "categories": [{"alias": "chinese", "title": "Chinese"}, {"alias": "hotdogs", "title": "Fast Food"}], "rating": 3.0, "coordinates": {"latitude": 33.0651394414774, "longitude": -117.264642938826}, "transactions": [], "price": "$", "location": {"address1": "1084 N El Camino Real", "address2": "", "address3": "", "city": "Encinitas", "zip_code": "92024", "country": "US", "state": "CA", "display_address": ["1084 N El Camino Real", "Encinitas, CA 92024"]}, "phone": "+17609438888", "display_phone": "(760) 943-8888", "distance": 6705.212783093357}, {"id": "uaSgyTtZvFSidP-kO1RWZA", "alias": "pick-up-stix-vista", "name": "Pick Up Stix", "image_url": "https://s3-media3.fl.yelpcdn.com/bphoto/vEY_Psjh9myx8DrsN3cUFQ/o.jpg", "is_closed": false, "url": "https://www.yelp.com/biz/pick-up-stix-vista?adjust_creative=oncXGL2aPIKrtJdnWeFSnA&utm_campaign=yelp_api_v3&utm_medium=api_v3_business_search&utm_source=oncXGL2aPIKrtJdnWeFSnA", "review_count": 72, "categories": [{"alias": "chinese", "title": "Chinese"}, {"alias": "asianfusion", "title": "Asian Fusion"}], "rating": 3.0, "coordinates": {"latitude": 33.1925087, "longitude": -117.2537253}, "transactions": ["pickup", "delivery"], "price": "$", "location": {"address1": "251 South Melrose Dr", "address2": "Ste 303", "address3": "", "city": "Vista", "zip_code": "92081", "country": "US", "state": "CA", "display_address": ["251 South Melrose Dr", "Ste 303", "Vista, CA 92081"]}, "phone": "+17607589808", "display_phone": "(760) 758-9808", "distance": 8466.750791394961}, {"id": "0iBk3YcAPtjH_TIrmYbsww", "alias": "panda-express-vista", "name": "Panda Express", "image_url": "https://s3-media2.fl.yelpcdn.com/bphoto/YZSLxgSTc5wCOlGPTSrNow/o.jpg", "is_closed": false, "url": "https://www.yelp.com/biz/panda-express-vista?adjust_creative=oncXGL2aPIKrtJdnWeFSnA&utm_campaign=yelp_api_v3&utm_medium=api_v3_business_search&utm_source=oncXGL2aPIKrtJdnWeFSnA", "review_count": 65, "categories": [{"alias": "chinese", "title": "Chinese"}, {"alias": "hotdogs", "title": "Fast Food"}], "rating": 3.0, "coordinates": {"latitude": 33.1692223752012, "longitude": -117.212557182884}, "transactions": [], "price": "$", "location": {"address1": "316 Sycamore Ave", "address2": "", "address3": "", "city": "Vista", "zip_code": "92083", "country": "US", "state": "CA", "display_address": ["316 Sycamore Ave", "Vista, CA 92083"]}, "phone": "+17609459887", "display_phone": "(760) 945-9887", "distance": 8820.448908814109}, {"id": "oONK85cRdPmygX1ZczLx9g", "alias": "double-happiness-del-mar-3", "name": "Double Happiness", "image_url": "https://s3-media1.fl.yelpcdn.com/bphoto/6zZi2oHw5OWLIuhQ1NkBUg/o.jpg", "is_closed": false, "url": "https://www.yelp.com/biz/double-happiness-del-mar-3?adjust_creative=oncXGL2aPIKrtJdnWeFSnA&utm_campaign=yelp_api_v3&utm_medium=api_v3_business_search&utm_source=oncXGL2aPIKrtJdnWeFSnA", "review_count": 250, "categories": [{"alias": "chinese", "title": "Chinese"}], "rating": 3.5, "coordinates": {"latitude": 32.95476, "longitude": -117.26304}, "transactions": [], "price": "$$", "location": {"address1": "1011 Camino Del Mar", "address2": "", "address3": "", "city": "Del Mar", "zip_code": "92014", "country": "US", "state": "CA", "display_address": ["1011 Camino Del Mar", "Del Mar, CA 92014"]}, "phone": "+18584818584", "display_phone": "(858) 481-8584", "distance": 18725.24923606509}, {"id": "4HfQK96r00AYox18BcekAg", "alias": "pick-up-stix-san-marcos", "name": "Pick up Stix", "image_url": "https://s3-media1.fl.yelpcdn.com/bphoto/LzGLOqcKFnvkp9jMPYljSw/o.jpg", "is_closed": false, "url": "https://www.yelp.com/biz/pick-up-stix-san-marcos?adjust_creative=oncXGL2aPIKrtJdnWeFSnA&utm_campaign=yelp_api_v3&utm_medium=api_v3_business_search&utm_source=oncXGL2aPIKrtJdnWeFSnA", "review_count": 40, "categories": [{"alias": "asianfusion", "title": "Asian Fusion"}, {"alias": "chinese", "title": "Chinese"}], "rating": 3.5, "coordinates": {"latitude": 33.1363380760568, "longitude": -117.17829991132}, "transactions": ["pickup", "delivery"], "price": "$", "location": {"address1": "595 Grand Ave", "address2": "", "address3": null, "city": "San Marcos", "zip_code": "92078", "country": "US", "state": "CA", "display_address": ["595 Grand Ave", "San Marcos, CA 92078"]}, "phone": "+17607368821", "display_phone": "(760) 736-8821", "distance": 10400.378963990845}, {"id": "8hVcLF8GApEnOBX_kfn-Ww", "alias": "area-41-chow-hall-oceanside", "name": "Area 41 Chow Hall", "image_url": "https://s3-media2.fl.yelpcdn.com/bphoto/ggE8nzzpr6d_mQ0TmbVWXw/o.jpg", "is_closed": false, "url": "https://www.yelp.com/biz/area-41-chow-hall-oceanside?adjust_creative=oncXGL2aPIKrtJdnWeFSnA&utm_campaign=yelp_api_v3&utm_medium=api_v3_business_search&utm_source=oncXGL2aPIKrtJdnWeFSnA", "review_count": 3, "categories": [{"alias": "chinese", "title": "Chinese"}], "rating": 3.5, "coordinates": {"latitude": 33.2884892007918, "longitude": -117.437762731454}, "transactions": [], "price": "$", "location": {"address1": "Nelson Rd", "address2": "", "address3": "", "city": "Oceanside", "zip_code": "92058", "country": "US", "state": "CA", "display_address": ["Nelson Rd", "Oceanside, CA 92058"]}, "phone": "", "display_phone": "", "distance": 23134.705814972534}, {"id": "--4B6GkzqEh3P_ajSEmFiA", "alias": "yenchim-garden-restaurant-san-diego", "name": "Yenchim Garden Restaurant", "image_url": "https://s3-media1.fl.yelpcdn.com/bphoto/8BCn-Asv5R26vFbjErFE5w/o.jpg", "is_closed": false, "url": "https://www.yelp.com/biz/yenchim-garden-restaurant-san-diego?adjust_creative=oncXGL2aPIKrtJdnWeFSnA&utm_campaign=yelp_api_v3&utm_medium=api_v3_business_search&utm_source=oncXGL2aPIKrtJdnWeFSnA", "review_count": 294, "categories": [{"alias": "chinese", "title": "Chinese"}], "rating": 4.0, "coordinates": {"latitude": 32.9589952257099, "longitude": -117.124592730411}, "transactions": [], "price": "$$", "location": {"address1": "13297 Black Mountain Rd", "address2": "", "address3": "", "city": "San Diego", "zip_code": "92129", "country": "US", "state": "CA", "display_address": ["13297 Black Mountain Rd", "San Diego, CA 92129"]}, "phone": "+18584847277", "display_phone": "(858) 484-7277", "distance": 23714.056982229107}, {"id": "TATaA36Q92ZZzcIDl2uewQ", "alias": "panda-express-san-marcos-3", "name": "Panda Express", "image_url": "https://s3-media2.fl.yelpcdn.com/bphoto/MAyOu0GQk295RpKa7JzX2w/o.jpg", "is_closed": false, "url": "https://www.yelp.com/biz/panda-express-san-marcos-3?adjust_creative=oncXGL2aPIKrtJdnWeFSnA&utm_campaign=yelp_api_v3&utm_medium=api_v3_business_search&utm_source=oncXGL2aPIKrtJdnWeFSnA", "review_count": 68, "categories": [{"alias": "chinese", "title": "Chinese"}, {"alias": "hotdogs", "title": "Fast Food"}], "rating": 3.0, "coordinates": {"latitude": 33.137946, "longitude": -117.178043}, "transactions": [], "price": "$", "location": {"address1": "670 W San Marcos Blvd", "address2": "", "address3": "", "city": "San Marcos", "zip_code": "92069", "country": "US", "state": "CA", "display_address": ["670 W San Marcos Blvd", "San Marcos, CA 92069"]}, "phone": "+17605910392", "display_phone": "(760) 591-0392", "distance": 10452.797574169357}, {"id": "bqQBGt1XmJT6249aXlVXDw", "alias": "panda-wok-vista-2", "name": "Panda Wok", "image_url": "https://s3-media3.fl.yelpcdn.com/bphoto/pxlvWnkCX9HnrBVN8D3WSg/o.jpg", "is_closed": false, "url": "https://www.yelp.com/biz/panda-wok-vista-2?adjust_creative=oncXGL2aPIKrtJdnWeFSnA&utm_campaign=yelp_api_v3&utm_medium=api_v3_business_search&utm_source=oncXGL2aPIKrtJdnWeFSnA", "review_count": 57, "categories": [{"alias": "food", "title": "Food"}, {"alias": "chinese", "title": "Chinese"}, {"alias": "hotdogs", "title": "Fast Food"}], "rating": 3.5, "coordinates": {"latitude": 33.1943007998128, "longitude": -117.233854558456}, "transactions": [], "price": "$", "location": {"address1": "904 S Santa Fe Ave", "address2": "", "address3": null, "city": "Vista", "zip_code": "92084", "country": "US", "state": "CA", "display_address": ["904 S Santa Fe Ave", "Vista, CA 92084"]}, "phone": "+14422247378", "display_phone": "(442) 224-7378", "distance": 9523.462114067645}, {"id": "sPAi-LW5GoiZ6DxZLJgE8w", "alias": "panda-express-carlsbad-3", "name": "Panda Express", "image_url": "https://s3-media4.fl.yelpcdn.com/bphoto/mRP1I8J36BvMOefO0G1zSw/o.jpg", "is_closed": false, "url": "https://www.yelp.com/biz/panda-express-carlsbad-3?adjust_creative=oncXGL2aPIKrtJdnWeFSnA&utm_campaign=yelp_api_v3&utm_medium=api_v3_business_search&utm_source=oncXGL2aPIKrtJdnWeFSnA", "review_count": 24, "categories": [{"alias": "chinese", "title": "Chinese"}, {"alias": "hotdogs", "title": "Fast Food"}], "rating": 2.5, "coordinates": {"latitude": 33.1786575, "longitude": -117.3264449}, "transactions": [], "price": "$", "location": {"address1": "2560 El Camino Real", "address2": "", "address3": "", "city": "Carlsbad", "zip_code": "92008", "country": "US", "state": "CA", "display_address": ["2560 El Camino Real", "Carlsbad, CA 92008"]}, "phone": "+17607200028", "display_phone": "(760) 720-0028", "distance": 7147.530078524622}, {"id": "jD5a4u7Z3PRK8JHfnOD26g", "alias": "chinex-grill-carlsbad", "name": "Chinex Grill", "image_url": "", "is_closed": false, "url": "https://www.yelp.com/biz/chinex-grill-carlsbad?adjust_creative=oncXGL2aPIKrtJdnWeFSnA&utm_campaign=yelp_api_v3&utm_medium=api_v3_business_search&utm_source=oncXGL2aPIKrtJdnWeFSnA", "review_count": 12, "categories": [{"alias": "chinese", "title": "Chinese"}], "rating": 2.5, "coordinates": {"latitude": 33.1796684, "longitude": -117.3270187}, "transactions": [], "price": "$$", "location": {"address1": "2525 El Camino Real", "address2": "", "address3": "", "city": "Carlsbad", "zip_code": "92008", "country": "US", "state": "CA", "display_address": ["2525 El Camino Real", "Carlsbad, CA 92008"]}, "phone": "+17607291817", "display_phone": "(760) 729-1817", "distance": 7444.600243293059}, {"id": "Dadjxp4g0vNUxCO3m1ApSg", "alias": "panda-express-solana-beach", "name": "Panda Express", "image_url": "https://s3-media2.fl.yelpcdn.com/bphoto/_LKdep-ptUmEtzGEXq1hVg/o.jpg", "is_closed": false, "url": "https://www.yelp.com/biz/panda-express-solana-beach?adjust_creative=oncXGL2aPIKrtJdnWeFSnA&utm_campaign=yelp_api_v3&utm_medium=api_v3_business_search&utm_source=oncXGL2aPIKrtJdnWeFSnA", "review_count": 31, "categories": [{"alias": "chinese", "title": "Chinese"}, {"alias": "hotdogs", "title": "Fast Food"}], "rating": 3.0, "coordinates": {"latitude": 32.9958852, "longitude": -117.2594862}, "transactions": [], "price": "$", "location": {"address1": "689 Lomas Santa Fe Dr", "address2": "", "address3": "", "city": "Solana Beach", "zip_code": "92075", "country": "US", "state": "CA", "display_address": ["689 Lomas Santa Fe Dr", "Solana Beach, CA 92075"]}, "phone": "+18585099066", "display_phone": "(858) 509-9066", "distance": 14430.22426085655}, {"id": "c9PmC1tfhl2P5AYgkrJG6w", "alias": "pei-wei-san-diego-2", "name": "Pei Wei", "image_url": "https://s3-media1.fl.yelpcdn.com/bphoto/vqrvU59Zpe0d0rj65f9NQg/o.jpg", "is_closed": false, "url": "https://www.yelp.com/biz/pei-wei-san-diego-2?adjust_creative=oncXGL2aPIKrtJdnWeFSnA&utm_campaign=yelp_api_v3&utm_medium=api_v3_business_search&utm_source=oncXGL2aPIKrtJdnWeFSnA", "review_count": 247, "categories": [{"alias": "asianfusion", "title": "Asian Fusion"}, {"alias": "chinese", "title": "Chinese"}, {"alias": "gluten_free", "title": "Gluten-Free"}], "rating": 2.5, "coordinates": {"latitude": 33.019783, "longitude": -117.110514}, "transactions": [], "price": "$", "location": {"address1": "10562 Craftsman Way", "address2": "", "address3": "", "city": "San Diego", "zip_code": "92127", "country": "US", "state": "CA", "display_address": ["10562 Craftsman Way", "San Diego, CA 92127"]}, "phone": "+18582072730", "display_phone": "(858) 207-2730", "distance": 20117.511666227634}, {"id": "2BrFsg9tc7HAcaq97bxAZQ", "alias": "pick-up-stix-oceanside", "name": "Pick Up Stix", "image_url": "https://s3-media4.fl.yelpcdn.com/bphoto/P3k-AKUUxVlsSRPmaVN5Qw/o.jpg", "is_closed": false, "url": "https://www.yelp.com/biz/pick-up-stix-oceanside?adjust_creative=oncXGL2aPIKrtJdnWeFSnA&utm_campaign=yelp_api_v3&utm_medium=api_v3_business_search&utm_source=oncXGL2aPIKrtJdnWeFSnA", "review_count": 75, "categories": [{"alias": "chinese", "title": "Chinese"}, {"alias": "asianfusion", "title": "Asian Fusion"}], "rating": 2.5, "coordinates": {"latitude": 33.230465, "longitude": -117.309383}, "transactions": ["pickup", "delivery"], "price": "$", "location": {"address1": "125 Old Grove Rd", "address2": "Ste 6", "address3": "", "city": "Oceanside", "zip_code": "92057", "country": "US", "state": "CA", "display_address": ["125 Old Grove Rd", "Ste 6", "Oceanside, CA 92057"]}, "phone": "+17609674081", "display_phone": "(760) 967-4081", "distance": 12215.733223000088}, {"id": "-pGud-5Qbq2awWdwMygHBg", "alias": "chins-szechwan-escondido", "name": "Chin's Szechwan", "image_url": "https://s3-media1.fl.yelpcdn.com/bphoto/uKAroBoFot312ACKzOoUbg/o.jpg", "is_closed": false, "url": "https://www.yelp.com/biz/chins-szechwan-escondido?adjust_creative=oncXGL2aPIKrtJdnWeFSnA&utm_campaign=yelp_api_v3&utm_medium=api_v3_business_search&utm_source=oncXGL2aPIKrtJdnWeFSnA", "review_count": 148, "categories": [{"alias": "chinese", "title": "Chinese"}, {"alias": "asianfusion", "title": "Asian Fusion"}], "rating": 3.5, "coordinates": {"latitude": 33.12382, "longitude": -117.08705}, "transactions": ["pickup"], "price": "$$", "location": {"address1": "445 N Escondido Blvd", "address2": "", "address3": "", "city": "Escondido", "zip_code": "92025", "country": "US", "state": "CA", "display_address": ["445 N Escondido Blvd", "Escondido, CA 92025"]}, "phone": "+17604804115", "display_phone": "(760) 480-4115", "distance": 18782.03690125751}], "total": 66, "region": {"center": {"longitude": -117.28866577148438, "latitude": 33.12198326621279}}}