{"businesses": [{"id": "X9o5yDQvuMicYH50Lrvr8g", "alias": "tip-top-meats-and-european-delicatessen-carlsbad", "name": "Tip Top Meats & European Delicatessen", "image_url": "https://s3-media3.fl.yelpcdn.com/bphoto/w0tz89Qs5mwmXSGy_IYrjg/o.jpg", "is_closed": false, "url": "https://www.yelp.com/biz/tip-top-meats-and-european-delicatessen-carlsbad?adjust_creative=oncXGL2aPIKrtJdnWeFSnA&utm_campaign=yelp_api_v3&utm_medium=api_v3_business_search&utm_source=oncXGL2aPIKrtJdnWeFSnA", "review_count": 1514, "categories": [{"alias": "meats", "title": "Meat Shops"}, {"alias": "delis", "title": "Delis"}], "rating": 4.0, "coordinates": {"latitude": 33.1197299, "longitude": -117.31853}, "transactions": [], "price": "$", "location": {"address1": "6118 Paseo Del Norte", "address2": "", "address3": "", "city": "Carlsbad", "zip_code": "92011", "country": "US", "state": "CA", "display_address": ["6118 Paseo Del Norte", "Carlsbad, CA 92011"]}, "phone": "+17604382620", "display_phone": "(760) 438-2620", "distance": 2792.680162090649}, {"id": "lPFKybOVx2gRLClTzIujdg", "alias": "bologna-gourmet-carlsbad", "name": "Bologna Gourmet", "image_url": "https://s3-media3.fl.yelpcdn.com/bphoto/MdIdPh2bo_Dme675CPztRw/o.jpg", "is_closed": false, "url": "https://www.yelp.com/biz/bologna-gourmet-carlsbad?adjust_creative=oncXGL2aPIKrtJdnWeFSnA&utm_campaign=yelp_api_v3&utm_medium=api_v3_business_search&utm_source=oncXGL2aPIKrtJdnWeFSnA", "review_count": 150, "categories": [{"alias": "delis", "title": "Delis"}, {"alias": "italian", "title": "Italian"}, {"alias": "pastashops", "title": "Pasta Shops"}], "rating": 4.5, "coordinates": {"latitude": 33.12392, "longitude": -117.27351}, "transactions": ["pickup"], "price": "$", "location": {"address1": "6150 Yarrow Dr", "address2": null, "address3": "", "city": "Carlsbad", "zip_code": "92011", "country": "US", "state": "CA", "display_address": ["6150 Yarrow Dr", "Carlsbad, CA 92011"]}, "phone": "+17609290877", "display_phone": "(760) 929-0877", "distance": 1419.5784245734824}, {"id": "NQ4QOOTbYW9MfseqwRFZcQ", "alias": "2051-cafe-carlsbad", "name": "2051 Cafe", "image_url": "https://s3-media3.fl.yelpcdn.com/bphoto/2FSNyrghNITP3L21VkbrPw/o.jpg", "is_closed": false, "url": "https://www.yelp.com/biz/2051-cafe-carlsbad?adjust_creative=oncXGL2aPIKrtJdnWeFSnA&utm_campaign=yelp_api_v3&utm_medium=api_v3_business_search&utm_source=oncXGL2aPIKrtJdnWeFSnA", "review_count": 82, "categories": [{"alias": "cafes", "title": "Cafes"}, {"alias": "delis", "title": "Delis"}, {"alias": "italian", "title": "Italian"}], "rating": 5.0, "coordinates": {"latitude": 33.1224971661327, "longitude": -117.276416666667}, "transactions": [], "price": "$$", "location": {"address1": "2051 Palomar Airport Rd", "address2": "Ste 175", "address3": null, "city": "Carlsbad", "zip_code": "92011", "country": "US", "state": "CA", "display_address": ["2051 Palomar Airport Rd", "Ste 175", "Carlsbad, CA 92011"]}, "phone": "+17608142831", "display_phone": "(760) 814-2831", "distance": 1142.1452775691298}, {"id": "TSSfmgrpOfGomSz9fTQUmA", "alias": "yoshino-japanese-deli-carlsbad", "name": "Yoshino Japanese Deli", "image_url": "https://s3-media1.fl.yelpcdn.com/bphoto/8P632tFx8oym5M-7pqfemA/o.jpg", "is_closed": false, "url": "https://www.yelp.com/biz/yoshino-japanese-deli-carlsbad?adjust_creative=oncXGL2aPIKrtJdnWeFSnA&utm_campaign=yelp_api_v3&utm_medium=api_v3_business_search&utm_source=oncXGL2aPIKrtJdnWeFSnA", "review_count": 726, "categories": [{"alias": "japanese", "title": "Japanese"}, {"alias": "sushi", "title": "Sushi Bars"}, {"alias": "delis", "title": "Delis"}], "rating": 4.5, "coordinates": {"latitude": 33.1603163, "longitude": -117.3495182}, "transactions": [], "price": "$", "location": {"address1": "2913 State St", "address2": "", "address3": "", "city": "Carlsbad", "zip_code": "92008", "country": "US", "state": "CA", "display_address": ["2913 State St", "Carlsbad, CA 92008"]}, "phone": "+17608890309", "display_phone": "(760) 889-0309", "distance": 7100.248704606751}, {"id": "vg2qCNbyoSPh720vJXyqtA", "alias": "lolas-7-up-market-and-deli-carlsbad", "name": "Lola's 7 Up Market & Deli", "image_url": "https://s3-media3.fl.yelpcdn.com/bphoto/h5kxWvohZgtuEqxAhi6WSA/o.jpg", "is_closed": false, "url": "https://www.yelp.com/biz/lolas-7-up-market-and-deli-carlsbad?adjust_creative=oncXGL2aPIKrtJdnWeFSnA&utm_campaign=yelp_api_v3&utm_medium=api_v3_business_search&utm_source=oncXGL2aPIKrtJdnWeFSnA", "review_count": 247, "categories": [{"alias": "delis", "title": "Delis"}, {"alias": "mexican", "title": "Mexican"}], "rating": 4.5, "coordinates": {"latitude": 33.1571353, "longitude": -117.3450053}, "transactions": [], "price": "$", "location": {"address1": "3292 Roosevelt St", "address2": "", "address3": "", "city": "Carlsbad", "zip_code": "92008", "country": "US", "state": "CA", "display_address": ["3292 Roosevelt St", "Carlsbad, CA 92008"]}, "phone": "+17604342191", "display_phone": "(760) 434-2191", "distance": 6533.468731275143}, {"id": "T7clD90oNlDnp9qlvziAOw", "alias": "on-a-roll-carlsbad", "name": "On A Roll", "image_url": "https://s3-media2.fl.yelpcdn.com/bphoto/hfliA0C0D5yL6SCzJG4wUA/o.jpg", "is_closed": false, "url": "https://www.yelp.com/biz/on-a-roll-carlsbad?adjust_creative=oncXGL2aPIKrtJdnWeFSnA&utm_campaign=yelp_api_v3&utm_medium=api_v3_business_search&utm_source=oncXGL2aPIKrtJdnWeFSnA", "review_count": 78, "categories": [{"alias": "sandwiches", "title": "Sandwiches"}, {"alias": "delis", "title": "Delis"}], "rating": 4.5, "coordinates": {"latitude": 33.131852, "longitude": -117.253401}, "transactions": [], "price": "$", "location": {"address1": "2794 Loker Ave W", "address2": "Ste 110", "address3": "", "city": "Carlsbad", "zip_code": "92008", "country": "US", "state": "CA", "display_address": ["2794 Loker Ave W", "Ste 110", "Carlsbad, CA 92008"]}, "phone": "+17604318148", "display_phone": "(760) 431-8148", "distance": 3462.4007917889094}, {"id": "vNiijPbS2EX77YXgdwdMDA", "alias": "garden-state-bagels-carlsbad-5", "name": "Garden State Bagels", "image_url": "https://s3-media1.fl.yelpcdn.com/bphoto/-l5C6qen71OpD3jU9rpkyQ/o.jpg", "is_closed": false, "url": "https://www.yelp.com/biz/garden-state-bagels-carlsbad-5?adjust_creative=oncXGL2aPIKrtJdnWeFSnA&utm_campaign=yelp_api_v3&utm_medium=api_v3_business_search&utm_source=oncXGL2aPIKrtJdnWeFSnA", "review_count": 2, "categories": [{"alias": "bagels", "title": "Bagels"}, {"alias": "sandwiches", "title": "Sandwiches"}, {"alias": "delis", "title": "Delis"}], "rating": 5.0, "coordinates": {"latitude": 33.12129, "longitude": -117.31881}, "transactions": [], "location": {"address1": "6020 Paseo Del Norte", "address2": "", "address3": null, "city": "Carlsbad", "zip_code": "92011", "country": "US", "state": "CA", "display_address": ["6020 Paseo Del Norte", "Carlsbad, CA 92011"]}, "phone": "+17604761000", "display_phone": "(760) 476-1000", "distance": 2800.093643894069}, {"id": "-ZJVaXutyni9O9dou0sJTA", "alias": "campus-cafe-carlsbad", "name": "Campus Cafe", "image_url": "https://s3-media1.fl.yelpcdn.com/bphoto/cyjsjGYNkARnS83MdlvveA/o.jpg", "is_closed": false, "url": "https://www.yelp.com/biz/campus-cafe-carlsbad?adjust_creative=oncXGL2aPIKrtJdnWeFSnA&utm_campaign=yelp_api_v3&utm_medium=api_v3_business_search&utm_source=oncXGL2aPIKrtJdnWeFSnA", "review_count": 121, "categories": [{"alias": "delis", "title": "Delis"}, {"alias": "cafes", "title": "Cafes"}, {"alias": "sandwiches", "title": "Sandwiches"}], "rating": 4.5, "coordinates": {"latitude": 33.131802, "longitude": -117.270076}, "transactions": [], "price": "$", "location": {"address1": "5966 La Place Ct", "address2": "Ste 150", "address3": "", "city": "Carlsbad", "zip_code": "92008", "country": "US", "state": "CA", "display_address": ["5966 La Place Ct", "Ste 150", "Carlsbad, CA 92008"]}, "phone": "+17604319210", "display_phone": "(760) 431-9210", "distance": 2046.6411863271271}, {"id": "QoJO1cPX-SiQZBuI7NtzBg", "alias": "judys-deli-carlsbad", "name": "Judy's Deli", "image_url": "https://s3-media1.fl.yelpcdn.com/bphoto/0LG0xZjWEJwIsXG2o5J6Mg/o.jpg", "is_closed": false, "url": "https://www.yelp.com/biz/judys-deli-carlsbad?adjust_creative=oncXGL2aPIKrtJdnWeFSnA&utm_campaign=yelp_api_v3&utm_medium=api_v3_business_search&utm_source=oncXGL2aPIKrtJdnWeFSnA", "review_count": 42, "categories": [{"alias": "delis", "title": "Delis"}], "rating": 4.5, "coordinates": {"latitude": 33.1183369553985, "longitude": -117.278504349074}, "transactions": [], "price": "$", "location": {"address1": "2035 Corte Del Nogal", "address2": "", "address3": "", "city": "Carlsbad", "zip_code": "92009", "country": "US", "state": "CA", "display_address": ["2035 Corte Del Nogal", "Carlsbad, CA 92009"]}, "phone": "+17604317108", "display_phone": "(760) 431-7108", "distance": 1029.519311911742}, {"id": "3uB95QdjNeKLqgacUi5zZA", "alias": "hungry-bear-deli-vista-3", "name": "Hungry Bear Deli", "image_url": "https://s3-media4.fl.yelpcdn.com/bphoto/D-Zx1rFya6pEneGjl0tQpw/o.jpg", "is_closed": false, "url": "https://www.yelp.com/biz/hungry-bear-deli-vista-3?adjust_creative=oncXGL2aPIKrtJdnWeFSnA&utm_campaign=yelp_api_v3&utm_medium=api_v3_business_search&utm_source=oncXGL2aPIKrtJdnWeFSnA", "review_count": 578, "categories": [{"alias": "delis", "title": "Delis"}, {"alias": "sandwiches", "title": "Sandwiches"}, {"alias": "salad", "title": "Salad"}], "rating": 4.5, "coordinates": {"latitude": 33.14637, "longitude": -117.24163}, "transactions": [], "price": "$", "location": {"address1": "2205 S Melrose Dr", "address2": "Ste 103", "address3": "", "city": "Vista", "zip_code": "92081", "country": "US", "state": "CA", "display_address": ["2205 S Melrose Dr", "Ste 103", "Vista, CA 92081"]}, "phone": "+17602952295", "display_phone": "(760) 295-2295", "distance": 5150.893149000353}, {"id": "ifX08kFZ4I2madZUxzf1sA", "alias": "off-the-vine-gardens-deli-and-catering-carlsbad", "name": "Off the Vine Gardens Deli & Catering", "image_url": "https://s3-media3.fl.yelpcdn.com/bphoto/OfutisH7Zfj2KuAgqnRS-w/o.jpg", "is_closed": false, "url": "https://www.yelp.com/biz/off-the-vine-gardens-deli-and-catering-carlsbad?adjust_creative=oncXGL2aPIKrtJdnWeFSnA&utm_campaign=yelp_api_v3&utm_medium=api_v3_business_search&utm_source=oncXGL2aPIKrtJdnWeFSnA", "review_count": 41, "categories": [{"alias": "delis", "title": "Delis"}], "rating": 4.5, "coordinates": {"latitude": 33.1203511, "longitude": -117.2678072}, "transactions": [], "price": "$", "location": {"address1": "2382 Camino Vida Roble", "address2": "", "address3": "", "city": "Carlsbad", "zip_code": "92011", "country": "US", "state": "CA", "display_address": ["2382 Camino Vida Roble", "Carlsbad, CA 92011"]}, "phone": "+17604387701", "display_phone": "(760) 438-7701", "distance": 1950.9670032499732}, {"id": "5a01fuDf95DlUVxMZ0ahJA", "alias": "la-place-deli-carlsbad", "name": "La Place Deli", "image_url": "https://s3-media2.fl.yelpcdn.com/bphoto/3QhPlugX6JSDtvhIQpoelg/o.jpg", "is_closed": false, "url": "https://www.yelp.com/biz/la-place-deli-carlsbad?adjust_creative=oncXGL2aPIKrtJdnWeFSnA&utm_campaign=yelp_api_v3&utm_medium=api_v3_business_search&utm_source=oncXGL2aPIKrtJdnWeFSnA", "review_count": 43, "categories": [{"alias": "delis", "title": "Delis"}], "rating": 4.5, "coordinates": {"latitude": 33.1325855, "longitude": -117.2720141}, "transactions": [], "price": "$", "location": {"address1": "5950 La Place Ct", "address2": "Ste 150", "address3": "", "city": "Carlsbad", "zip_code": "92008", "country": "US", "state": "CA", "display_address": ["5950 La Place Ct", "Ste 150", "Carlsbad, CA 92008"]}, "phone": "+17604310584", "display_phone": "(760) 431-0584", "distance": 2004.706568789347}, {"id": "j_te1-9iaR9wKninc321ZA", "alias": "jimbos-naturally-carlsbad-2", "name": "Jimbo's Naturally", "image_url": "https://s3-media1.fl.yelpcdn.com/bphoto/K3ygk02bWaDy5LYckJr-YA/o.jpg", "is_closed": false, "url": "https://www.yelp.com/biz/jimbos-naturally-carlsbad-2?adjust_creative=oncXGL2aPIKrtJdnWeFSnA&utm_campaign=yelp_api_v3&utm_medium=api_v3_business_search&utm_source=oncXGL2aPIKrtJdnWeFSnA", "review_count": 183, "categories": [{"alias": "grocery", "title": "Grocery"}, {"alias": "delis", "title": "Delis"}, {"alias": "healthmarkets", "title": "Health Markets"}], "rating": 4.0, "coordinates": {"latitude": 33.0723073917475, "longitude": -117.265005342293}, "transactions": [], "price": "$$", "location": {"address1": "1923 Calle Barcelona", "address2": "Ste 149", "address3": "", "city": "Carlsbad", "zip_code": "92009", "country": "US", "state": "CA", "display_address": ["1923 Calle Barcelona", "Ste 149", "Carlsbad, CA 92009"]}, "phone": "+17603347755", "display_phone": "(760) 334-7755", "distance": 5947.187770649817}, {"id": "zbgK2W9N6akeTIsjVXPjXg", "alias": "gelsons-market-carlsbad", "name": "Gelson's Market", "image_url": "https://s3-media1.fl.yelpcdn.com/bphoto/vtZXWaYbDjXh9bslEWSuvA/o.jpg", "is_closed": false, "url": "https://www.yelp.com/biz/gelsons-market-carlsbad?adjust_creative=oncXGL2aPIKrtJdnWeFSnA&utm_campaign=yelp_api_v3&utm_medium=api_v3_business_search&utm_source=oncXGL2aPIKrtJdnWeFSnA", "review_count": 113, "categories": [{"alias": "delis", "title": "Delis"}, {"alias": "grocery", "title": "Grocery"}, {"alias": "wine_bars", "title": "Wine Bars"}], "rating": 3.5, "coordinates": {"latitude": 33.08707, "longitude": -117.26757}, "transactions": [], "price": "$$", "location": {"address1": "7660 El Camino Real", "address2": "", "address3": "", "city": "Carlsbad", "zip_code": "92009", "country": "US", "state": "CA", "display_address": ["7660 El Camino Real", "Carlsbad, CA 92009"]}, "phone": "+17606327511", "display_phone": "(760) 632-7511", "distance": 4343.7061705097385}, {"id": "lENUpZIYiGYyj3MQz66yXw", "alias": "ranch-market-vista-2", "name": "Ranch Market", "image_url": "", "is_closed": false, "url": "https://www.yelp.com/biz/ranch-market-vista-2?adjust_creative=oncXGL2aPIKrtJdnWeFSnA&utm_campaign=yelp_api_v3&utm_medium=api_v3_business_search&utm_source=oncXGL2aPIKrtJdnWeFSnA", "review_count": 1, "categories": [{"alias": "delis", "title": "Delis"}, {"alias": "grocery", "title": "Grocery"}, {"alias": "juicebars", "title": "Juice Bars & Smoothies"}], "rating": 4.0, "coordinates": {"latitude": 33.13312, "longitude": -117.22957}, "transactions": [], "location": {"address1": "3225 Business Park Dr", "address2": "", "address3": null, "city": "Vista", "zip_code": "92081", "country": "US", "state": "CA", "display_address": ["3225 Business Park Dr", "Vista, CA 92081"]}, "phone": "+17605997043", "display_phone": "(760) 599-7043", "distance": 5637.552950532862}, {"id": "ICzXLXsx5L1VAoCm3su0ow", "alias": "boba-hut-and-deli-vista", "name": "Boba Hut And Deli", "image_url": "https://s3-media2.fl.yelpcdn.com/bphoto/s6QShhZJQhWb5ZxauxUI9A/o.jpg", "is_closed": false, "url": "https://www.yelp.com/biz/boba-hut-and-deli-vista?adjust_creative=oncXGL2aPIKrtJdnWeFSnA&utm_campaign=yelp_api_v3&utm_medium=api_v3_business_search&utm_source=oncXGL2aPIKrtJdnWeFSnA", "review_count": 115, "categories": [{"alias": "juicebars", "title": "Juice Bars & Smoothies"}, {"alias": "bubbletea", "title": "Bubble Tea"}, {"alias": "delis", "title": "Delis"}], "rating": 4.0, "coordinates": {"latitude": 33.16585, "longitude": -117.24543}, "transactions": [], "price": "$", "location": {"address1": "1680 S Melrose Dr", "address2": "Ste 101", "address3": "", "city": "Vista", "zip_code": "92081", "country": "US", "state": "CA", "display_address": ["1680 S Melrose Dr", "Ste 101", "Vista, CA 92081"]}, "phone": "+17602245848", "display_phone": "(760) 224-5848", "distance": 6316.799173752901}, {"id": "icZPyv__2fxc9NvQFFI_hg", "alias": "i-love-bagels-oceanside", "name": "I Love Bagels", "image_url": "https://s3-media3.fl.yelpcdn.com/bphoto/Iz6Agez9hEAw18U2BStdxw/o.jpg", "is_closed": false, "url": "https://www.yelp.com/biz/i-love-bagels-oceanside?adjust_creative=oncXGL2aPIKrtJdnWeFSnA&utm_campaign=yelp_api_v3&utm_medium=api_v3_business_search&utm_source=oncXGL2aPIKrtJdnWeFSnA", "review_count": 285, "categories": [{"alias": "delis", "title": "Delis"}, {"alias": "bagels", "title": "Bagels"}, {"alias": "sandwiches", "title": "Sandwiches"}], "rating": 4.0, "coordinates": {"latitude": 33.18448, "longitude": -117.29369}, "transactions": [], "price": "$", "location": {"address1": "3910 Vista Way Unit", "address2": "Ste 101", "address3": "", "city": "Oceanside", "zip_code": "92056", "country": "US", "state": "CA", "display_address": ["3910 Vista Way Unit", "Ste 101", "Oceanside, CA 92056"]}, "phone": "+17609453838", "display_phone": "(760) 945-3838", "distance": 6968.773612376084}, {"id": "MHO_ugU11W8ZJ26wi93fTA", "alias": "stater-bros-markets-carlsbad-2", "name": "Stater Bros. Markets", "image_url": "https://s3-media2.fl.yelpcdn.com/bphoto/q14g-qeruIdFGEZ19KUxTQ/o.jpg", "is_closed": false, "url": "https://www.yelp.com/biz/stater-bros-markets-carlsbad-2?adjust_creative=oncXGL2aPIKrtJdnWeFSnA&utm_campaign=yelp_api_v3&utm_medium=api_v3_business_search&utm_source=oncXGL2aPIKrtJdnWeFSnA", "review_count": 94, "categories": [{"alias": "grocery", "title": "Grocery"}, {"alias": "butcher", "title": "Butcher"}, {"alias": "delis", "title": "Delis"}], "rating": 3.0, "coordinates": {"latitude": 33.126631, "longitude": -117.251903}, "transactions": [], "price": "$$", "location": {"address1": "2687 Gateway Rd", "address2": "", "address3": "", "city": "Carlsbad", "zip_code": "92009", "country": "US", "state": "CA", "display_address": ["2687 Gateway Rd", "Carlsbad, CA 92009"]}, "phone": "+17609297900", "display_phone": "(760) 929-7900", "distance": 3462.291595306757}, {"id": "UkRTgZnlewR-uaUR-1_LYg", "alias": "forum-deli-carlsbad", "name": "Forum Deli", "image_url": "https://s3-media3.fl.yelpcdn.com/bphoto/QDU6WceoP5yGZE9v-ZeEQw/o.jpg", "is_closed": false, "url": "https://www.yelp.com/biz/forum-deli-carlsbad?adjust_creative=oncXGL2aPIKrtJdnWeFSnA&utm_campaign=yelp_api_v3&utm_medium=api_v3_business_search&utm_source=oncXGL2aPIKrtJdnWeFSnA", "review_count": 19, "categories": [{"alias": "salad", "title": "Salad"}, {"alias": "delis", "title": "Delis"}, {"alias": "sandwiches", "title": "Sandwiches"}], "rating": 4.5, "coordinates": {"latitude": 33.13083, "longitude": -117.24115}, "transactions": ["delivery", "pickup"], "price": "$", "location": {"address1": "3132 Tiger Run Ct", "address2": "Ste 107", "address3": "", "city": "Carlsbad", "zip_code": "92010", "country": "US", "state": "CA", "display_address": ["3132 Tiger Run Ct", "Ste 107", "Carlsbad, CA 92010"]}, "phone": "+17605970228", "display_phone": "(760) 597-0228", "distance": 4417.187045694299}, {"id": "Kq3ZmMu-fY4bvKnqvyAXAw", "alias": "tropical-juices-and-deli-vista", "name": "Tropical Juices & Deli", "image_url": "https://s3-media1.fl.yelpcdn.com/bphoto/66XThM4WCVg5pJwWo0kAww/o.jpg", "is_closed": false, "url": "https://www.yelp.com/biz/tropical-juices-and-deli-vista?adjust_creative=oncXGL2aPIKrtJdnWeFSnA&utm_campaign=yelp_api_v3&utm_medium=api_v3_business_search&utm_source=oncXGL2aPIKrtJdnWeFSnA", "review_count": 192, "categories": [{"alias": "juicebars", "title": "Juice Bars & Smoothies"}, {"alias": "delis", "title": "Delis"}, {"alias": "sandwiches", "title": "Sandwiches"}], "rating": 4.5, "coordinates": {"latitude": 33.1564714, "longitude": -117.2237797}, "transactions": ["pickup"], "price": "$", "location": {"address1": "1116 Sycamore Ave", "address2": "", "address3": "", "city": "Vista", "zip_code": "92081", "country": "US", "state": "CA", "display_address": ["1116 Sycamore Ave", "Vista, CA 92081"]}, "phone": "+17605987039", "display_phone": "(760) 598-7039", "distance": 7202.100510144194}, {"id": "hESQ-5TwOu2fX-CgOjWWag", "alias": "jersey-mikes-subs-carlsbad-4", "name": "Jersey Mike's Subs", "image_url": "https://s3-media4.fl.yelpcdn.com/bphoto/dzWdjIwH4ALDZ9d2OBQpSQ/o.jpg", "is_closed": false, "url": "https://www.yelp.com/biz/jersey-mikes-subs-carlsbad-4?adjust_creative=oncXGL2aPIKrtJdnWeFSnA&utm_campaign=yelp_api_v3&utm_medium=api_v3_business_search&utm_source=oncXGL2aPIKrtJdnWeFSnA", "review_count": 86, "categories": [{"alias": "sandwiches", "title": "Sandwiches"}, {"alias": "hotdogs", "title": "Fast Food"}, {"alias": "delis", "title": "Delis"}], "rating": 3.5, "coordinates": {"latitude": 33.127271, "longitude": -117.269688}, "transactions": [], "price": "$", "location": {"address1": "2521 Palomar Airport Rd", "address2": "Ste 6-104", "address3": "", "city": "Carlsbad", "zip_code": "92011", "country": "US", "state": "CA", "display_address": ["2521 Palomar Airport Rd", "Ste 6-104", "Carlsbad, CA 92011"]}, "phone": "+17604317600", "display_phone": "(760) 431-7600", "distance": 1862.5244345927129}, {"id": "-7sl6bSICSFzNFqmlqdDrQ", "alias": "the-pointed-roof-delicatessen-escondido", "name": "The Pointed Roof Delicatessen", "image_url": "https://s3-media1.fl.yelpcdn.com/bphoto/1-vD3woH6n3d65MLkD466w/o.jpg", "is_closed": false, "url": "https://www.yelp.com/biz/the-pointed-roof-delicatessen-escondido?adjust_creative=oncXGL2aPIKrtJdnWeFSnA&utm_campaign=yelp_api_v3&utm_medium=api_v3_business_search&utm_source=oncXGL2aPIKrtJdnWeFSnA", "review_count": 175, "categories": [{"alias": "delis", "title": "Delis"}, {"alias": "sandwiches", "title": "Sandwiches"}, {"alias": "breakfast_brunch", "title": "Breakfast & Brunch"}], "rating": 4.5, "coordinates": {"latitude": 33.249429, "longitude": -117.1463397}, "transactions": [], "price": "$", "location": {"address1": "8751 Old Castle Rd", "address2": "Ste C", "address3": "", "city": "Escondido", "zip_code": "92026", "country": "US", "state": "CA", "display_address": ["8751 Old Castle Rd", "Ste C", "Escondido, CA 92026"]}, "phone": "+17607499866", "display_phone": "(760) 749-9866", "distance": 19397.12390695143}, {"id": "SqtnbJ2awhAYYZP0a2gYIw", "alias": "the-sandwich-spot-encinitas-2", "name": "The Sandwich Spot", "image_url": "https://s3-media3.fl.yelpcdn.com/bphoto/PpW-N3v4h3jqzMZ-SHh0Ag/o.jpg", "is_closed": false, "url": "https://www.yelp.com/biz/the-sandwich-spot-encinitas-2?adjust_creative=oncXGL2aPIKrtJdnWeFSnA&utm_campaign=yelp_api_v3&utm_medium=api_v3_business_search&utm_source=oncXGL2aPIKrtJdnWeFSnA", "review_count": 290, "categories": [{"alias": "sandwiches", "title": "Sandwiches"}, {"alias": "delis", "title": "Delis"}, {"alias": "cafes", "title": "Cafes"}], "rating": 4.0, "coordinates": {"latitude": 33.0490435418675, "longitude": -117.29460910975}, "transactions": ["pickup"], "price": "$$", "location": {"address1": "90 N Coast Hwy", "address2": "Ste 103", "address3": "", "city": "Encinitas", "zip_code": "92024", "country": "US", "state": "CA", "display_address": ["90 N Coast Hwy", "Ste 103", "Encinitas, CA 92024"]}, "phone": "+17602302147", "display_phone": "(760) 230-2147", "distance": 8129.3975872189185}, {"id": "gmHkqenw3AIWoB-mQN60-Q", "alias": "lindas-yogurt-and-deli-carlsbad", "name": "Linda's Yogurt & Deli", "image_url": "https://s3-media4.fl.yelpcdn.com/bphoto/6iuMHxkPTR-piQSb9efn4g/o.jpg", "is_closed": false, "url": "https://www.yelp.com/biz/lindas-yogurt-and-deli-carlsbad?adjust_creative=oncXGL2aPIKrtJdnWeFSnA&utm_campaign=yelp_api_v3&utm_medium=api_v3_business_search&utm_source=oncXGL2aPIKrtJdnWeFSnA", "review_count": 120, "categories": [{"alias": "icecream", "title": "Ice Cream & Frozen Yogurt"}, {"alias": "delis", "title": "Delis"}, {"alias": "sandwiches", "title": "Sandwiches"}], "rating": 4.0, "coordinates": {"latitude": 33.1578780537403, "longitude": -117.351289075598}, "transactions": ["pickup", "delivery"], "price": "$", "location": {"address1": "3001 Carlsbad Blvd", "address2": "", "address3": "", "city": "Carlsbad", "zip_code": "92008", "country": "US", "state": "CA", "display_address": ["3001 Carlsbad Blvd", "Carlsbad, CA 92008"]}, "phone": "+17607293005", "display_phone": "(760) 729-3005", "distance": 7065.955602020279}, {"id": "W2faQfnZ5bJBsChMvFbMOw", "alias": "jorges-mexicatessen-encinitas", "name": "Jorge's Mexicatessen", "image_url": "https://s3-media4.fl.yelpcdn.com/bphoto/xSftnqCSghmm7n-g4DsNPQ/o.jpg", "is_closed": false, "url": "https://www.yelp.com/biz/jorges-mexicatessen-encinitas?adjust_creative=oncXGL2aPIKrtJdnWeFSnA&utm_campaign=yelp_api_v3&utm_medium=api_v3_business_search&utm_source=oncXGL2aPIKrtJdnWeFSnA", "review_count": 346, "categories": [{"alias": "delis", "title": "Delis"}, {"alias": "mexican", "title": "Mexican"}], "rating": 4.0, "coordinates": {"latitude": 33.05312, "longitude": -117.260166}, "transactions": [], "price": "$", "location": {"address1": "267 N El Camino Real", "address2": "Ste E", "address3": "", "city": "Encinitas", "zip_code": "92024", "country": "US", "state": "CA", "display_address": ["267 N El Camino Real", "Ste E", "Encinitas, CA 92024"]}, "phone": "+17609426809", "display_phone": "(760) 942-6809", "distance": 8104.504325523089}, {"id": "9mF7DltVsFwnG4z-OhyWdQ", "alias": "north-park-produce-vista", "name": "North Park Produce", "image_url": "https://s3-media4.fl.yelpcdn.com/bphoto/dLuy_fdOhsdS9iCrba1v3w/o.jpg", "is_closed": false, "url": "https://www.yelp.com/biz/north-park-produce-vista?adjust_creative=oncXGL2aPIKrtJdnWeFSnA&utm_campaign=yelp_api_v3&utm_medium=api_v3_business_search&utm_source=oncXGL2aPIKrtJdnWeFSnA", "review_count": 135, "categories": [{"alias": "grocery", "title": "Grocery"}, {"alias": "bakeries", "title": "Bakeries"}, {"alias": "delis", "title": "Delis"}], "rating": 3.5, "coordinates": {"latitude": 33.184873, "longitude": -117.282498}, "transactions": ["pickup", "delivery"], "price": "$", "location": {"address1": "1952 Hacienda Dr", "address2": "", "address3": "", "city": "Vista", "zip_code": "92081", "country": "US", "state": "CA", "display_address": ["1952 Hacienda Dr", "Vista, CA 92081"]}, "phone": "+17606318434", "display_phone": "(760) 631-8434", "distance": 7016.544127821849}, {"id": "Tf5Bs1iL7zWVKBblGPyvlA", "alias": "vistas-icebox-vista", "name": "Vista's Icebox", "image_url": "https://s3-media3.fl.yelpcdn.com/bphoto/HQUs0cv-e6Gya3HSIK2j-g/o.jpg", "is_closed": false, "url": "https://www.yelp.com/biz/vistas-icebox-vista?adjust_creative=oncXGL2aPIKrtJdnWeFSnA&utm_campaign=yelp_api_v3&utm_medium=api_v3_business_search&utm_source=oncXGL2aPIKrtJdnWeFSnA", "review_count": 180, "categories": [{"alias": "delis", "title": "Delis"}, {"alias": "sandwiches", "title": "Sandwiches"}, {"alias": "coffee", "title": "Coffee & Tea"}], "rating": 4.5, "coordinates": {"latitude": 33.1398968, "longitude": -117.2410642}, "transactions": ["pickup", "delivery"], "price": "$", "location": {"address1": "2260 Oak Ridge Way", "address2": "Ste B", "address3": "", "city": "Vista", "zip_code": "92081", "country": "US", "state": "CA", "display_address": ["2260 Oak Ridge Way", "Ste B", "Vista, CA 92081"]}, "phone": "+17605998874", "display_phone": "(760) 599-8874", "distance": 4859.515955631404}, {"id": "UI4Ly-jMvfTSqcrtht8PAg", "alias": "feliccias-italian-restaurant-deli-and-catering-vista", "name": "Feliccia's Italian Restaurant, Deli & Catering", "image_url": "https://s3-media3.fl.yelpcdn.com/bphoto/VQ-18Am3LRTNW9fStBY22g/o.jpg", "is_closed": false, "url": "https://www.yelp.com/biz/feliccias-italian-restaurant-deli-and-catering-vista?adjust_creative=oncXGL2aPIKrtJdnWeFSnA&utm_campaign=yelp_api_v3&utm_medium=api_v3_business_search&utm_source=oncXGL2aPIKrtJdnWeFSnA", "review_count": 104, "categories": [{"alias": "delis", "title": "Delis"}, {"alias": "italian", "title": "Italian"}], "rating": 4.5, "coordinates": {"latitude": 33.1920623779297, "longitude": -117.230804443359}, "transactions": ["delivery", "pickup"], "price": "$$", "location": {"address1": "1011 S Santa Fe Ave", "address2": "Ste C", "address3": "", "city": "Vista", "zip_code": "92083", "country": "US", "state": "CA", "display_address": ["1011 S Santa Fe Ave", "Ste C", "Vista, CA 92083"]}, "phone": "+17607589167", "display_phone": "(760) 758-9167", "distance": 9469.95252529077}, {"id": "YOgU8se3_Ah4eLgIAA4VOg", "alias": "miltons-del-mar", "name": "Milton's", "image_url": "https://s3-media3.fl.yelpcdn.com/bphoto/9tnddk_w9Rx562bQcy1BRQ/o.jpg", "is_closed": false, "url": "https://www.yelp.com/biz/miltons-del-mar?adjust_creative=oncXGL2aPIKrtJdnWeFSnA&utm_campaign=yelp_api_v3&utm_medium=api_v3_business_search&utm_source=oncXGL2aPIKrtJdnWeFSnA", "review_count": 793, "categories": [{"alias": "delis", "title": "Delis"}, {"alias": "sandwiches", "title": "Sandwiches"}, {"alias": "bakeries", "title": "Bakeries"}], "rating": 3.5, "coordinates": {"latitude": 32.9806995, "longitude": -117.2509631}, "transactions": ["delivery", "pickup"], "price": "$$", "location": {"address1": "2660 Via De La Valle", "address2": "", "address3": "", "city": "Del Mar", "zip_code": "92014", "country": "US", "state": "CA", "display_address": ["2660 Via De La Valle", "Del Mar, CA 92014"]}, "phone": "+18587922225", "display_phone": "(858) 792-2225", "distance": 16098.21565012227}, {"id": "67Ka_iWECfjXxuBs_lc6Jg", "alias": "patron-meat-market-and-deli-san-marcos", "name": "Patron Meat Market & Deli", "image_url": "https://s3-media3.fl.yelpcdn.com/bphoto/-c1Lp7jOh6OmmVfSpyKxlg/o.jpg", "is_closed": false, "url": "https://www.yelp.com/biz/patron-meat-market-and-deli-san-marcos?adjust_creative=oncXGL2aPIKrtJdnWeFSnA&utm_campaign=yelp_api_v3&utm_medium=api_v3_business_search&utm_source=oncXGL2aPIKrtJdnWeFSnA", "review_count": 20, "categories": [{"alias": "grocery", "title": "Grocery"}, {"alias": "meats", "title": "Meat Shops"}, {"alias": "delis", "title": "Delis"}], "rating": 4.5, "coordinates": {"latitude": 33.14114, "longitude": -117.16572}, "transactions": [], "price": "$", "location": {"address1": "204 W San Marcos Blvd", "address2": "Ste 101", "address3": "", "city": "San Marcos", "zip_code": "92069", "country": "US", "state": "CA", "display_address": ["204 W San Marcos Blvd", "Ste 101", "San Marcos, CA 92069"]}, "phone": "+17607360086", "display_phone": "(760) 736-0086", "distance": 11656.686918225447}, {"id": "RCIu2HPPtxbpbhELaYZlLw", "alias": "togo-s-sandwiches-carlsbad", "name": "Togo\u2019s Sandwiches", "image_url": "https://s3-media1.fl.yelpcdn.com/bphoto/mriE2sxWTQNn9BIpBYLK7A/o.jpg", "is_closed": false, "url": "https://www.yelp.com/biz/togo-s-sandwiches-carlsbad?adjust_creative=oncXGL2aPIKrtJdnWeFSnA&utm_campaign=yelp_api_v3&utm_medium=api_v3_business_search&utm_source=oncXGL2aPIKrtJdnWeFSnA", "review_count": 52, "categories": [{"alias": "sandwiches", "title": "Sandwiches"}, {"alias": "delis", "title": "Delis"}, {"alias": "hotdogs", "title": "Fast Food"}], "rating": 3.5, "coordinates": {"latitude": 33.1048346, "longitude": -117.2671761}, "transactions": ["delivery", "pickup"], "price": "$", "location": {"address1": "6943 El Camino Real", "address2": "Ste F-105", "address3": "", "city": "Carlsbad", "zip_code": "92009", "country": "US", "state": "CA", "display_address": ["6943 El Camino Real", "Ste F-105", "Carlsbad, CA 92009"]}, "phone": "+17604315010", "display_phone": "(760) 431-5010", "distance": 2730.698304301265}, {"id": "5MfunkTmm9lCZz0rJkGvEw", "alias": "pickles-cafe-deli-carlsbad", "name": "Pickle's Cafe Deli", "image_url": "https://s3-media4.fl.yelpcdn.com/bphoto/sZhuLgYuBGaS-5TMlphR4A/o.jpg", "is_closed": false, "url": "https://www.yelp.com/biz/pickles-cafe-deli-carlsbad?adjust_creative=oncXGL2aPIKrtJdnWeFSnA&utm_campaign=yelp_api_v3&utm_medium=api_v3_business_search&utm_source=oncXGL2aPIKrtJdnWeFSnA", "review_count": 47, "categories": [{"alias": "delis", "title": "Delis"}], "rating": 3.0, "coordinates": {"latitude": 33.1391731649637, "longitude": -117.274861782789}, "transactions": [], "price": "$", "location": {"address1": "5670 El Camino Real", "address2": "", "address3": "", "city": "Carlsbad", "zip_code": "92008", "country": "US", "state": "CA", "display_address": ["5670 El Camino Real", "Carlsbad, CA 92008"]}, "phone": "+17604311333", "display_phone": "(760) 431-1333", "distance": 2319.487852555088}, {"id": "QhA50sLRQrP7M-szjda0CA", "alias": "101-bagels-and-subs-oceanside-2", "name": "101 Bagels & Subs", "image_url": "https://s3-media3.fl.yelpcdn.com/bphoto/V8wPSktyo9fZmY2M_MtTPQ/o.jpg", "is_closed": false, "url": "https://www.yelp.com/biz/101-bagels-and-subs-oceanside-2?adjust_creative=oncXGL2aPIKrtJdnWeFSnA&utm_campaign=yelp_api_v3&utm_medium=api_v3_business_search&utm_source=oncXGL2aPIKrtJdnWeFSnA", "review_count": 192, "categories": [{"alias": "sandwiches", "title": "Sandwiches"}, {"alias": "bagels", "title": "Bagels"}, {"alias": "delis", "title": "Delis"}], "rating": 4.5, "coordinates": {"latitude": 33.19721, "longitude": -117.38099}, "transactions": ["delivery", "pickup"], "price": "$", "location": {"address1": "323 N Coast Hwy", "address2": "Ste C", "address3": "", "city": "Oceanside", "zip_code": "92054", "country": "US", "state": "CA", "display_address": ["323 N Coast Hwy", "Ste C", "Oceanside, CA 92054"]}, "phone": "+17604216555", "display_phone": "(760) 421-6555", "distance": 11995.166181320703}, {"id": "7i-PPdA1TPfs4DSz-fmw3Q", "alias": "hello-deli-vista", "name": "Hello Deli", "image_url": "https://s3-media4.fl.yelpcdn.com/bphoto/8vXC_DipoXMNwYKKDMpQJA/o.jpg", "is_closed": false, "url": "https://www.yelp.com/biz/hello-deli-vista?adjust_creative=oncXGL2aPIKrtJdnWeFSnA&utm_campaign=yelp_api_v3&utm_medium=api_v3_business_search&utm_source=oncXGL2aPIKrtJdnWeFSnA", "review_count": 86, "categories": [{"alias": "delis", "title": "Delis"}, {"alias": "sandwiches", "title": "Sandwiches"}], "rating": 4.5, "coordinates": {"latitude": 33.147847, "longitude": -117.216487}, "transactions": ["delivery", "pickup"], "price": "$", "location": {"address1": "2820 La Mirada Dr", "address2": "Ste A", "address3": "", "city": "Vista", "zip_code": "92081", "country": "US", "state": "CA", "display_address": ["2820 La Mirada Dr", "Ste A", "Vista, CA 92081"]}, "phone": "+17605981055", "display_phone": "(760) 598-1055", "distance": 7310.248219963715}, {"id": "N1zMgpIajvq6i2RRl9Q7kQ", "alias": "beach-hut-deli-oceanside", "name": "Beach Hut Deli", "image_url": "https://s3-media1.fl.yelpcdn.com/bphoto/lFLWdIYjGrVfjSs0MNU40g/o.jpg", "is_closed": false, "url": "https://www.yelp.com/biz/beach-hut-deli-oceanside?adjust_creative=oncXGL2aPIKrtJdnWeFSnA&utm_campaign=yelp_api_v3&utm_medium=api_v3_business_search&utm_source=oncXGL2aPIKrtJdnWeFSnA", "review_count": 152, "categories": [{"alias": "delis", "title": "Delis"}, {"alias": "sportsbars", "title": "Sports Bars"}, {"alias": "sandwiches", "title": "Sandwiches"}], "rating": 4.5, "coordinates": {"latitude": 33.1951368649827, "longitude": -117.381613614535}, "transactions": [], "price": "$$", "location": {"address1": "280 Mission Ave", "address2": null, "address3": "", "city": "Oceanside", "zip_code": "92054", "country": "US", "state": "CA", "display_address": ["280 Mission Ave", "Oceanside, CA 92054"]}, "phone": "+17605299767", "display_phone": "(760) 529-9767", "distance": 11875.578746924555}, {"id": "NrCxekWK0ZwqXmLna6fVkw", "alias": "garden-restaurant-carlsbad", "name": "Garden Restaurant", "image_url": "https://s3-media3.fl.yelpcdn.com/bphoto/l1psZTO4whhWZayR4AUESA/o.jpg", "is_closed": false, "url": "https://www.yelp.com/biz/garden-restaurant-carlsbad?adjust_creative=oncXGL2aPIKrtJdnWeFSnA&utm_campaign=yelp_api_v3&utm_medium=api_v3_business_search&utm_source=oncXGL2aPIKrtJdnWeFSnA", "review_count": 24, "categories": [{"alias": "delis", "title": "Delis"}, {"alias": "salad", "title": "Salad"}, {"alias": "sandwiches", "title": "Sandwiches"}], "rating": 3.0, "coordinates": {"latitude": 33.1262168884277, "longitude": -117.311088562012}, "transactions": [], "price": "$$", "location": {"address1": "1 Legoland Dr", "address2": "", "address3": "", "city": "Carlsbad", "zip_code": "92008", "country": "US", "state": "CA", "display_address": ["1 Legoland Dr", "Carlsbad, CA 92008"]}, "phone": "+17609185346", "display_phone": "(760) 918-5346", "distance": 2217.2436582321247}, {"id": "Ksjbky6X6v1Ieef-3lsncA", "alias": "jersey-mikes-subs-carlsbad-5", "name": "Jersey Mike's Subs", "image_url": "https://s3-media4.fl.yelpcdn.com/bphoto/uEbFYv5xl2bETmgePU1a9g/o.jpg", "is_closed": false, "url": "https://www.yelp.com/biz/jersey-mikes-subs-carlsbad-5?adjust_creative=oncXGL2aPIKrtJdnWeFSnA&utm_campaign=yelp_api_v3&utm_medium=api_v3_business_search&utm_source=oncXGL2aPIKrtJdnWeFSnA", "review_count": 14, "categories": [{"alias": "hotdogs", "title": "Fast Food"}, {"alias": "delis", "title": "Delis"}, {"alias": "sandwiches", "title": "Sandwiches"}], "rating": 3.0, "coordinates": {"latitude": 33.0822313863486, "longitude": -117.233294383222}, "transactions": [], "location": {"address1": "7625 Via Campanile", "address2": "Ste 122", "address3": null, "city": "Carlsbad", "zip_code": "92009", "country": "US", "state": "CA", "display_address": ["7625 Via Campanile", "Ste 122", "Carlsbad, CA 92009"]}, "phone": "+17606525295", "display_phone": "(760) 652-5295", "distance": 6728.239335696449}, {"id": "xb1jTBh_VmLZuSNTAKOOeg", "alias": "jersey-mikes-subs-carlsbad-3", "name": "Jersey Mike's Subs", "image_url": "https://s3-media1.fl.yelpcdn.com/bphoto/lOD_Gvz95r3ebObAzVEAYA/o.jpg", "is_closed": false, "url": "https://www.yelp.com/biz/jersey-mikes-subs-carlsbad-3?adjust_creative=oncXGL2aPIKrtJdnWeFSnA&utm_campaign=yelp_api_v3&utm_medium=api_v3_business_search&utm_source=oncXGL2aPIKrtJdnWeFSnA", "review_count": 92, "categories": [{"alias": "sandwiches", "title": "Sandwiches"}, {"alias": "hotdogs", "title": "Fast Food"}, {"alias": "delis", "title": "Delis"}], "rating": 4.0, "coordinates": {"latitude": 33.1770245, "longitude": -117.3261232}, "transactions": [], "price": "$", "location": {"address1": "2604 El Camino Real", "address2": "", "address3": "", "city": "Carlsbad", "zip_code": "92008", "country": "US", "state": "CA", "display_address": ["2604 El Camino Real", "Carlsbad, CA 92008"]}, "phone": "+17607307300", "display_phone": "(760) 730-7300", "distance": 7044.044705412973}, {"id": "UD9eUP6gYJGlJRon30s89A", "alias": "honey-baked-ham-company-encinitas", "name": "Honey Baked Ham Company", "image_url": "https://s3-media1.fl.yelpcdn.com/bphoto/1EEBC2rPomMfWgRIIgZHPw/o.jpg", "is_closed": false, "url": "https://www.yelp.com/biz/honey-baked-ham-company-encinitas?adjust_creative=oncXGL2aPIKrtJdnWeFSnA&utm_campaign=yelp_api_v3&utm_medium=api_v3_business_search&utm_source=oncXGL2aPIKrtJdnWeFSnA", "review_count": 39, "categories": [{"alias": "meats", "title": "Meat Shops"}, {"alias": "delis", "title": "Delis"}, {"alias": "sandwiches", "title": "Sandwiches"}], "rating": 3.0, "coordinates": {"latitude": 33.0462608337402, "longitude": -117.282867431641}, "transactions": ["delivery", "pickup"], "price": "$", "location": {"address1": "459 Encinitas Blvd", "address2": "", "address3": "", "city": "Encinitas", "zip_code": "92024", "country": "US", "state": "CA", "display_address": ["459 Encinitas Blvd", "Encinitas, CA 92024"]}, "phone": "+17604365222", "display_phone": "(760) 436-5222", "distance": 8424.938914405857}, {"id": "rw7PDNsREcPQXzaxoSzo2g", "alias": "franciscos-mexican-deli-vista", "name": "Francisco's Mexican Deli", "image_url": "https://s3-media2.fl.yelpcdn.com/bphoto/IMQxSbIFDvcHyzUIen-H7g/o.jpg", "is_closed": false, "url": "https://www.yelp.com/biz/franciscos-mexican-deli-vista?adjust_creative=oncXGL2aPIKrtJdnWeFSnA&utm_campaign=yelp_api_v3&utm_medium=api_v3_business_search&utm_source=oncXGL2aPIKrtJdnWeFSnA", "review_count": 28, "categories": [{"alias": "mexican", "title": "Mexican"}, {"alias": "delis", "title": "Delis"}, {"alias": "soup", "title": "Soup"}], "rating": 4.5, "coordinates": {"latitude": 33.2108, "longitude": -117.244499}, "transactions": [], "price": "$", "location": {"address1": "821 N Santa Fe Ave", "address2": "", "address3": "", "city": "Vista", "zip_code": "92084", "country": "US", "state": "CA", "display_address": ["821 N Santa Fe Ave", "Vista, CA 92084"]}, "phone": "+17607240045", "display_phone": "(760) 724-0045", "distance": 10692.296217996822}, {"id": "GateaPPRSQAEmlO03I2Ovg", "alias": "tinas-deli-san-marcos", "name": "Tina's Deli", "image_url": "https://s3-media1.fl.yelpcdn.com/bphoto/UBb_JIGMzgVoeFYsJq4eTA/o.jpg", "is_closed": false, "url": "https://www.yelp.com/biz/tinas-deli-san-marcos?adjust_creative=oncXGL2aPIKrtJdnWeFSnA&utm_campaign=yelp_api_v3&utm_medium=api_v3_business_search&utm_source=oncXGL2aPIKrtJdnWeFSnA", "review_count": 207, "categories": [{"alias": "sandwiches", "title": "Sandwiches"}, {"alias": "delis", "title": "Delis"}], "rating": 4.5, "coordinates": {"latitude": 33.1519447, "longitude": -117.1617649}, "transactions": [], "price": "$", "location": {"address1": "760 N Twin Oaks Valley Rd", "address2": "Ste D", "address3": "", "city": "San Marcos", "zip_code": "92069", "country": "US", "state": "CA", "display_address": ["760 N Twin Oaks Valley Rd", "Ste D", "San Marcos, CA 92069"]}, "phone": "+17604714808", "display_phone": "(760) 471-4808", "distance": 12258.424437987687}, {"id": "H7SoH3GJ2gj3nX7ap3xGDQ", "alias": "deliluv-encinitas", "name": "DeliLuv", "image_url": "https://s3-media4.fl.yelpcdn.com/bphoto/9b2K3Ci6Ke_evADiUTIHGQ/o.jpg", "is_closed": false, "url": "https://www.yelp.com/biz/deliluv-encinitas?adjust_creative=oncXGL2aPIKrtJdnWeFSnA&utm_campaign=yelp_api_v3&utm_medium=api_v3_business_search&utm_source=oncXGL2aPIKrtJdnWeFSnA", "review_count": 26, "categories": [{"alias": "delis", "title": "Delis"}, {"alias": "bakeries", "title": "Bakeries"}], "rating": 4.0, "coordinates": {"latitude": 33.0486120281515, "longitude": -117.284023068123}, "transactions": ["pickup"], "price": "$", "location": {"address1": "350 Encinitas Blvd", "address2": null, "address3": "", "city": "Encinitas", "zip_code": "92024", "country": "US", "state": "CA", "display_address": ["350 Encinitas Blvd", "Encinitas, CA 92024"]}, "phone": "+17609426802", "display_phone": "(760) 942-6802", "distance": 8169.958343250746}, {"id": "639xnlt3WMRMF4l-eyTeSg", "alias": "jersey-mikes-subs-encinitas-2", "name": "Jersey Mike's Subs", "image_url": "https://s3-media3.fl.yelpcdn.com/bphoto/YROl5a3knt3bzr7wo_1I-A/o.jpg", "is_closed": false, "url": "https://www.yelp.com/biz/jersey-mikes-subs-encinitas-2?adjust_creative=oncXGL2aPIKrtJdnWeFSnA&utm_campaign=yelp_api_v3&utm_medium=api_v3_business_search&utm_source=oncXGL2aPIKrtJdnWeFSnA", "review_count": 89, "categories": [{"alias": "sandwiches", "title": "Sandwiches"}, {"alias": "hotdogs", "title": "Fast Food"}, {"alias": "delis", "title": "Delis"}], "rating": 3.5, "coordinates": {"latitude": 33.066994, "longitude": -117.26326}, "transactions": [], "price": "$", "location": {"address1": "1070 N El Camino Real", "address2": "", "address3": "", "city": "Encinitas", "zip_code": "92024", "country": "US", "state": "CA", "display_address": ["1070 N El Camino Real", "Encinitas, CA 92024"]}, "phone": "+17606346800", "display_phone": "(760) 634-6800", "distance": 6556.569817240225}, {"id": "h4uUmSrpsNu0HVtJ3dWe_Q", "alias": "z-market-san-miguel-deli-oceanside", "name": "Z-Market San Miguel Deli", "image_url": "https://s3-media1.fl.yelpcdn.com/bphoto/g96IPbDj1CHLs46IudwO2A/o.jpg", "is_closed": false, "url": "https://www.yelp.com/biz/z-market-san-miguel-deli-oceanside?adjust_creative=oncXGL2aPIKrtJdnWeFSnA&utm_campaign=yelp_api_v3&utm_medium=api_v3_business_search&utm_source=oncXGL2aPIKrtJdnWeFSnA", "review_count": 27, "categories": [{"alias": "grocery", "title": "Grocery"}, {"alias": "delis", "title": "Delis"}, {"alias": "beer_and_wine", "title": "Beer, Wine & Spirits"}], "rating": 4.0, "coordinates": {"latitude": 33.2138405, "longitude": -117.3482285}, "transactions": [], "price": "$", "location": {"address1": "3200 Mission Ave", "address2": "", "address3": "", "city": "Oceanside", "zip_code": "92058", "country": "US", "state": "CA", "display_address": ["3200 Mission Ave", "Oceanside, CA 92058"]}, "phone": "+17609672184", "display_phone": "(760) 967-2184", "distance": 11625.005154950177}, {"id": "iET8sxPypa37sY8vQ7mUiw", "alias": "meadows-deli-market-escondido", "name": "Meadows Deli Market", "image_url": "https://s3-media1.fl.yelpcdn.com/bphoto/87ySYytIdQWREC9Pgwnohg/o.jpg", "is_closed": false, "url": "https://www.yelp.com/biz/meadows-deli-market-escondido?adjust_creative=oncXGL2aPIKrtJdnWeFSnA&utm_campaign=yelp_api_v3&utm_medium=api_v3_business_search&utm_source=oncXGL2aPIKrtJdnWeFSnA", "review_count": 45, "categories": [{"alias": "grocery", "title": "Grocery"}, {"alias": "delis", "title": "Delis"}], "rating": 4.5, "coordinates": {"latitude": 33.218065003759, "longitude": -117.10911209642}, "transactions": [], "price": "$", "location": {"address1": "27980 Oak Ranch Rd", "address2": "", "address3": "", "city": "Escondido", "zip_code": "92026", "country": "US", "state": "CA", "display_address": ["27980 Oak Ranch Rd", "Escondido, CA 92026"]}, "phone": "+17607491022", "display_phone": "(760) 749-1022", "distance": 19835.24159950663}, {"id": "ttoAoTbH3NP-KA7JBjXL5w", "alias": "firehouse-subs-encinitas", "name": "Firehouse Subs", "image_url": "https://s3-media3.fl.yelpcdn.com/bphoto/V7XBCH-Kp1vsqnitRbOdAw/o.jpg", "is_closed": false, "url": "https://www.yelp.com/biz/firehouse-subs-encinitas?adjust_creative=oncXGL2aPIKrtJdnWeFSnA&utm_campaign=yelp_api_v3&utm_medium=api_v3_business_search&utm_source=oncXGL2aPIKrtJdnWeFSnA", "review_count": 108, "categories": [{"alias": "hotdogs", "title": "Fast Food"}, {"alias": "delis", "title": "Delis"}, {"alias": "sandwiches", "title": "Sandwiches"}], "rating": 3.5, "coordinates": {"latitude": 33.0475846760947, "longitude": -117.260470590407}, "transactions": ["delivery", "pickup"], "price": "$", "location": {"address1": "132 North El Camino Real", "address2": "", "address3": "", "city": "Encinitas", "zip_code": "92024", "country": "US", "state": "CA", "display_address": ["132 North El Camino Real", "Encinitas, CA 92024"]}, "phone": "+17604790925", "display_phone": "(760) 479-0925", "distance": 8679.77128916162}, {"id": "-iVp1fpd1LA6apX8hOPAPw", "alias": "port-of-subs-oceanside", "name": "Port of Subs", "image_url": "https://s3-media4.fl.yelpcdn.com/bphoto/hGdWF2y6swrLsFhq8mtMPw/o.jpg", "is_closed": false, "url": "https://www.yelp.com/biz/port-of-subs-oceanside?adjust_creative=oncXGL2aPIKrtJdnWeFSnA&utm_campaign=yelp_api_v3&utm_medium=api_v3_business_search&utm_source=oncXGL2aPIKrtJdnWeFSnA", "review_count": 187, "categories": [{"alias": "sandwiches", "title": "Sandwiches"}, {"alias": "delis", "title": "Delis"}], "rating": 4.5, "coordinates": {"latitude": 33.1838521, "longitude": -117.369057}, "transactions": [], "price": "$", "location": {"address1": "510 Oceanside Blvd", "address2": "Ste 101", "address3": "", "city": "Oceanside", "zip_code": "92054", "country": "US", "state": "CA", "display_address": ["510 Oceanside Blvd", "Ste 101", "Oceanside, CA 92054"]}, "phone": "+17604393354", "display_phone": "(760) 439-3354", "distance": 10185.518746081098}, {"id": "5OUhPyJmMZlBIlucNJ6ikw", "alias": "harbor-pelican-deli-and-mart-oceanside", "name": "Harbor Pelican Deli and Mart", "image_url": "https://s3-media1.fl.yelpcdn.com/bphoto/aRdOELUef6ywW309pySApQ/o.jpg", "is_closed": false, "url": "https://www.yelp.com/biz/harbor-pelican-deli-and-mart-oceanside?adjust_creative=oncXGL2aPIKrtJdnWeFSnA&utm_campaign=yelp_api_v3&utm_medium=api_v3_business_search&utm_source=oncXGL2aPIKrtJdnWeFSnA", "review_count": 27, "categories": [{"alias": "delis", "title": "Delis"}], "rating": 4.0, "coordinates": {"latitude": 33.205327, "longitude": -117.393629}, "transactions": [], "price": "$", "location": {"address1": "1380 N Pacific St", "address2": "", "address3": "", "city": "Oceanside", "zip_code": "92054", "country": "US", "state": "CA", "display_address": ["1380 N Pacific St", "Oceanside, CA 92054"]}, "phone": "+17607225853", "display_phone": "(760) 722-5853", "distance": 13466.326445533496}, {"id": "x6SlqaQibFRR3vLapp-9ng", "alias": "yogurt-giant-vista", "name": "Yogurt Giant", "image_url": "https://s3-media1.fl.yelpcdn.com/bphoto/W6nlfCN1HE_ifJb0BnotJg/o.jpg", "is_closed": false, "url": "https://www.yelp.com/biz/yogurt-giant-vista?adjust_creative=oncXGL2aPIKrtJdnWeFSnA&utm_campaign=yelp_api_v3&utm_medium=api_v3_business_search&utm_source=oncXGL2aPIKrtJdnWeFSnA", "review_count": 31, "categories": [{"alias": "icecream", "title": "Ice Cream & Frozen Yogurt"}, {"alias": "delis", "title": "Delis"}], "rating": 4.5, "coordinates": {"latitude": 33.1889187544584, "longitude": -117.280108854175}, "transactions": [], "price": "$", "location": {"address1": "1817 W Vista Way", "address2": "Ste E", "address3": "", "city": "Vista", "zip_code": "92083", "country": "US", "state": "CA", "display_address": ["1817 W Vista Way", "Ste E", "Vista, CA 92083"]}, "phone": "+17607582361", "display_phone": "(760) 758-2361", "distance": 7557.101477209314}, {"id": "jlTP6czWJTT2cLZmEm4s8A", "alias": "stater-bros-markets-oceanside-3", "name": "Stater Bros. Markets", "image_url": "https://s3-media4.fl.yelpcdn.com/bphoto/QW0tfgSxUkGRUgnrviYfkQ/o.jpg", "is_closed": false, "url": "https://www.yelp.com/biz/stater-bros-markets-oceanside-3?adjust_creative=oncXGL2aPIKrtJdnWeFSnA&utm_campaign=yelp_api_v3&utm_medium=api_v3_business_search&utm_source=oncXGL2aPIKrtJdnWeFSnA", "review_count": 54, "categories": [{"alias": "grocery", "title": "Grocery"}, {"alias": "delis", "title": "Delis"}, {"alias": "butcher", "title": "Butcher"}], "rating": 3.5, "coordinates": {"latitude": 33.1824989318848, "longitude": -117.342506408691}, "transactions": [], "price": "$$", "location": {"address1": "2170 Vista Way", "address2": "", "address3": "", "city": "Oceanside", "zip_code": "92054", "country": "US", "state": "CA", "display_address": ["2170 Vista Way", "Oceanside, CA 92054"]}, "phone": "+17607573200", "display_phone": "(760) 757-3200", "distance": 8390.629420168587}], "total": 90, "region": {"center": {"longitude": -117.28866577148438, "latitude": 33.12198326621279}}}