{"businesses": [{"id": "OwYHEHdTxz_e3MHOOpPqxg", "alias": "lutchi-and-mary-san-marcos-2", "name": "Lutchi and Mary", "image_url": "https://s3-media4.fl.yelpcdn.com/bphoto/SC8vKwgzhViT0fHMqyCmeg/o.jpg", "is_closed": false, "url": "https://www.yelp.com/biz/lutchi-and-mary-san-marcos-2?adjust_creative=oncXGL2aPIKrtJdnWeFSnA&utm_campaign=yelp_api_v3&utm_medium=api_v3_business_search&utm_source=oncXGL2aPIKrtJdnWeFSnA", "review_count": 31, "categories": [{"alias": "filipino", "title": "Filipino"}], "rating": 5.0, "coordinates": {"latitude": 33.13647, "longitude": -117.18331}, "transactions": [], "location": {"address1": "844 W San Marcos Blvd", "address2": "", "address3": null, "city": "San Marcos", "zip_code": "92078", "country": "US", "state": "CA", "display_address": ["844 W San Marcos Blvd", "San Marcos, CA 92078"]}, "phone": "+17605919551", "display_phone": "(760) 591-9551", "distance": 9926.26192991349}, {"id": "66ZXt0fExG4RF7cvxNmdcw", "alias": "carin-de-ria-encinitas-5", "name": "CARiN de RiA", "image_url": "https://s3-media2.fl.yelpcdn.com/bphoto/FyDvdxpVxYFKNDks9U1ejQ/o.jpg", "is_closed": false, "url": "https://www.yelp.com/biz/carin-de-ria-encinitas-5?adjust_creative=oncXGL2aPIKrtJdnWeFSnA&utm_campaign=yelp_api_v3&utm_medium=api_v3_business_search&utm_source=oncXGL2aPIKrtJdnWeFSnA", "review_count": 56, "categories": [{"alias": "filipino", "title": "Filipino"}], "rating": 4.5, "coordinates": {"latitude": 33.039585, "longitude": -117.293675}, "transactions": [], "price": "$$", "location": {"address1": "124 West I St", "address2": "", "address3": null, "city": "Encinitas", "zip_code": "92024", "country": "US", "state": "CA", "display_address": ["124 West I St", "Encinitas, CA 92024"]}, "phone": "+17605574873", "display_phone": "(760) 557-4873", "distance": 9174.138084101694}, {"id": "srpos5ZLzSsLUf3yIH26gw", "alias": "mission-asian-market-oceanside", "name": "Mission Asian Market", "image_url": "https://s3-media2.fl.yelpcdn.com/bphoto/xE325JMncND_naZmLjZTfA/o.jpg", "is_closed": false, "url": "https://www.yelp.com/biz/mission-asian-market-oceanside?adjust_creative=oncXGL2aPIKrtJdnWeFSnA&utm_campaign=yelp_api_v3&utm_medium=api_v3_business_search&utm_source=oncXGL2aPIKrtJdnWeFSnA", "review_count": 123, "categories": [{"alias": "grocery", "title": "Grocery"}, {"alias": "filipino", "title": "Filipino"}, {"alias": "karaoke", "title": "Karaoke"}], "rating": 4.0, "coordinates": {"latitude": 33.21637, "longitude": -117.34497}, "transactions": [], "price": "$", "location": {"address1": "3320 Mission Ave", "address2": "Ste L", "address3": "", "city": "Oceanside", "zip_code": "92054", "country": "US", "state": "CA", "display_address": ["3320 Mission Ave", "Ste L", "Oceanside, CA 92054"]}, "phone": "+17607228024", "display_phone": "(760) 722-8024", "distance": 11757.806538152303}, {"id": "GR7yLrv4HJ-FHKXRsCIkOg", "alias": "orient-valley-filipino-cuisine-san-diego", "name": "Orient Valley Filipino Cuisine", "image_url": "https://s3-media4.fl.yelpcdn.com/bphoto/4nvKC9mvGYxsbHyKN-nOLQ/o.jpg", "is_closed": false, "url": "https://www.yelp.com/biz/orient-valley-filipino-cuisine-san-diego?adjust_creative=oncXGL2aPIKrtJdnWeFSnA&utm_campaign=yelp_api_v3&utm_medium=api_v3_business_search&utm_source=oncXGL2aPIKrtJdnWeFSnA", "review_count": 178, "categories": [{"alias": "filipino", "title": "Filipino"}], "rating": 4.0, "coordinates": {"latitude": 32.96009, "longitude": -117.11187}, "transactions": [], "price": "$", "location": {"address1": "9951 Carmel Mountain Rd", "address2": "", "address3": "", "city": "San Diego", "zip_code": "92129", "country": "US", "state": "CA", "display_address": ["9951 Carmel Mountain Rd", "San Diego, CA 92129"]}, "phone": "+18584849637", "display_phone": "(858) 484-9637", "distance": 24310.864758428746}, {"id": "BofHtsi15Hmv6eu_nlApBQ", "alias": "andells-bakery-san-diego", "name": "Andell's Bakery", "image_url": "https://s3-media4.fl.yelpcdn.com/bphoto/FtdgazrIWJ_qlfSnT0NoGg/o.jpg", "is_closed": false, "url": "https://www.yelp.com/biz/andells-bakery-san-diego?adjust_creative=oncXGL2aPIKrtJdnWeFSnA&utm_campaign=yelp_api_v3&utm_medium=api_v3_business_search&utm_source=oncXGL2aPIKrtJdnWeFSnA", "review_count": 64, "categories": [{"alias": "bakeries", "title": "Bakeries"}, {"alias": "vietnamese", "title": "Vietnamese"}, {"alias": "filipino", "title": "Filipino"}], "rating": 4.5, "coordinates": {"latitude": 32.96147, "longitude": -117.114133}, "transactions": [], "price": "$", "location": {"address1": "9926 Carmel Mountain Rd", "address2": "Ste F", "address3": "", "city": "San Diego", "zip_code": "92129", "country": "US", "state": "CA", "display_address": ["9926 Carmel Mountain Rd", "Ste F", "San Diego, CA 92129"]}, "phone": "+18585388308", "display_phone": "(858) 538-8308", "distance": 24150.012675704023}, {"id": "UZgF26zT4k0kHbQ7bWv1Rg", "alias": "k-and-k-orient-valley-escondido", "name": "K & K Orient Valley", "image_url": "https://s3-media2.fl.yelpcdn.com/bphoto/dzfaBWMc-GVZkc7TV1jjUQ/o.jpg", "is_closed": false, "url": "https://www.yelp.com/biz/k-and-k-orient-valley-escondido?adjust_creative=oncXGL2aPIKrtJdnWeFSnA&utm_campaign=yelp_api_v3&utm_medium=api_v3_business_search&utm_source=oncXGL2aPIKrtJdnWeFSnA", "review_count": 47, "categories": [{"alias": "filipino", "title": "Filipino"}], "rating": 3.5, "coordinates": {"latitude": 33.1283749, "longitude": -117.0846411}, "transactions": [], "price": "$", "location": {"address1": "665 N Broadway", "address2": "", "address3": "", "city": "Escondido", "zip_code": "92025", "country": "US", "state": "CA", "display_address": ["665 N Broadway", "Escondido, CA 92025"]}, "phone": "+17607964176", "display_phone": "(760) 796-4176", "distance": 18958.86889379612}], "total": 6, "region": {"center": {"longitude": -117.28866577148438, "latitude": 33.12198326621279}}}