{"businesses": [{"id": "plIvXi_wdAGwMouAo4zzzw", "alias": "irinas-bar-and-grill-oceanside", "name": "Irinas Bar and Grill", "image_url": "https://s3-media1.fl.yelpcdn.com/bphoto/w1DHL7iFwJ_h5QSVmQ2x5A/o.jpg", "is_closed": false, "url": "https://www.yelp.com/biz/irinas-bar-and-grill-oceanside?adjust_creative=oncXGL2aPIKrtJdnWeFSnA&utm_campaign=yelp_api_v3&utm_medium=api_v3_business_search&utm_source=oncXGL2aPIKrtJdnWeFSnA", "review_count": 239, "categories": [{"alias": "tradamerican", "title": "American (Traditional)"}, {"alias": "german", "title": "German"}, {"alias": "sportsbars", "title": "Sports Bars"}], "rating": 4.5, "coordinates": {"latitude": 33.21814, "longitude": -117.34013}, "transactions": [], "price": "$$", "location": {"address1": "3375 Mission Ave", "address2": "Ste J", "address3": "", "city": "Oceanside", "zip_code": "92058", "country": "US", "state": "CA", "display_address": ["3375 Mission Ave", "Ste J", "Oceanside, CA 92058"]}, "phone": "+17604335086", "display_phone": "(760) 433-5086", "distance": 11719.772208617582}, {"id": "Y_jnwQNgAYym7y0nwmlMlg", "alias": "kaiserhof-german-american-restaurant-san-diego-2", "name": "Kaiserhof German American Restaurant", "image_url": "https://s3-media3.fl.yelpcdn.com/bphoto/GJx6iH43QZ9Bgz-EPzGVsQ/o.jpg", "is_closed": false, "url": "https://www.yelp.com/biz/kaiserhof-german-american-restaurant-san-diego-2?adjust_creative=oncXGL2aPIKrtJdnWeFSnA&utm_campaign=yelp_api_v3&utm_medium=api_v3_business_search&utm_source=oncXGL2aPIKrtJdnWeFSnA", "review_count": 532, "categories": [{"alias": "german", "title": "German"}, {"alias": "beerbar", "title": "Beer Bar"}], "rating": 3.5, "coordinates": {"latitude": 32.75052, "longitude": -117.24234}, "transactions": [], "price": "$$", "location": {"address1": "2253 Sunset Cliffs Blvd", "address2": "", "address3": "", "city": "San Diego", "zip_code": "92107", "country": "US", "state": "CA", "display_address": ["2253 Sunset Cliffs Blvd", "San Diego, CA 92107"]}, "phone": "+16192240606", "display_phone": "(619) 224-0606", "distance": 41525.634817422346}, {"id": "Ps4vN6-Mu4QiIkEyGzRZmQ", "alias": "biersal-food-truck-san-diego", "name": "Biersal Food Truck", "image_url": "https://s3-media2.fl.yelpcdn.com/bphoto/9tjNw6I7-Egklfimd0oj-A/o.jpg", "is_closed": false, "url": "https://www.yelp.com/biz/biersal-food-truck-san-diego?adjust_creative=oncXGL2aPIKrtJdnWeFSnA&utm_campaign=yelp_api_v3&utm_medium=api_v3_business_search&utm_source=oncXGL2aPIKrtJdnWeFSnA", "review_count": 13, "categories": [{"alias": "german", "title": "German"}, {"alias": "belgian", "title": "Belgian"}, {"alias": "foodtrucks", "title": "Food Trucks"}], "rating": 5.0, "coordinates": {"latitude": 32.71385, "longitude": -117.1393}, "transactions": [], "price": "$$", "location": {"address1": "", "address2": "", "address3": null, "city": "San Diego", "zip_code": "92102", "country": "US", "state": "CA", "display_address": ["San Diego, CA 92102"]}, "phone": "+16198411692", "display_phone": "(619) 841-1692", "distance": 47418.82682118901}, {"id": "LutrSAi5t3kl13sDadFIUg", "alias": "heidelberg-cafe-and-bistro-laguna-beach", "name": "Heidelberg Cafe & Bistro", "image_url": "https://s3-media3.fl.yelpcdn.com/bphoto/6nx4L64vFQy2A1NdjWxRDA/o.jpg", "is_closed": false, "url": "https://www.yelp.com/biz/heidelberg-cafe-and-bistro-laguna-beach?adjust_creative=oncXGL2aPIKrtJdnWeFSnA&utm_campaign=yelp_api_v3&utm_medium=api_v3_business_search&utm_source=oncXGL2aPIKrtJdnWeFSnA", "review_count": 341, "categories": [{"alias": "breakfast_brunch", "title": "Breakfast & Brunch"}, {"alias": "german", "title": "German"}, {"alias": "cafes", "title": "Cafes"}], "rating": 4.0, "coordinates": {"latitude": 33.5335265724879, "longitude": -117.77631518821}, "transactions": ["pickup"], "price": "$$", "location": {"address1": "1100 S Coast Hwy", "address2": "Ste 116", "address3": "", "city": "Laguna Beach", "zip_code": "92651", "country": "US", "state": "CA", "display_address": ["1100 S Coast Hwy", "Ste 116", "Laguna Beach, CA 92651"]}, "phone": "+19494974594", "display_phone": "(949) 497-4594", "distance": 64395.37283702045}, {"id": "KN_Y9KqmDrtdxsfmonJiKA", "alias": "wolfegarten-san-diego", "name": "Wolfegarten", "image_url": "https://s3-media4.fl.yelpcdn.com/bphoto/Z8M2r1fQDfQp7mWcC1y3Qg/o.jpg", "is_closed": false, "url": "https://www.yelp.com/biz/wolfegarten-san-diego?adjust_creative=oncXGL2aPIKrtJdnWeFSnA&utm_campaign=yelp_api_v3&utm_medium=api_v3_business_search&utm_source=oncXGL2aPIKrtJdnWeFSnA", "review_count": 4, "categories": [{"alias": "foodtrucks", "title": "Food Trucks"}, {"alias": "german", "title": "German"}], "rating": 4.5, "coordinates": {"latitude": 32.7138557434082, "longitude": -117.139297485352}, "transactions": [], "location": {"address1": null, "address2": "", "address3": null, "city": "San Diego", "zip_code": "92102", "country": "US", "state": "CA", "display_address": ["San Diego, CA 92102"]}, "phone": "+16195609732", "display_phone": "(619) 560-9732", "distance": 47418.82682118901}, {"id": "3mJL5Rz6fQwLkytJB4raPA", "alias": "flamin-salmon-san-diego", "name": "Flamin Salmon", "image_url": "https://s3-media2.fl.yelpcdn.com/bphoto/oP0jqZHJlt9DYENEPu_FeA/o.jpg", "is_closed": false, "url": "https://www.yelp.com/biz/flamin-salmon-san-diego?adjust_creative=oncXGL2aPIKrtJdnWeFSnA&utm_campaign=yelp_api_v3&utm_medium=api_v3_business_search&utm_source=oncXGL2aPIKrtJdnWeFSnA", "review_count": 7, "categories": [{"alias": "german", "title": "German"}, {"alias": "seafood", "title": "Seafood"}, {"alias": "foodstands", "title": "Food Stands"}], "rating": 4.5, "coordinates": {"latitude": 32.7468, "longitude": -117.16129}, "transactions": [], "price": "$$", "location": {"address1": "", "address2": "", "address3": null, "city": "San Diego", "zip_code": "92103", "country": "US", "state": "CA", "display_address": ["San Diego, CA 92103"]}, "phone": "+19514730662", "display_phone": "(951) 473-0662", "distance": 42899.31470973908}, {"id": "91YhX65IEdaNfJW285XSaQ", "alias": "currywurst-frankfurt-san-diego", "name": "Currywurst Frankfurt", "image_url": "https://s3-media1.fl.yelpcdn.com/bphoto/VpwWa1qjB4t4ze5kYYQFlg/o.jpg", "is_closed": false, "url": "https://www.yelp.com/biz/currywurst-frankfurt-san-diego?adjust_creative=oncXGL2aPIKrtJdnWeFSnA&utm_campaign=yelp_api_v3&utm_medium=api_v3_business_search&utm_source=oncXGL2aPIKrtJdnWeFSnA", "review_count": 13, "categories": [{"alias": "foodtrucks", "title": "Food Trucks"}, {"alias": "german", "title": "German"}], "rating": 4.0, "coordinates": {"latitude": 32.71385, "longitude": -117.1393}, "transactions": [], "price": "$", "location": {"address1": "", "address2": "", "address3": null, "city": "San Diego", "zip_code": "92102", "country": "US", "state": "CA", "display_address": ["San Diego, CA 92102"]}, "phone": "+16198669406", "display_phone": "(619) 866-9406", "distance": 47418.82682118901}, {"id": "yRX5j1y099UV9uEAwv0ToA", "alias": "mattern-sausage-and-deli-orange-7", "name": "Mattern Sausage & Deli", "image_url": "https://s3-media3.fl.yelpcdn.com/bphoto/HtGx8XT_9mBnGoqIvozWFQ/o.jpg", "is_closed": false, "url": "https://www.yelp.com/biz/mattern-sausage-and-deli-orange-7?adjust_creative=oncXGL2aPIKrtJdnWeFSnA&utm_campaign=yelp_api_v3&utm_medium=api_v3_business_search&utm_source=oncXGL2aPIKrtJdnWeFSnA", "review_count": 529, "categories": [{"alias": "delis", "title": "Delis"}, {"alias": "german", "title": "German"}, {"alias": "sandwiches", "title": "Sandwiches"}], "rating": 4.5, "coordinates": {"latitude": 33.7880516052246, "longitude": -117.807060241699}, "transactions": [], "price": "$", "location": {"address1": "4327 E Chapman Ave", "address2": "", "address3": "", "city": "Orange", "zip_code": "92869", "country": "US", "state": "CA", "display_address": ["4327 E Chapman Ave", "Orange, CA 92869"]}, "phone": "+17146393550", "display_phone": "(714) 639-3550", "distance": 88310.28964442648}, {"id": "igvhN8-y4eT7v-U6YOSfFg", "alias": "old-world-german-restaurant-huntington-beach-3", "name": "Old World German Restaurant", "image_url": "https://s3-media1.fl.yelpcdn.com/bphoto/Myjnab-hGN_SujcfdUB2nQ/o.jpg", "is_closed": false, "url": "https://www.yelp.com/biz/old-world-german-restaurant-huntington-beach-3?adjust_creative=oncXGL2aPIKrtJdnWeFSnA&utm_campaign=yelp_api_v3&utm_medium=api_v3_business_search&utm_source=oncXGL2aPIKrtJdnWeFSnA", "review_count": 451, "categories": [{"alias": "german", "title": "German"}], "rating": 4.0, "coordinates": {"latitude": 33.73415, "longitude": -117.99693}, "transactions": [], "price": "$$", "location": {"address1": "7561 Center Ave", "address2": "Ste 49", "address3": "", "city": "Huntington Beach", "zip_code": "92647", "country": "US", "state": "CA", "display_address": ["7561 Center Ave", "Ste 49", "Huntington Beach, CA 92647"]}, "phone": "+17148958020", "display_phone": "(714) 895-8020", "distance": 94668.28234777025}, {"id": "Fszk52ZLh3swytJSSjD-kg", "alias": "eschenburg-delicatessen-huntington-beach", "name": "Eschenburg Delicatessen", "image_url": "https://s3-media1.fl.yelpcdn.com/bphoto/1yXpcIC5CsNaMy6y_QbyGw/o.jpg", "is_closed": false, "url": "https://www.yelp.com/biz/eschenburg-delicatessen-huntington-beach?adjust_creative=oncXGL2aPIKrtJdnWeFSnA&utm_campaign=yelp_api_v3&utm_medium=api_v3_business_search&utm_source=oncXGL2aPIKrtJdnWeFSnA", "review_count": 10, "categories": [{"alias": "delis", "title": "Delis"}, {"alias": "german", "title": "German"}], "rating": 4.0, "coordinates": {"latitude": 33.734771, "longitude": -117.997039}, "transactions": [], "location": {"address1": "7561 Center Ave", "address2": "Ste 19", "address3": "", "city": "Huntington Beach", "zip_code": "92647", "country": "US", "state": "CA", "display_address": ["7561 Center Ave", "Ste 19", "Huntington Beach, CA 92647"]}, "phone": "+17148925033", "display_phone": "(714) 892-5033", "distance": 94668.28234777025}, {"id": "O8UwfHokrkNhYJTsUb3ZIw", "alias": "milans-grill-anaheim", "name": "Milan's Grill", "image_url": "https://s3-media1.fl.yelpcdn.com/bphoto/R_hAg9s9YE1tldXPOXl-hg/o.jpg", "is_closed": false, "url": "https://www.yelp.com/biz/milans-grill-anaheim?adjust_creative=oncXGL2aPIKrtJdnWeFSnA&utm_campaign=yelp_api_v3&utm_medium=api_v3_business_search&utm_source=oncXGL2aPIKrtJdnWeFSnA", "review_count": 82, "categories": [{"alias": "italian", "title": "Italian"}, {"alias": "czech", "title": "Czech"}, {"alias": "german", "title": "German"}], "rating": 4.5, "coordinates": {"latitude": 33.80401, "longitude": -117.94213}, "transactions": ["delivery", "pickup"], "price": "$$", "location": {"address1": "1721 W Katella Ave", "address2": "Ste G", "address3": "", "city": "Anaheim", "zip_code": "92804", "country": "US", "state": "CA", "display_address": ["1721 W Katella Ave", "Ste G", "Anaheim, CA 92804"]}, "phone": "+17142541940", "display_phone": "(714) 254-1940", "distance": 97089.86506047452}], "total": 11, "region": {"center": {"longitude": -117.28866577148438, "latitude": 33.12198326621279}}}