{"businesses": [{"id": "nRKvaT9vmo_XwTRw6QK16Q", "alias": "surf-brothers-teriyaki-carlsbad", "name": "Surf Brothers Teriyaki", "image_url": "https://s3-media4.fl.yelpcdn.com/bphoto/Qw6in2aB9moeBBHhMa4LYQ/o.jpg", "is_closed": false, "url": "https://www.yelp.com/biz/surf-brothers-teriyaki-carlsbad?adjust_creative=oncXGL2aPIKrtJdnWeFSnA&utm_campaign=yelp_api_v3&utm_medium=api_v3_business_search&utm_source=oncXGL2aPIKrtJdnWeFSnA", "review_count": 251, "categories": [{"alias": "hawaiian", "title": "Hawaiian"}, {"alias": "bbq", "title": "Barbeque"}, {"alias": "hotdogs", "title": "Fast Food"}], "rating": 4.0, "coordinates": {"latitude": 33.13106, "longitude": -117.260566}, "transactions": [], "price": "$", "location": {"address1": "2708 Loker Ave W", "address2": "Ste 103", "address3": "", "city": "Carlsbad", "zip_code": "92010", "country": "US", "state": "CA", "display_address": ["2708 Loker Ave W", "Ste 103", "Carlsbad, CA 92010"]}, "phone": "+17604597973", "display_phone": "(760) 459-7973", "distance": 2804.601645486323}, {"id": "eTiQGScV5TbUfFeH4etwMQ", "alias": "blaze-fast-fired-pizza-carlsbad", "name": "Blaze Fast-Fire'd Pizza", "image_url": "https://s3-media4.fl.yelpcdn.com/bphoto/RdiWPOGfcK5C4bmnuL0MvA/o.jpg", "is_closed": false, "url": "https://www.yelp.com/biz/blaze-fast-fired-pizza-carlsbad?adjust_creative=oncXGL2aPIKrtJdnWeFSnA&utm_campaign=yelp_api_v3&utm_medium=api_v3_business_search&utm_source=oncXGL2aPIKrtJdnWeFSnA", "review_count": 686, "categories": [{"alias": "pizza", "title": "Pizza"}, {"alias": "salad", "title": "Salad"}, {"alias": "hotdogs", "title": "Fast Food"}], "rating": 4.5, "coordinates": {"latitude": 33.1250977336068, "longitude": -117.320182059245}, "transactions": [], "price": "$", "location": {"address1": "5620 Paseo Del Norte", "address2": "", "address3": "", "city": "Carlsbad", "zip_code": "92008", "country": "US", "state": "CA", "display_address": ["5620 Paseo Del Norte", "Carlsbad, CA 92008"]}, "phone": "+17608945029", "display_phone": "(760) 894-5029", "distance": 2955.315742368081}, {"id": "G4tCExEOux5t1zfyDLjxcA", "alias": "pure-burger-carlsbad", "name": "Pure Burger", "image_url": "https://s3-media4.fl.yelpcdn.com/bphoto/v0Ht-pC-UFPzuYA-Pi4z5Q/o.jpg", "is_closed": false, "url": "https://www.yelp.com/biz/pure-burger-carlsbad?adjust_creative=oncXGL2aPIKrtJdnWeFSnA&utm_campaign=yelp_api_v3&utm_medium=api_v3_business_search&utm_source=oncXGL2aPIKrtJdnWeFSnA", "review_count": 767, "categories": [{"alias": "burgers", "title": "Burgers"}, {"alias": "hotdogs", "title": "Fast Food"}, {"alias": "newamerican", "title": "American (New)"}], "rating": 4.0, "coordinates": {"latitude": 33.1268903, "longitude": -117.2541476}, "transactions": ["pickup", "delivery"], "price": "$$", "location": {"address1": "2641 Gateway Rd", "address2": null, "address3": "", "city": "Carlsbad", "zip_code": "92009", "country": "US", "state": "CA", "display_address": ["2641 Gateway Rd", "Carlsbad, CA 92009"]}, "phone": "+17606835101", "display_phone": "(760) 683-5101", "distance": 3260.4526357658924}, {"id": "JUF1NuIshtihwYKf_PvVqA", "alias": "naan-n-curry-carlsbad", "name": "Naan N Curry", "image_url": "https://s3-media3.fl.yelpcdn.com/bphoto/6bgU7WKFUFxNbJ3A71R17g/o.jpg", "is_closed": false, "url": "https://www.yelp.com/biz/naan-n-curry-carlsbad?adjust_creative=oncXGL2aPIKrtJdnWeFSnA&utm_campaign=yelp_api_v3&utm_medium=api_v3_business_search&utm_source=oncXGL2aPIKrtJdnWeFSnA", "review_count": 154, "categories": [{"alias": "indpak", "title": "Indian"}, {"alias": "hotdogs", "title": "Fast Food"}], "rating": 4.0, "coordinates": {"latitude": 33.13105, "longitude": -117.26056}, "transactions": ["pickup", "delivery"], "price": "$$", "location": {"address1": "2708 Loker Ave W", "address2": "Ste 104", "address3": "", "city": "Carlsbad", "zip_code": "92010", "country": "US", "state": "CA", "display_address": ["2708 Loker Ave W", "Ste 104", "Carlsbad, CA 92010"]}, "phone": "+17608142996", "display_phone": "(760) 814-2996", "distance": 2808.216653884248}, {"id": "8b2hjebFENFjY4X71cQpwg", "alias": "leap-coffee-carlsbad-3", "name": "Leap Coffee", "image_url": "https://s3-media1.fl.yelpcdn.com/bphoto/bET-Yao-fDUxJ4HBI7gEYw/o.jpg", "is_closed": false, "url": "https://www.yelp.com/biz/leap-coffee-carlsbad-3?adjust_creative=oncXGL2aPIKrtJdnWeFSnA&utm_campaign=yelp_api_v3&utm_medium=api_v3_business_search&utm_source=oncXGL2aPIKrtJdnWeFSnA", "review_count": 189, "categories": [{"alias": "coffee", "title": "Coffee & Tea"}, {"alias": "hotdogs", "title": "Fast Food"}, {"alias": "sandwiches", "title": "Sandwiches"}], "rating": 4.5, "coordinates": {"latitude": 33.140489, "longitude": -117.273316}, "transactions": ["pickup"], "price": "$", "location": {"address1": "5611 Palmer Way", "address2": "Ste D", "address3": null, "city": "Carlsbad", "zip_code": "92010", "country": "US", "state": "CA", "display_address": ["5611 Palmer Way", "Ste D", "Carlsbad, CA 92010"]}, "phone": "+17604486167", "display_phone": "(760) 448-6167", "distance": 2505.4464951345462}, {"id": "KNzcCh1NBDWFaU9SwKQhKw", "alias": "sourdough-and-co-carlsbad-2", "name": "Sourdough & Co", "image_url": "https://s3-media2.fl.yelpcdn.com/bphoto/IYAo_TE38oqSGCSS06Lasg/o.jpg", "is_closed": false, "url": "https://www.yelp.com/biz/sourdough-and-co-carlsbad-2?adjust_creative=oncXGL2aPIKrtJdnWeFSnA&utm_campaign=yelp_api_v3&utm_medium=api_v3_business_search&utm_source=oncXGL2aPIKrtJdnWeFSnA", "review_count": 51, "categories": [{"alias": "hotdogs", "title": "Fast Food"}, {"alias": "sandwiches", "title": "Sandwiches"}, {"alias": "salad", "title": "Salad"}], "rating": 5.0, "coordinates": {"latitude": 33.1355195, "longitude": -117.2877662}, "transactions": [], "location": {"address1": "5814 Van Allen Way", "address2": "Ste 155", "address3": "", "city": "Carlsbad", "zip_code": "92008", "country": "US", "state": "CA", "display_address": ["5814 Van Allen Way", "Ste 155", "Carlsbad, CA 92008"]}, "phone": "+17608142488", "display_phone": "(760) 814-2488", "distance": 1412.1961200041674}, {"id": "j8vPTZfjUwBZIKHgyFXP9A", "alias": "in-n-out-burger-carlsbad", "name": "In-N-Out Burger", "image_url": "https://s3-media2.fl.yelpcdn.com/bphoto/EGpILzQjNRdYBPbvLeKing/o.jpg", "is_closed": false, "url": "https://www.yelp.com/biz/in-n-out-burger-carlsbad?adjust_creative=oncXGL2aPIKrtJdnWeFSnA&utm_campaign=yelp_api_v3&utm_medium=api_v3_business_search&utm_source=oncXGL2aPIKrtJdnWeFSnA", "review_count": 377, "categories": [{"alias": "hotdogs", "title": "Fast Food"}, {"alias": "burgers", "title": "Burgers"}], "rating": 4.5, "coordinates": {"latitude": 33.12501, "longitude": -117.32458}, "transactions": [], "price": "$", "location": {"address1": "5950 Avenida Encinas", "address2": "", "address3": "", "city": "Carlsbad", "zip_code": "92008", "country": "US", "state": "CA", "display_address": ["5950 Avenida Encinas", "Carlsbad, CA 92008"]}, "phone": "+18007861000", "display_phone": "(800) 786-1000", "distance": 3372.3373293470113}, {"id": "Ako_u4uXUOIqQlg5x72N4Q", "alias": "raising-canes-vista-2", "name": "Raising Cane's", "image_url": "https://s3-media3.fl.yelpcdn.com/bphoto/-VXHkbxATRFYMWuK2Ev6ag/o.jpg", "is_closed": false, "url": "https://www.yelp.com/biz/raising-canes-vista-2?adjust_creative=oncXGL2aPIKrtJdnWeFSnA&utm_campaign=yelp_api_v3&utm_medium=api_v3_business_search&utm_source=oncXGL2aPIKrtJdnWeFSnA", "review_count": 154, "categories": [{"alias": "hotdogs", "title": "Fast Food"}], "rating": 3.5, "coordinates": {"latitude": 33.198175, "longitude": -117.247727}, "transactions": [], "price": "$$", "location": {"address1": "303 Vista Village Dr", "address2": "", "address3": null, "city": "Vista", "zip_code": "92083", "country": "US", "state": "CA", "display_address": ["303 Vista Village Dr", "Vista, CA 92083"]}, "phone": "+17606396086", "display_phone": "(760) 639-6086", "distance": 9289.74535745914}, {"id": "jVauXmpg_DhEogkHzYUaMA", "alias": "los-primos-mexican-food-carlsbad", "name": "Los Primos Mexican Food", "image_url": "https://s3-media1.fl.yelpcdn.com/bphoto/Ge2dUeHK97o6WQGdG_6dng/o.jpg", "is_closed": false, "url": "https://www.yelp.com/biz/los-primos-mexican-food-carlsbad?adjust_creative=oncXGL2aPIKrtJdnWeFSnA&utm_campaign=yelp_api_v3&utm_medium=api_v3_business_search&utm_source=oncXGL2aPIKrtJdnWeFSnA", "review_count": 190, "categories": [{"alias": "mexican", "title": "Mexican"}, {"alias": "hotdogs", "title": "Fast Food"}], "rating": 3.0, "coordinates": {"latitude": 33.1310615539551, "longitude": -117.260566711426}, "transactions": ["delivery", "pickup"], "price": "$", "location": {"address1": "2708 Loker Ave W", "address2": "", "address3": "", "city": "Carlsbad", "zip_code": "92010", "country": "US", "state": "CA", "display_address": ["2708 Loker Ave W", "Carlsbad, CA 92010"]}, "phone": "+17604310202", "display_phone": "(760) 431-0202", "distance": 2808.216653884248}, {"id": "IoRpFKnJsuUrengoF_dgrA", "alias": "chick-fil-a-oceanside", "name": "Chick-fil-A", "image_url": "https://s3-media4.fl.yelpcdn.com/bphoto/qT6GVkHvWC9GdkzjjLTh4A/o.jpg", "is_closed": false, "url": "https://www.yelp.com/biz/chick-fil-a-oceanside?adjust_creative=oncXGL2aPIKrtJdnWeFSnA&utm_campaign=yelp_api_v3&utm_medium=api_v3_business_search&utm_source=oncXGL2aPIKrtJdnWeFSnA", "review_count": 234, "categories": [{"alias": "hotdogs", "title": "Fast Food"}], "rating": 4.0, "coordinates": {"latitude": 33.1779819396667, "longitude": -117.29483058614}, "transactions": ["delivery", "pickup"], "price": "$", "location": {"address1": "3475 Marron Rd", "address2": null, "address3": "", "city": "Oceanside", "zip_code": "92056", "country": "US", "state": "CA", "display_address": ["3475 Marron Rd", "Oceanside, CA 92056"]}, "phone": "+17605763128", "display_phone": "(760) 576-3128", "distance": 6253.155120315786}, {"id": "EqICbG6gnaNMQ6zy4kMU9A", "alias": "plant-power-fast-food-encinitas", "name": "Plant Power Fast Food", "image_url": "https://s3-media3.fl.yelpcdn.com/bphoto/3bLCd4TjojBiekr9K4qZHw/o.jpg", "is_closed": false, "url": "https://www.yelp.com/biz/plant-power-fast-food-encinitas?adjust_creative=oncXGL2aPIKrtJdnWeFSnA&utm_campaign=yelp_api_v3&utm_medium=api_v3_business_search&utm_source=oncXGL2aPIKrtJdnWeFSnA", "review_count": 344, "categories": [{"alias": "hotdogs", "title": "Fast Food"}, {"alias": "burgers", "title": "Burgers"}], "rating": 4.0, "coordinates": {"latitude": 33.03592, "longitude": -117.284}, "transactions": [], "price": "$$", "location": {"address1": "411 Santa Fe Dr", "address2": "", "address3": null, "city": "Encinitas", "zip_code": "92024", "country": "US", "state": "CA", "display_address": ["411 Santa Fe Dr", "Encinitas, CA 92024"]}, "phone": "+17604522352", "display_phone": "(760) 452-2352", "distance": 9589.693336023784}, {"id": "hZcTzpbOuJEMyi7NL0kVMQ", "alias": "chipotle-mexican-grill-carlsbad", "name": "Chipotle Mexican Grill", "image_url": "https://s3-media1.fl.yelpcdn.com/bphoto/BYIWE8Nz4MgGXHtJlbZS9g/o.jpg", "is_closed": false, "url": "https://www.yelp.com/biz/chipotle-mexican-grill-carlsbad?adjust_creative=oncXGL2aPIKrtJdnWeFSnA&utm_campaign=yelp_api_v3&utm_medium=api_v3_business_search&utm_source=oncXGL2aPIKrtJdnWeFSnA", "review_count": 107, "categories": [{"alias": "mexican", "title": "Mexican"}, {"alias": "hotdogs", "title": "Fast Food"}], "rating": 3.0, "coordinates": {"latitude": 33.1280757874121, "longitude": -117.270430164746}, "transactions": [], "price": "$", "location": {"address1": "2505 Palomar Airport Rd", "address2": "Bldg 4, Ste 100", "address3": "", "city": "Carlsbad", "zip_code": "92011", "country": "US", "state": "CA", "display_address": ["2505 Palomar Airport Rd", "Bldg 4, Ste 100", "Carlsbad, CA 92011"]}, "phone": "+17606073220", "display_phone": "(760) 607-3220", "distance": 1828.3059666043273}, {"id": "Kc01yD005y0qYKTbwKuLYg", "alias": "the-money-pit-drive-thru-san-marcos", "name": "The Money Pit Drive Thru", "image_url": "https://s3-media1.fl.yelpcdn.com/bphoto/VGfb8hXrzFkscOcJZkDZEA/o.jpg", "is_closed": false, "url": "https://www.yelp.com/biz/the-money-pit-drive-thru-san-marcos?adjust_creative=oncXGL2aPIKrtJdnWeFSnA&utm_campaign=yelp_api_v3&utm_medium=api_v3_business_search&utm_source=oncXGL2aPIKrtJdnWeFSnA", "review_count": 625, "categories": [{"alias": "hotdogs", "title": "Fast Food"}, {"alias": "tradamerican", "title": "American (Traditional)"}, {"alias": "breakfast_brunch", "title": "Breakfast & Brunch"}], "rating": 4.0, "coordinates": {"latitude": 33.13599, "longitude": -117.12939}, "transactions": [], "price": "$", "location": {"address1": "1360 E Mission Rd", "address2": "", "address3": "", "city": "San Marcos", "zip_code": "92069", "country": "US", "state": "CA", "display_address": ["1360 E Mission Rd", "San Marcos, CA 92069"]}, "phone": "+17607437775", "display_phone": "(760) 743-7775", "distance": 14907.72149998161}, {"id": "udhkGC-o7midaFIvEwkbUw", "alias": "lourdes-mexican-food-san-marcos", "name": "Lourdes Mexican Food", "image_url": "", "is_closed": false, "url": "https://www.yelp.com/biz/lourdes-mexican-food-san-marcos?adjust_creative=oncXGL2aPIKrtJdnWeFSnA&utm_campaign=yelp_api_v3&utm_medium=api_v3_business_search&utm_source=oncXGL2aPIKrtJdnWeFSnA", "review_count": 1, "categories": [{"alias": "mexican", "title": "Mexican"}, {"alias": "hotdogs", "title": "Fast Food"}], "rating": 5.0, "coordinates": {"latitude": 33.0945172, "longitude": -117.2069865}, "transactions": [], "location": {"address1": "1646 San Elijo Rd", "address2": null, "address3": "", "city": "San Marcos", "zip_code": "92078", "country": "US", "state": "CA", "display_address": ["1646 San Elijo Rd", "San Marcos, CA 92078"]}, "phone": "+17602903684", "display_phone": "(760) 290-3684", "distance": 8640.373157182597}, {"id": "hESQ-5TwOu2fX-CgOjWWag", "alias": "jersey-mikes-subs-carlsbad-4", "name": "Jersey Mike's Subs", "image_url": "https://s3-media4.fl.yelpcdn.com/bphoto/dzWdjIwH4ALDZ9d2OBQpSQ/o.jpg", "is_closed": false, "url": "https://www.yelp.com/biz/jersey-mikes-subs-carlsbad-4?adjust_creative=oncXGL2aPIKrtJdnWeFSnA&utm_campaign=yelp_api_v3&utm_medium=api_v3_business_search&utm_source=oncXGL2aPIKrtJdnWeFSnA", "review_count": 86, "categories": [{"alias": "sandwiches", "title": "Sandwiches"}, {"alias": "hotdogs", "title": "Fast Food"}, {"alias": "delis", "title": "Delis"}], "rating": 3.5, "coordinates": {"latitude": 33.127271, "longitude": -117.269688}, "transactions": [], "price": "$", "location": {"address1": "2521 Palomar Airport Rd", "address2": "Ste 6-104", "address3": "", "city": "Carlsbad", "zip_code": "92011", "country": "US", "state": "CA", "display_address": ["2521 Palomar Airport Rd", "Ste 6-104", "Carlsbad, CA 92011"]}, "phone": "+17604317600", "display_phone": "(760) 431-7600", "distance": 1862.5244345927129}, {"id": "8IqTWWlFDsKMAwVAL6yfxQ", "alias": "five-guys-carlsbad-2", "name": "Five Guys", "image_url": "https://s3-media2.fl.yelpcdn.com/bphoto/t1X-rfkMDELPI1FuRIsFzw/o.jpg", "is_closed": false, "url": "https://www.yelp.com/biz/five-guys-carlsbad-2?adjust_creative=oncXGL2aPIKrtJdnWeFSnA&utm_campaign=yelp_api_v3&utm_medium=api_v3_business_search&utm_source=oncXGL2aPIKrtJdnWeFSnA", "review_count": 80, "categories": [{"alias": "burgers", "title": "Burgers"}, {"alias": "hotdogs", "title": "Fast Food"}, {"alias": "sandwiches", "title": "Sandwiches"}], "rating": 3.0, "coordinates": {"latitude": 33.127761, "longitude": -117.269366}, "transactions": [], "price": "$$", "location": {"address1": "2519 Palomar Airport Rd", "address2": "Ste 100", "address3": "", "city": "Carlsbad", "zip_code": "92011", "country": "US", "state": "CA", "display_address": ["2519 Palomar Airport Rd", "Ste 100", "Carlsbad, CA 92011"]}, "phone": "+17606033295", "display_phone": "(760) 603-3295", "distance": 1908.639730957092}, {"id": "3epmj3epb3vlDCXLNFa-mA", "alias": "el-pollo-loco-carlsbad-2", "name": "El Pollo Loco", "image_url": "https://s3-media2.fl.yelpcdn.com/bphoto/3y3wnme1fL3bc-TbI7-eNA/o.jpg", "is_closed": false, "url": "https://www.yelp.com/biz/el-pollo-loco-carlsbad-2?adjust_creative=oncXGL2aPIKrtJdnWeFSnA&utm_campaign=yelp_api_v3&utm_medium=api_v3_business_search&utm_source=oncXGL2aPIKrtJdnWeFSnA", "review_count": 51, "categories": [{"alias": "hotdogs", "title": "Fast Food"}, {"alias": "mexican", "title": "Mexican"}], "rating": 2.5, "coordinates": {"latitude": 33.1008338928223, "longitude": -117.312072753906}, "transactions": [], "price": "$", "location": {"address1": "7120 Avenida Encinas", "address2": "Ste 104", "address3": "", "city": "Carlsbad", "zip_code": "92011", "country": "US", "state": "CA", "display_address": ["7120 Avenida Encinas", "Ste 104", "Carlsbad, CA 92011"]}, "phone": "+17604310770", "display_phone": "(760) 431-0770", "distance": 3203.2117730040763}, {"id": "PjBfyOUmJl2Om6qf8ndbRw", "alias": "grabbagreen-encinitas", "name": "Grabbagreen", "image_url": "https://s3-media2.fl.yelpcdn.com/bphoto/TbCSixihWoMctGfs-AJGYw/o.jpg", "is_closed": false, "url": "https://www.yelp.com/biz/grabbagreen-encinitas?adjust_creative=oncXGL2aPIKrtJdnWeFSnA&utm_campaign=yelp_api_v3&utm_medium=api_v3_business_search&utm_source=oncXGL2aPIKrtJdnWeFSnA", "review_count": 31, "categories": [{"alias": "hotdogs", "title": "Fast Food"}, {"alias": "salad", "title": "Salad"}, {"alias": "juicebars", "title": "Juice Bars & Smoothies"}], "rating": 4.0, "coordinates": {"latitude": 33.0459113645659, "longitude": -117.257990883537}, "transactions": ["delivery", "pickup"], "price": "$$", "location": {"address1": "1454 Encinitas Blvd", "address2": null, "address3": "", "city": "Encinitas", "zip_code": "92024", "country": "US", "state": "CA", "display_address": ["1454 Encinitas Blvd", "Encinitas, CA 92024"]}, "phone": "+17604567722", "display_phone": "(760) 456-7722", "distance": 8952.192791940886}, {"id": "RGe0OnD9WgHzDVqjVf31Og", "alias": "mcdonalds-carlsbad-3", "name": "McDonald's", "image_url": "https://s3-media4.fl.yelpcdn.com/bphoto/C9F_4zCQzOUegHxKnMLTPg/o.jpg", "is_closed": false, "url": "https://www.yelp.com/biz/mcdonalds-carlsbad-3?adjust_creative=oncXGL2aPIKrtJdnWeFSnA&utm_campaign=yelp_api_v3&utm_medium=api_v3_business_search&utm_source=oncXGL2aPIKrtJdnWeFSnA", "review_count": 110, "categories": [{"alias": "burgers", "title": "Burgers"}, {"alias": "hotdogs", "title": "Fast Food"}, {"alias": "coffee", "title": "Coffee & Tea"}], "rating": 2.0, "coordinates": {"latitude": 33.1226277408201, "longitude": -117.324233878444}, "transactions": [], "price": "$", "location": {"address1": "5990 Avenida Encinas", "address2": "", "address3": "", "city": "Carlsbad", "zip_code": "92008", "country": "US", "state": "CA", "display_address": ["5990 Avenida Encinas", "Carlsbad, CA 92008"]}, "phone": "+17609319311", "display_phone": "(760) 931-9311", "distance": 3313.10204114934}, {"id": "YvUXMzn9vGyrtk29YNB0lw", "alias": "panda-express-carlsbad", "name": "Panda Express", "image_url": "https://s3-media2.fl.yelpcdn.com/bphoto/k0ndYAA2R6dft9Um9Q_W9g/o.jpg", "is_closed": false, "url": "https://www.yelp.com/biz/panda-express-carlsbad?adjust_creative=oncXGL2aPIKrtJdnWeFSnA&utm_campaign=yelp_api_v3&utm_medium=api_v3_business_search&utm_source=oncXGL2aPIKrtJdnWeFSnA", "review_count": 27, "categories": [{"alias": "chinese", "title": "Chinese"}, {"alias": "hotdogs", "title": "Fast Food"}], "rating": 3.0, "coordinates": {"latitude": 33.1034164428711, "longitude": -117.268577575684}, "transactions": [], "price": "$", "location": {"address1": "6951 El Camino Real", "address2": "", "address3": "", "city": "Carlsbad", "zip_code": "92009", "country": "US", "state": "CA", "display_address": ["6951 El Camino Real", "Carlsbad, CA 92009"]}, "phone": "+17604311061", "display_phone": "(760) 431-1061", "distance": 2774.2886343415544}, {"id": "za8QZyF8x5ixuJOoOB_qXw", "alias": "chipotle-mexican-grill-carlsbad-2", "name": "Chipotle Mexican Grill", "image_url": "https://s3-media3.fl.yelpcdn.com/bphoto/_5bo-pfcs_WLwR7-m11P-g/o.jpg", "is_closed": false, "url": "https://www.yelp.com/biz/chipotle-mexican-grill-carlsbad-2?adjust_creative=oncXGL2aPIKrtJdnWeFSnA&utm_campaign=yelp_api_v3&utm_medium=api_v3_business_search&utm_source=oncXGL2aPIKrtJdnWeFSnA", "review_count": 57, "categories": [{"alias": "mexican", "title": "Mexican"}, {"alias": "hotdogs", "title": "Fast Food"}], "rating": 3.0, "coordinates": {"latitude": 33.082, "longitude": -117.23582}, "transactions": [], "price": "$", "location": {"address1": "3416 Via Mercato", "address2": "", "address3": "", "city": "Carlsbad", "zip_code": "92009", "country": "US", "state": "CA", "display_address": ["3416 Via Mercato", "Carlsbad, CA 92009"]}, "phone": "+17604000056", "display_phone": "(760) 400-0056", "distance": 6633.804046442842}, {"id": "RCIu2HPPtxbpbhELaYZlLw", "alias": "togo-s-sandwiches-carlsbad", "name": "Togo\u2019s Sandwiches", "image_url": "https://s3-media1.fl.yelpcdn.com/bphoto/mriE2sxWTQNn9BIpBYLK7A/o.jpg", "is_closed": false, "url": "https://www.yelp.com/biz/togo-s-sandwiches-carlsbad?adjust_creative=oncXGL2aPIKrtJdnWeFSnA&utm_campaign=yelp_api_v3&utm_medium=api_v3_business_search&utm_source=oncXGL2aPIKrtJdnWeFSnA", "review_count": 52, "categories": [{"alias": "sandwiches", "title": "Sandwiches"}, {"alias": "delis", "title": "Delis"}, {"alias": "hotdogs", "title": "Fast Food"}], "rating": 3.5, "coordinates": {"latitude": 33.1048346, "longitude": -117.2671761}, "transactions": ["delivery", "pickup"], "price": "$", "location": {"address1": "6943 El Camino Real", "address2": "Ste F-105", "address3": "", "city": "Carlsbad", "zip_code": "92009", "country": "US", "state": "CA", "display_address": ["6943 El Camino Real", "Ste F-105", "Carlsbad, CA 92009"]}, "phone": "+17604315010", "display_phone": "(760) 431-5010", "distance": 2730.698304301265}, {"id": "WTF19rg16ufVuYuOlAxc2w", "alias": "popeyes-louisiana-kitchen-vista-2", "name": "Popeyes Louisiana Kitchen", "image_url": "https://s3-media1.fl.yelpcdn.com/bphoto/eeuXGelz9FnHDyC3A6qO3w/o.jpg", "is_closed": false, "url": "https://www.yelp.com/biz/popeyes-louisiana-kitchen-vista-2?adjust_creative=oncXGL2aPIKrtJdnWeFSnA&utm_campaign=yelp_api_v3&utm_medium=api_v3_business_search&utm_source=oncXGL2aPIKrtJdnWeFSnA", "review_count": 119, "categories": [{"alias": "hotdogs", "title": "Fast Food"}, {"alias": "chicken_wings", "title": "Chicken Wings"}], "rating": 3.5, "coordinates": {"latitude": 33.1889182654643, "longitude": -117.280109350946}, "transactions": [], "price": "$", "location": {"address1": "1817 W Vista Way", "address2": "", "address3": "", "city": "Vista", "zip_code": "92083", "country": "US", "state": "CA", "display_address": ["1817 W Vista Way", "Vista, CA 92083"]}, "phone": "+17607323405", "display_phone": "(760) 732-3405", "distance": 7557.101477209314}, {"id": "mMO-7aKKO29vQ3thjrL7xQ", "alias": "pepper-tree-frosty-vista", "name": "Pepper Tree Frosty", "image_url": "https://s3-media4.fl.yelpcdn.com/bphoto/5Up_r65hEQbrISn2EEXf0Q/o.jpg", "is_closed": false, "url": "https://www.yelp.com/biz/pepper-tree-frosty-vista?adjust_creative=oncXGL2aPIKrtJdnWeFSnA&utm_campaign=yelp_api_v3&utm_medium=api_v3_business_search&utm_source=oncXGL2aPIKrtJdnWeFSnA", "review_count": 357, "categories": [{"alias": "hotdogs", "title": "Fast Food"}, {"alias": "icecream", "title": "Ice Cream & Frozen Yogurt"}], "rating": 4.0, "coordinates": {"latitude": 33.1999, "longitude": -117.24167}, "transactions": [], "price": "$", "location": {"address1": "270 S Santa Fe Ave", "address2": "", "address3": "", "city": "Vista", "zip_code": "92084", "country": "US", "state": "CA", "display_address": ["270 S Santa Fe Ave", "Vista, CA 92084"]}, "phone": "+17607260732", "display_phone": "(760) 726-0732", "distance": 9687.704686258745}, {"id": "9wW_HFlyOKvDA6qDlq9wgg", "alias": "chick-fil-a-encinitas-2", "name": "Chick-fil-A", "image_url": "https://s3-media2.fl.yelpcdn.com/bphoto/3NO4xWroQAtPBPbDbJZZyA/o.jpg", "is_closed": false, "url": "https://www.yelp.com/biz/chick-fil-a-encinitas-2?adjust_creative=oncXGL2aPIKrtJdnWeFSnA&utm_campaign=yelp_api_v3&utm_medium=api_v3_business_search&utm_source=oncXGL2aPIKrtJdnWeFSnA", "review_count": 129, "categories": [{"alias": "hotdogs", "title": "Fast Food"}], "rating": 3.5, "coordinates": {"latitude": 33.0485009, "longitude": -117.2599882}, "transactions": [], "price": "$", "location": {"address1": "194 N El Camino Real", "address2": "", "address3": "", "city": "Encinitas", "zip_code": "92024", "country": "US", "state": "CA", "display_address": ["194 N El Camino Real", "Encinitas, CA 92024"]}, "phone": "+17604362622", "display_phone": "(760) 436-2622", "distance": 8607.338672398475}, {"id": "254I8RezKN4fgS3sXd_DBg", "alias": "robertos-mexican-food-leucadia-encinitas-2", "name": "Roberto's Mexican Food - Leucadia", "image_url": "https://s3-media3.fl.yelpcdn.com/bphoto/Zdq8xDKWTEuPP1jliVgLrg/o.jpg", "is_closed": false, "url": "https://www.yelp.com/biz/robertos-mexican-food-leucadia-encinitas-2?adjust_creative=oncXGL2aPIKrtJdnWeFSnA&utm_campaign=yelp_api_v3&utm_medium=api_v3_business_search&utm_source=oncXGL2aPIKrtJdnWeFSnA", "review_count": 150, "categories": [{"alias": "mexican", "title": "Mexican"}, {"alias": "hotdogs", "title": "Fast Food"}], "rating": 3.5, "coordinates": {"latitude": 33.08062, "longitude": -117.30811}, "transactions": [], "price": "$", "location": {"address1": "1900 N Coast Hwy 101", "address2": "", "address3": "", "city": "Encinitas", "zip_code": "92024", "country": "US", "state": "CA", "display_address": ["1900 N Coast Hwy 101", "Encinitas, CA 92024"]}, "phone": "+17602301593", "display_phone": "(760) 230-1593", "distance": 4947.51819500308}, {"id": "OKBQuo7uN_sGKst59K6L-A", "alias": "waba-grill-oceanside", "name": "WaBa Grill", "image_url": "https://s3-media1.fl.yelpcdn.com/bphoto/ju_y8ZRv93FPXkautFKQJQ/o.jpg", "is_closed": false, "url": "https://www.yelp.com/biz/waba-grill-oceanside?adjust_creative=oncXGL2aPIKrtJdnWeFSnA&utm_campaign=yelp_api_v3&utm_medium=api_v3_business_search&utm_source=oncXGL2aPIKrtJdnWeFSnA", "review_count": 201, "categories": [{"alias": "hotdogs", "title": "Fast Food"}, {"alias": "asianfusion", "title": "Asian Fusion"}], "rating": 3.5, "coordinates": {"latitude": 33.2273492907876, "longitude": -117.331380054845}, "transactions": [], "price": "$", "location": {"address1": "3780 Mission Ave", "address2": "Ste 2", "address3": "", "city": "Oceanside", "zip_code": "92058", "country": "US", "state": "CA", "display_address": ["3780 Mission Ave", "Ste 2", "Oceanside, CA 92058"]}, "phone": "+17607212702", "display_phone": "(760) 721-2702", "distance": 12372.245983386769}, {"id": "H6okoTNYFxiVAbHmJl9QaQ", "alias": "taco-bell-carlsbad-2", "name": "Taco Bell", "image_url": "https://s3-media2.fl.yelpcdn.com/bphoto/TYW2NGqc_JdFoDNX5AaGlQ/o.jpg", "is_closed": false, "url": "https://www.yelp.com/biz/taco-bell-carlsbad-2?adjust_creative=oncXGL2aPIKrtJdnWeFSnA&utm_campaign=yelp_api_v3&utm_medium=api_v3_business_search&utm_source=oncXGL2aPIKrtJdnWeFSnA", "review_count": 74, "categories": [{"alias": "hotdogs", "title": "Fast Food"}], "rating": 2.0, "coordinates": {"latitude": 33.1211, "longitude": -117.319693230093}, "transactions": ["delivery"], "price": "$", "location": {"address1": "6017 Paseo Del Norte", "address2": "", "address3": "", "city": "Carlsbad", "zip_code": "92011", "country": "US", "state": "CA", "display_address": ["6017 Paseo Del Norte", "Carlsbad, CA 92011"]}, "phone": "+17609317880", "display_phone": "(760) 931-7880", "distance": 2891.166874255368}, {"id": "QB_a4r5ldLS5tZAysQwU6A", "alias": "in-n-out-burger-encinitas", "name": "In-N-Out Burger", "image_url": "https://s3-media2.fl.yelpcdn.com/bphoto/u4mmqxtWlVoAeBpHYktpnQ/o.jpg", "is_closed": false, "url": "https://www.yelp.com/biz/in-n-out-burger-encinitas?adjust_creative=oncXGL2aPIKrtJdnWeFSnA&utm_campaign=yelp_api_v3&utm_medium=api_v3_business_search&utm_source=oncXGL2aPIKrtJdnWeFSnA", "review_count": 161, "categories": [{"alias": "burgers", "title": "Burgers"}, {"alias": "hotdogs", "title": "Fast Food"}], "rating": 4.5, "coordinates": {"latitude": 33.0472960549698, "longitude": -117.28498841468}, "transactions": [], "price": "$", "location": {"address1": "130 Calle Magdalena", "address2": "", "address3": "", "city": "Encinitas", "zip_code": "92024", "country": "US", "state": "CA", "display_address": ["130 Calle Magdalena", "Encinitas, CA 92024"]}, "phone": "+18007861000", "display_phone": "(800) 786-1000", "distance": 8311.893642447973}, {"id": "WpK9ORuaHcJ4PN8_EbOFJg", "alias": "robertos-tacos-shop-13-oceanside", "name": "Roberto's Tacos Shop 13", "image_url": "https://s3-media3.fl.yelpcdn.com/bphoto/lw4Nb-pmlhPwIHRW3QNrPg/o.jpg", "is_closed": false, "url": "https://www.yelp.com/biz/robertos-tacos-shop-13-oceanside?adjust_creative=oncXGL2aPIKrtJdnWeFSnA&utm_campaign=yelp_api_v3&utm_medium=api_v3_business_search&utm_source=oncXGL2aPIKrtJdnWeFSnA", "review_count": 143, "categories": [{"alias": "hotdogs", "title": "Fast Food"}, {"alias": "mexican", "title": "Mexican"}], "rating": 4.0, "coordinates": {"latitude": 33.1838646, "longitude": -117.3690414}, "transactions": [], "price": "$", "location": {"address1": "518 Oceanside Blvd", "address2": "Ste 111", "address3": "", "city": "Oceanside", "zip_code": "92054", "country": "US", "state": "CA", "display_address": ["518 Oceanside Blvd", "Ste 111", "Oceanside, CA 92054"]}, "phone": "+17607572377", "display_phone": "(760) 757-2377", "distance": 10206.849829463768}, {"id": "dQUD1BDATKI1KfHosjDFXw", "alias": "jack-in-the-box-carlsbad", "name": "Jack In the Box", "image_url": "https://s3-media4.fl.yelpcdn.com/bphoto/7A8og9zP6yC-jJ3mMrz--w/o.jpg", "is_closed": false, "url": "https://www.yelp.com/biz/jack-in-the-box-carlsbad?adjust_creative=oncXGL2aPIKrtJdnWeFSnA&utm_campaign=yelp_api_v3&utm_medium=api_v3_business_search&utm_source=oncXGL2aPIKrtJdnWeFSnA", "review_count": 31, "categories": [{"alias": "burgers", "title": "Burgers"}, {"alias": "hotdogs", "title": "Fast Food"}], "rating": 3.0, "coordinates": {"latitude": 33.10174, "longitude": -117.31252}, "transactions": ["delivery"], "price": "$", "location": {"address1": "7050 Avenida Encinas", "address2": "", "address3": "", "city": "Carlsbad", "zip_code": "92009", "country": "US", "state": "CA", "display_address": ["7050 Avenida Encinas", "Carlsbad, CA 92009"]}, "phone": "+17604381461", "display_phone": "(760) 438-1461", "distance": 3155.4965749545895}, {"id": "Ksjbky6X6v1Ieef-3lsncA", "alias": "jersey-mikes-subs-carlsbad-5", "name": "Jersey Mike's Subs", "image_url": "https://s3-media4.fl.yelpcdn.com/bphoto/uEbFYv5xl2bETmgePU1a9g/o.jpg", "is_closed": false, "url": "https://www.yelp.com/biz/jersey-mikes-subs-carlsbad-5?adjust_creative=oncXGL2aPIKrtJdnWeFSnA&utm_campaign=yelp_api_v3&utm_medium=api_v3_business_search&utm_source=oncXGL2aPIKrtJdnWeFSnA", "review_count": 14, "categories": [{"alias": "hotdogs", "title": "Fast Food"}, {"alias": "delis", "title": "Delis"}, {"alias": "sandwiches", "title": "Sandwiches"}], "rating": 3.0, "coordinates": {"latitude": 33.0822313863486, "longitude": -117.233294383222}, "transactions": [], "location": {"address1": "7625 Via Campanile", "address2": "Ste 122", "address3": null, "city": "Carlsbad", "zip_code": "92009", "country": "US", "state": "CA", "display_address": ["7625 Via Campanile", "Ste 122", "Carlsbad, CA 92009"]}, "phone": "+17606525295", "display_phone": "(760) 652-5295", "distance": 6728.239335696449}, {"id": "N00mMr9eRmxBJQqxdl2_SA", "alias": "blaze-fast-fired-pizza-encinitas-2", "name": "Blaze Fast-Fire'd Pizza", "image_url": "https://s3-media1.fl.yelpcdn.com/bphoto/A9Uy6N2lJXNTkME4paCE6g/o.jpg", "is_closed": false, "url": "https://www.yelp.com/biz/blaze-fast-fired-pizza-encinitas-2?adjust_creative=oncXGL2aPIKrtJdnWeFSnA&utm_campaign=yelp_api_v3&utm_medium=api_v3_business_search&utm_source=oncXGL2aPIKrtJdnWeFSnA", "review_count": 270, "categories": [{"alias": "pizza", "title": "Pizza"}, {"alias": "salad", "title": "Salad"}, {"alias": "hotdogs", "title": "Fast Food"}], "rating": 4.5, "coordinates": {"latitude": 33.0484911, "longitude": -117.259474}, "transactions": [], "price": "$", "location": {"address1": "127 North El Camino Real", "address2": "", "address3": "", "city": "Encinitas", "zip_code": "92024", "country": "US", "state": "CA", "display_address": ["127 North El Camino Real", "Encinitas, CA 92024"]}, "phone": "+17604528025", "display_phone": "(760) 452-8025", "distance": 8699.10011880847}, {"id": "xb1jTBh_VmLZuSNTAKOOeg", "alias": "jersey-mikes-subs-carlsbad-3", "name": "Jersey Mike's Subs", "image_url": "https://s3-media1.fl.yelpcdn.com/bphoto/lOD_Gvz95r3ebObAzVEAYA/o.jpg", "is_closed": false, "url": "https://www.yelp.com/biz/jersey-mikes-subs-carlsbad-3?adjust_creative=oncXGL2aPIKrtJdnWeFSnA&utm_campaign=yelp_api_v3&utm_medium=api_v3_business_search&utm_source=oncXGL2aPIKrtJdnWeFSnA", "review_count": 92, "categories": [{"alias": "sandwiches", "title": "Sandwiches"}, {"alias": "hotdogs", "title": "Fast Food"}, {"alias": "delis", "title": "Delis"}], "rating": 4.0, "coordinates": {"latitude": 33.1770245, "longitude": -117.3261232}, "transactions": [], "price": "$", "location": {"address1": "2604 El Camino Real", "address2": "", "address3": "", "city": "Carlsbad", "zip_code": "92008", "country": "US", "state": "CA", "display_address": ["2604 El Camino Real", "Carlsbad, CA 92008"]}, "phone": "+17607307300", "display_phone": "(760) 730-7300", "distance": 7044.044705412973}, {"id": "dRrbR6xMHcZj3Xreul8Ycw", "alias": "mcdonalds-encinitas", "name": "McDonald's", "image_url": "https://s3-media2.fl.yelpcdn.com/bphoto/dVG3vzL6B4LdsVTG9_P9Gw/o.jpg", "is_closed": false, "url": "https://www.yelp.com/biz/mcdonalds-encinitas?adjust_creative=oncXGL2aPIKrtJdnWeFSnA&utm_campaign=yelp_api_v3&utm_medium=api_v3_business_search&utm_source=oncXGL2aPIKrtJdnWeFSnA", "review_count": 72, "categories": [{"alias": "burgers", "title": "Burgers"}, {"alias": "hotdogs", "title": "Fast Food"}, {"alias": "coffee", "title": "Coffee & Tea"}], "rating": 2.0, "coordinates": {"latitude": 33.06722, "longitude": -117.2639459}, "transactions": [], "price": "$", "location": {"address1": "1064 N El Camino Real", "address2": "", "address3": "", "city": "Encinitas", "zip_code": "92024", "country": "US", "state": "CA", "display_address": ["1064 N El Camino Real", "Encinitas, CA 92024"]}, "phone": "+17609439498", "display_phone": "(760) 943-9498", "distance": 6510.264938429068}, {"id": "W66-XOaXVSM98nGLe1qUTA", "alias": "burger-stop-carlsbad", "name": "Burger Stop", "image_url": "https://s3-media1.fl.yelpcdn.com/bphoto/M4Bi2eyelIP9YQuwD7a3JA/o.jpg", "is_closed": false, "url": "https://www.yelp.com/biz/burger-stop-carlsbad?adjust_creative=oncXGL2aPIKrtJdnWeFSnA&utm_campaign=yelp_api_v3&utm_medium=api_v3_business_search&utm_source=oncXGL2aPIKrtJdnWeFSnA", "review_count": 10, "categories": [{"alias": "tradamerican", "title": "American (Traditional)"}, {"alias": "burgers", "title": "Burgers"}, {"alias": "hotdogs", "title": "Fast Food"}], "rating": 3.5, "coordinates": {"latitude": 33.1261547194601, "longitude": -117.31204247022}, "transactions": [], "price": "$$", "location": {"address1": "1 Legoland Dr", "address2": "", "address3": "", "city": "Carlsbad", "zip_code": "92008", "country": "US", "state": "CA", "display_address": ["1 Legoland Dr", "Carlsbad, CA 92008"]}, "phone": "+17609185346", "display_phone": "(760) 918-5346", "distance": 2225.809657128754}, {"id": "7-TVGb6Zf0TBVCWEYbXaxA", "alias": "chick-fil-a-san-marcos", "name": "Chick-fil-A", "image_url": "https://s3-media1.fl.yelpcdn.com/bphoto/ra9v1bmCIaRFnQuOZ75oZw/o.jpg", "is_closed": false, "url": "https://www.yelp.com/biz/chick-fil-a-san-marcos?adjust_creative=oncXGL2aPIKrtJdnWeFSnA&utm_campaign=yelp_api_v3&utm_medium=api_v3_business_search&utm_source=oncXGL2aPIKrtJdnWeFSnA", "review_count": 270, "categories": [{"alias": "hotdogs", "title": "Fast Food"}], "rating": 4.0, "coordinates": {"latitude": 33.136937, "longitude": -117.177772}, "transactions": [], "price": "$", "location": {"address1": "587 Grand Ave", "address2": "", "address3": "", "city": "San Marcos", "zip_code": "92078", "country": "US", "state": "CA", "display_address": ["587 Grand Ave", "San Marcos, CA 92078"]}, "phone": "+17607368105", "display_phone": "(760) 736-8105", "distance": 10459.303561238734}, {"id": "fjoADQKZYQO8VAUUInfhXg", "alias": "in-n-out-burger-vista", "name": "In-N-Out Burger", "image_url": "https://s3-media2.fl.yelpcdn.com/bphoto/5j14t4wY5PDjM0a9WgWssA/o.jpg", "is_closed": false, "url": "https://www.yelp.com/biz/in-n-out-burger-vista?adjust_creative=oncXGL2aPIKrtJdnWeFSnA&utm_campaign=yelp_api_v3&utm_medium=api_v3_business_search&utm_source=oncXGL2aPIKrtJdnWeFSnA", "review_count": 179, "categories": [{"alias": "hotdogs", "title": "Fast Food"}, {"alias": "burgers", "title": "Burgers"}], "rating": 4.0, "coordinates": {"latitude": 33.1845578179619, "longitude": -117.284950279762}, "transactions": [], "price": "$", "location": {"address1": "2010 Hacienda Dr", "address2": "", "address3": "", "city": "Vista", "zip_code": "92081", "country": "US", "state": "CA", "display_address": ["2010 Hacienda Dr", "Vista, CA 92081"]}, "phone": "+18007861000", "display_phone": "(800) 786-1000", "distance": 6966.556902756728}, {"id": "b1oik1z7AUZ943ctnLHkMA", "alias": "panda-express-carlsbad-4", "name": "Panda Express", "image_url": "https://s3-media4.fl.yelpcdn.com/bphoto/gxwZBeWZXRwRQ5KI9tDbDg/o.jpg", "is_closed": false, "url": "https://www.yelp.com/biz/panda-express-carlsbad-4?adjust_creative=oncXGL2aPIKrtJdnWeFSnA&utm_campaign=yelp_api_v3&utm_medium=api_v3_business_search&utm_source=oncXGL2aPIKrtJdnWeFSnA", "review_count": 85, "categories": [{"alias": "hotdogs", "title": "Fast Food"}, {"alias": "chinese", "title": "Chinese"}], "rating": 2.5, "coordinates": {"latitude": 33.1254723, "longitude": -117.3222824}, "transactions": [], "price": "$", "location": {"address1": "5630 Paseo Del Norte", "address2": "Ste 141", "address3": "Carlsbad Premium Outlets Mall", "city": "Carlsbad", "zip_code": "92008", "country": "US", "state": "CA", "display_address": ["5630 Paseo Del Norte", "Ste 141", "Carlsbad Premium Outlets Mall", "Carlsbad, CA 92008"]}, "phone": "+17606038830", "display_phone": "(760) 603-8830", "distance": 3065.567001813849}, {"id": "mWOK_8iyTZaQ29W-h0l7NQ", "alias": "taco-bell-vista-3", "name": "Taco Bell", "image_url": "https://s3-media2.fl.yelpcdn.com/bphoto/xkgyLTn1a0JjCC84wLtmOg/o.jpg", "is_closed": false, "url": "https://www.yelp.com/biz/taco-bell-vista-3?adjust_creative=oncXGL2aPIKrtJdnWeFSnA&utm_campaign=yelp_api_v3&utm_medium=api_v3_business_search&utm_source=oncXGL2aPIKrtJdnWeFSnA", "review_count": 28, "categories": [{"alias": "mexican", "title": "Mexican"}, {"alias": "tex-mex", "title": "Tex-Mex"}, {"alias": "hotdogs", "title": "Fast Food"}], "rating": 2.0, "coordinates": {"latitude": 33.134975, "longitude": -117.229288}, "transactions": ["delivery"], "price": "$", "location": {"address1": "3271 Business Park Dr", "address2": "", "address3": "", "city": "Vista", "zip_code": "92083", "country": "US", "state": "CA", "display_address": ["3271 Business Park Dr", "Vista, CA 92083"]}, "phone": "+17607275912", "display_phone": "(760) 727-5912", "distance": 5714.844929722144}, {"id": "GZ38ea7eD0d_QkslPvsevw", "alias": "chipotle-mexican-grill-vista-2", "name": "Chipotle Mexican Grill", "image_url": "https://s3-media2.fl.yelpcdn.com/bphoto/Ngqd_RcoFgNHntuTt8bqgA/o.jpg", "is_closed": false, "url": "https://www.yelp.com/biz/chipotle-mexican-grill-vista-2?adjust_creative=oncXGL2aPIKrtJdnWeFSnA&utm_campaign=yelp_api_v3&utm_medium=api_v3_business_search&utm_source=oncXGL2aPIKrtJdnWeFSnA", "review_count": 100, "categories": [{"alias": "hotdogs", "title": "Fast Food"}, {"alias": "mexican", "title": "Mexican"}, {"alias": "salad", "title": "Salad"}], "rating": 3.5, "coordinates": {"latitude": 33.2007572, "longitude": -117.2447761}, "transactions": [], "price": "$", "location": {"address1": "30 Main St", "address2": "Ste G-100", "address3": null, "city": "Vista", "zip_code": "92083", "country": "US", "state": "CA", "display_address": ["30 Main St", "Ste G-100", "Vista, CA 92083"]}, "phone": "+17606390529", "display_phone": "(760) 639-0529", "distance": 9644.582210837585}, {"id": "C86p2wNZCRJzQnqrJQH0Ww", "alias": "jack-in-the-box-vista-5", "name": "Jack in the Box", "image_url": "https://s3-media2.fl.yelpcdn.com/bphoto/oEfcymJKUGPdYxtlp-rllg/o.jpg", "is_closed": false, "url": "https://www.yelp.com/biz/jack-in-the-box-vista-5?adjust_creative=oncXGL2aPIKrtJdnWeFSnA&utm_campaign=yelp_api_v3&utm_medium=api_v3_business_search&utm_source=oncXGL2aPIKrtJdnWeFSnA", "review_count": 26, "categories": [{"alias": "burgers", "title": "Burgers"}, {"alias": "hotdogs", "title": "Fast Food"}], "rating": 2.5, "coordinates": {"latitude": 33.13199, "longitude": -117.229}, "transactions": ["delivery"], "price": "$", "location": {"address1": "3281 Business Park Dr", "address2": "", "address3": "", "city": "Vista", "zip_code": "92081", "country": "US", "state": "CA", "display_address": ["3281 Business Park Dr", "Vista, CA 92081"]}, "phone": "+17607341816", "display_phone": "(760) 734-1816", "distance": 5659.637012899255}, {"id": "1bmpgZJcs3--ofLFHa7AUA", "alias": "rauls-shack-encinitas", "name": "Raul's Shack", "image_url": "https://s3-media3.fl.yelpcdn.com/bphoto/7dhIxS31104DTt3QGYIWeQ/o.jpg", "is_closed": false, "url": "https://www.yelp.com/biz/rauls-shack-encinitas?adjust_creative=oncXGL2aPIKrtJdnWeFSnA&utm_campaign=yelp_api_v3&utm_medium=api_v3_business_search&utm_source=oncXGL2aPIKrtJdnWeFSnA", "review_count": 171, "categories": [{"alias": "hotdogs", "title": "Fast Food"}, {"alias": "mexican", "title": "Mexican"}], "rating": 4.0, "coordinates": {"latitude": 33.04619, "longitude": -117.294039}, "transactions": [], "price": "$", "location": {"address1": "490 S Coast Hwy 101", "address2": "", "address3": "", "city": "Encinitas", "zip_code": "92024", "country": "US", "state": "CA", "display_address": ["490 S Coast Hwy 101", "Encinitas, CA 92024"]}, "phone": "+17604368589", "display_phone": "(760) 436-8589", "distance": 8445.539286381634}, {"id": "UPSzxiR8sXSQ1NsjjwbbaA", "alias": "surf-brothers-teriyaki-encinitas", "name": "Surf Brothers Teriyaki", "image_url": "https://s3-media1.fl.yelpcdn.com/bphoto/UroBNTNJn37No37dTCVuhA/o.jpg", "is_closed": false, "url": "https://www.yelp.com/biz/surf-brothers-teriyaki-encinitas?adjust_creative=oncXGL2aPIKrtJdnWeFSnA&utm_campaign=yelp_api_v3&utm_medium=api_v3_business_search&utm_source=oncXGL2aPIKrtJdnWeFSnA", "review_count": 133, "categories": [{"alias": "hawaiian", "title": "Hawaiian"}, {"alias": "hotdogs", "title": "Fast Food"}], "rating": 3.5, "coordinates": {"latitude": 33.052474, "longitude": -117.262128}, "transactions": [], "price": "$", "location": {"address1": "274 N El Camino Real", "address2": "", "address3": "", "city": "Encinitas", "zip_code": "92024", "country": "US", "state": "CA", "display_address": ["274 N El Camino Real", "Encinitas, CA 92024"]}, "phone": "+17604597973", "display_phone": "(760) 459-7973", "distance": 8114.864858633725}, {"id": "m0SB2eHVRUPfgTZndmGsrQ", "alias": "el-pollo-loco-oceanside-5", "name": "El Pollo Loco", "image_url": "https://s3-media1.fl.yelpcdn.com/bphoto/Re3rfzWAkE2sy5J42FLT0A/o.jpg", "is_closed": false, "url": "https://www.yelp.com/biz/el-pollo-loco-oceanside-5?adjust_creative=oncXGL2aPIKrtJdnWeFSnA&utm_campaign=yelp_api_v3&utm_medium=api_v3_business_search&utm_source=oncXGL2aPIKrtJdnWeFSnA", "review_count": 64, "categories": [{"alias": "hotdogs", "title": "Fast Food"}, {"alias": "mexican", "title": "Mexican"}], "rating": 3.5, "coordinates": {"latitude": 33.1816788, "longitude": -117.2959824}, "transactions": ["delivery", "pickup"], "price": "$", "location": {"address1": "3500 College Blvd", "address2": "", "address3": "", "city": "Oceanside", "zip_code": "92056", "country": "US", "state": "CA", "display_address": ["3500 College Blvd", "Oceanside, CA 92056"]}, "phone": "+17604779345", "display_phone": "(760) 477-9345", "distance": 6662.248564594987}, {"id": "2ZpLOLv6dwiX0M5TK_Q4VA", "alias": "subway-carlsbad-9", "name": "Subway", "image_url": "https://s3-media2.fl.yelpcdn.com/bphoto/Kb5PcdGCsBzZINLw-GEirQ/o.jpg", "is_closed": false, "url": "https://www.yelp.com/biz/subway-carlsbad-9?adjust_creative=oncXGL2aPIKrtJdnWeFSnA&utm_campaign=yelp_api_v3&utm_medium=api_v3_business_search&utm_source=oncXGL2aPIKrtJdnWeFSnA", "review_count": 10, "categories": [{"alias": "sandwiches", "title": "Sandwiches"}, {"alias": "hotdogs", "title": "Fast Food"}], "rating": 4.0, "coordinates": {"latitude": 33.1035957957119, "longitude": -117.265947998988}, "transactions": ["delivery", "pickup"], "price": "$", "location": {"address1": "6994 El Camino Real", "address2": "Ste 100", "address3": "", "city": "Carlsbad", "zip_code": "92009", "country": "US", "state": "CA", "display_address": ["6994 El Camino Real", "Ste 100", "Carlsbad, CA 92009"]}, "phone": "+17605790016", "display_phone": "(760) 579-0016", "distance": 2942.3089138672917}, {"id": "IZZEjqLkq3A8Wg4ZiCcS5w", "alias": "carls-jr-carlsbad-3", "name": "Carl's Jr", "image_url": "https://s3-media2.fl.yelpcdn.com/bphoto/kM3-ZeuiTnIAtHXrRf_ALg/o.jpg", "is_closed": false, "url": "https://www.yelp.com/biz/carls-jr-carlsbad-3?adjust_creative=oncXGL2aPIKrtJdnWeFSnA&utm_campaign=yelp_api_v3&utm_medium=api_v3_business_search&utm_source=oncXGL2aPIKrtJdnWeFSnA", "review_count": 52, "categories": [{"alias": "hotdogs", "title": "Fast Food"}, {"alias": "burgers", "title": "Burgers"}], "rating": 2.0, "coordinates": {"latitude": 33.1216430664062, "longitude": -117.317687988281}, "transactions": [], "price": "$", "location": {"address1": "925 Palomar Airport Rd", "address2": "", "address3": "", "city": "Carlsbad", "zip_code": "92009", "country": "US", "state": "CA", "display_address": ["925 Palomar Airport Rd", "Carlsbad, CA 92009"]}, "phone": "+17604381132", "display_phone": "(760) 438-1132", "distance": 2765.105263351088}, {"id": "okZZffUQuh0JK6mhJkIGyA", "alias": "in-n-out-burger-oceanside-2", "name": "In-N-Out Burger", "image_url": "https://s3-media1.fl.yelpcdn.com/bphoto/_qkxgqBAaCVnel-XMQikbA/o.jpg", "is_closed": false, "url": "https://www.yelp.com/biz/in-n-out-burger-oceanside-2?adjust_creative=oncXGL2aPIKrtJdnWeFSnA&utm_campaign=yelp_api_v3&utm_medium=api_v3_business_search&utm_source=oncXGL2aPIKrtJdnWeFSnA", "review_count": 110, "categories": [{"alias": "burgers", "title": "Burgers"}, {"alias": "hotdogs", "title": "Fast Food"}], "rating": 4.5, "coordinates": {"latitude": 33.2029384011908, "longitude": -117.384183262118}, "transactions": [], "price": "$", "location": {"address1": "936 N Coast Hwy", "address2": "", "address3": "", "city": "Oceanside", "zip_code": "92054", "country": "US", "state": "CA", "display_address": ["936 N Coast Hwy", "Oceanside, CA 92054"]}, "phone": "+18007861000", "display_phone": "(800) 786-1000", "distance": 12718.600581836667}, {"id": "639xnlt3WMRMF4l-eyTeSg", "alias": "jersey-mikes-subs-encinitas-2", "name": "Jersey Mike's Subs", "image_url": "https://s3-media3.fl.yelpcdn.com/bphoto/YROl5a3knt3bzr7wo_1I-A/o.jpg", "is_closed": false, "url": "https://www.yelp.com/biz/jersey-mikes-subs-encinitas-2?adjust_creative=oncXGL2aPIKrtJdnWeFSnA&utm_campaign=yelp_api_v3&utm_medium=api_v3_business_search&utm_source=oncXGL2aPIKrtJdnWeFSnA", "review_count": 89, "categories": [{"alias": "sandwiches", "title": "Sandwiches"}, {"alias": "hotdogs", "title": "Fast Food"}, {"alias": "delis", "title": "Delis"}], "rating": 3.5, "coordinates": {"latitude": 33.066994, "longitude": -117.26326}, "transactions": [], "price": "$", "location": {"address1": "1070 N El Camino Real", "address2": "", "address3": "", "city": "Encinitas", "zip_code": "92024", "country": "US", "state": "CA", "display_address": ["1070 N El Camino Real", "Encinitas, CA 92024"]}, "phone": "+17606346800", "display_phone": "(760) 634-6800", "distance": 6556.569817240225}, {"id": "hU3fuUNW_aqOOjG-xHXX9g", "alias": "chipotle-mexican-grill-encinitas", "name": "Chipotle Mexican Grill", "image_url": "https://s3-media1.fl.yelpcdn.com/bphoto/HcTyKCBUKZuW1MuQxOzIog/o.jpg", "is_closed": false, "url": "https://www.yelp.com/biz/chipotle-mexican-grill-encinitas?adjust_creative=oncXGL2aPIKrtJdnWeFSnA&utm_campaign=yelp_api_v3&utm_medium=api_v3_business_search&utm_source=oncXGL2aPIKrtJdnWeFSnA", "review_count": 124, "categories": [{"alias": "mexican", "title": "Mexican"}, {"alias": "hotdogs", "title": "Fast Food"}], "rating": 3.5, "coordinates": {"latitude": 33.052259407957, "longitude": -117.261572691785}, "transactions": [], "price": "$", "location": {"address1": "268 N El Camino Real", "address2": "", "address3": "", "city": "Encinitas", "zip_code": "92024", "country": "US", "state": "CA", "display_address": ["268 N El Camino Real", "Encinitas, CA 92024"]}, "phone": "+17606353863", "display_phone": "(760) 635-3863", "distance": 8153.463018128675}], "total": 269, "region": {"center": {"longitude": -117.28866577148438, "latitude": 33.12198326621279}}}