{"businesses": [{"id": "4VO1vT_WFQzw-9c2FMuVug", "alias": "kosher-barbecue-bounty-and-steak-night-carlsbad", "name": "Kosher Barbecue Bounty & Steak Night", "image_url": "https://s3-media4.fl.yelpcdn.com/bphoto/ZsynhaWqYJG66C8BQxfiXA/o.jpg", "is_closed": false, "url": "https://www.yelp.com/biz/kosher-barbecue-bounty-and-steak-night-carlsbad?adjust_creative=oncXGL2aPIKrtJdnWeFSnA&utm_campaign=yelp_api_v3&utm_medium=api_v3_business_search&utm_source=oncXGL2aPIKrtJdnWeFSnA", "review_count": 3, "categories": [{"alias": "kosher", "title": "Kosher"}], "rating": 5.0, "coordinates": {"latitude": 33.08596, "longitude": -117.26609}, "transactions": [], "location": {"address1": "1980 La Costa Ave", "address2": "", "address3": "", "city": "Carlsbad", "zip_code": "92009", "country": "US", "state": "CA", "display_address": ["1980 La Costa Ave", "Carlsbad, CA 92009"]}, "phone": "+17609438891", "display_phone": "(760) 943-8891", "distance": 4524.351285020848}, {"id": "M9htuhrsaFepzIHxtmqbWA", "alias": "place-cafe-at-the-jcc-la-jolla", "name": "Place Cafe at The JCC", "image_url": "https://s3-media3.fl.yelpcdn.com/bphoto/MO4zLZ9yfEelAcxYrJdsSA/o.jpg", "is_closed": false, "url": "https://www.yelp.com/biz/place-cafe-at-the-jcc-la-jolla?adjust_creative=oncXGL2aPIKrtJdnWeFSnA&utm_campaign=yelp_api_v3&utm_medium=api_v3_business_search&utm_source=oncXGL2aPIKrtJdnWeFSnA", "review_count": 40, "categories": [{"alias": "kosher", "title": "Kosher"}, {"alias": "mediterranean", "title": "Mediterranean"}], "rating": 4.5, "coordinates": {"latitude": 32.8752449, "longitude": -117.2157805}, "transactions": [], "price": "$$", "location": {"address1": "4126 Executive Dr", "address2": "", "address3": "", "city": "La Jolla", "zip_code": "92037", "country": "US", "state": "CA", "display_address": ["4126 Executive Dr", "La Jolla, CA 92037"]}, "phone": "+18584573030", "display_phone": "(858) 457-3030", "distance": 28243.557600623775}, {"id": "SUvIYqqkRYW7tq6qiC68AQ", "alias": "moishes-grill-san-diego", "name": "Moishe's Grill", "image_url": "https://s3-media1.fl.yelpcdn.com/bphoto/KlPjGDKxJs5v4FR3r-dYgw/o.jpg", "is_closed": false, "url": "https://www.yelp.com/biz/moishes-grill-san-diego?adjust_creative=oncXGL2aPIKrtJdnWeFSnA&utm_campaign=yelp_api_v3&utm_medium=api_v3_business_search&utm_source=oncXGL2aPIKrtJdnWeFSnA", "review_count": 1, "categories": [{"alias": "kosher", "title": "Kosher"}], "rating": 5.0, "coordinates": {"latitude": 32.7663161643654, "longitude": -117.06666469574}, "transactions": [], "location": {"address1": "4855 College Ave", "address2": "Beth Jacob Congregation", "address3": null, "city": "San Diego", "zip_code": "92115", "country": "US", "state": "CA", "display_address": ["4855 College Ave", "Beth Jacob Congregation", "San Diego, CA 92115"]}, "phone": "+16198175914", "display_phone": "(619) 817-5914", "distance": 44645.486431446356}, {"id": "vdjPo-RHFxY04RgBvwZ3Ug", "alias": "the-kosher-bite-laguna-hills", "name": "The Kosher Bite", "image_url": "https://s3-media4.fl.yelpcdn.com/bphoto/OGn_BGFmGAw2WTMEdyYgJg/o.jpg", "is_closed": false, "url": "https://www.yelp.com/biz/the-kosher-bite-laguna-hills?adjust_creative=oncXGL2aPIKrtJdnWeFSnA&utm_campaign=yelp_api_v3&utm_medium=api_v3_business_search&utm_source=oncXGL2aPIKrtJdnWeFSnA", "review_count": 127, "categories": [{"alias": "delis", "title": "Delis"}, {"alias": "kosher", "title": "Kosher"}], "rating": 4.0, "coordinates": {"latitude": 33.6195554732439, "longitude": -117.733263867737}, "transactions": [], "price": "$", "location": {"address1": "23595 Moulton Pkwy", "address2": "Ste H", "address3": "", "city": "Laguna Hills", "zip_code": "92653", "country": "US", "state": "CA", "display_address": ["23595 Moulton Pkwy", "Ste H", "Laguna Hills, CA 92653"]}, "phone": "+19497701818", "display_phone": "(949) 770-1818", "distance": 69033.71107496161}, {"id": "0I2fQGmOyCZ5gNAjSss36w", "alias": "jerusalem-grill-tijuana", "name": "Jerusalem Grill", "image_url": "https://s3-media1.fl.yelpcdn.com/bphoto/IuNd2dRKr9qsyfBhPnu6bQ/o.jpg", "is_closed": false, "url": "https://www.yelp.com/biz/jerusalem-grill-tijuana?adjust_creative=oncXGL2aPIKrtJdnWeFSnA&utm_campaign=yelp_api_v3&utm_medium=api_v3_business_search&utm_source=oncXGL2aPIKrtJdnWeFSnA", "review_count": 3, "categories": [{"alias": "kosher", "title": "Kosher"}], "rating": 3.5, "coordinates": {"latitude": 32.515533, "longitude": -117.020793}, "transactions": [], "location": {"address1": "Blvrd Cuauhtemoc Sur Pte 3000", "address2": "Col. Gabilondo", "address3": "", "city": "Tijuana", "zip_code": "04370", "country": "MX", "state": "BCN", "display_address": ["Blvrd Cuauhtemoc Sur Pte 3000", "Col. Gabilondo", "04370 Tijuana, Baja California", "Mexico"]}, "phone": "+526646862692", "display_phone": "+52 664 686 2692", "distance": 71930.11877354329}], "total": 5, "region": {"center": {"longitude": -117.28866577148438, "latitude": 33.12198326621279}}}