{"businesses": [{"id": "3bAOfawO5RCGi6-wSAFpjA", "alias": "pisco-rotisserie-and-cevicheria-carlsbad", "name": "Pisco Rotisserie & Cevicheria", "image_url": "https://s3-media4.fl.yelpcdn.com/bphoto/Np1BFv0nIIVM436NAyu4mQ/o.jpg", "is_closed": false, "url": "https://www.yelp.com/biz/pisco-rotisserie-and-cevicheria-carlsbad?adjust_creative=oncXGL2aPIKrtJdnWeFSnA&utm_campaign=yelp_api_v3&utm_medium=api_v3_business_search&utm_source=oncXGL2aPIKrtJdnWeFSnA", "review_count": 293, "categories": [{"alias": "peruvian", "title": "Peruvian"}, {"alias": "seafood", "title": "Seafood"}], "rating": 4.0, "coordinates": {"latitude": 33.12399, "longitude": -117.32414}, "transactions": [], "price": "$$", "location": {"address1": "5970 Avenida Encinas", "address2": "", "address3": null, "city": "Carlsbad", "zip_code": "92008", "country": "US", "state": "CA", "display_address": ["5970 Avenida Encinas", "Carlsbad, CA 92008"]}, "phone": "+17604381212", "display_phone": "(760) 438-1212", "distance": 3311.6083829719432}, {"id": "mGdsGFALJmrGDRd1YW6hGg", "alias": "panca-peruvian-cuisine-and-rotisserie-oceanside-3", "name": "Panca Peruvian Cuisine & Rotisserie", "image_url": "https://s3-media4.fl.yelpcdn.com/bphoto/IDsgFlBwgCkkn-PMAXCSTg/o.jpg", "is_closed": false, "url": "https://www.yelp.com/biz/panca-peruvian-cuisine-and-rotisserie-oceanside-3?adjust_creative=oncXGL2aPIKrtJdnWeFSnA&utm_campaign=yelp_api_v3&utm_medium=api_v3_business_search&utm_source=oncXGL2aPIKrtJdnWeFSnA", "review_count": 734, "categories": [{"alias": "peruvian", "title": "Peruvian"}], "rating": 4.5, "coordinates": {"latitude": 33.1738223352608, "longitude": -117.360564861833}, "transactions": ["delivery", "pickup"], "price": "$$", "location": {"address1": "1902 S Coast Hwy", "address2": "", "address3": "", "city": "Oceanside", "zip_code": "92054", "country": "US", "state": "CA", "display_address": ["1902 S Coast Hwy", "Oceanside, CA 92054"]}, "phone": "+17607223396", "display_phone": "(760) 722-3396", "distance": 8833.607688539334}, {"id": "zkKCB1lDRRexR1PqKBmG4A", "alias": "qero-restaurant-encinitas-2", "name": "Q'ero Restaurant", "image_url": "https://s3-media3.fl.yelpcdn.com/bphoto/0TR0WRyzPjK5OS6c4gNGbA/o.jpg", "is_closed": false, "url": "https://www.yelp.com/biz/qero-restaurant-encinitas-2?adjust_creative=oncXGL2aPIKrtJdnWeFSnA&utm_campaign=yelp_api_v3&utm_medium=api_v3_business_search&utm_source=oncXGL2aPIKrtJdnWeFSnA", "review_count": 605, "categories": [{"alias": "peruvian", "title": "Peruvian"}], "rating": 4.0, "coordinates": {"latitude": 33.0451, "longitude": -117.29402}, "transactions": [], "price": "$$$", "location": {"address1": "564 S Coast Hwy 101", "address2": null, "address3": "", "city": "Encinitas", "zip_code": "92024", "country": "US", "state": "CA", "display_address": ["564 S Coast Hwy 101", "Encinitas, CA 92024"]}, "phone": "+17607539050", "display_phone": "(760) 753-9050", "distance": 8556.547005296248}, {"id": "DlF-gL8t3T0zRCPNXxDwRA", "alias": "cafe-secret-del-mar", "name": "Cafe Secret", "image_url": "https://s3-media1.fl.yelpcdn.com/bphoto/QttaARNDqCDQ4VSjrAYySQ/o.jpg", "is_closed": false, "url": "https://www.yelp.com/biz/cafe-secret-del-mar?adjust_creative=oncXGL2aPIKrtJdnWeFSnA&utm_campaign=yelp_api_v3&utm_medium=api_v3_business_search&utm_source=oncXGL2aPIKrtJdnWeFSnA", "review_count": 522, "categories": [{"alias": "peruvian", "title": "Peruvian"}, {"alias": "cafes", "title": "Cafes"}, {"alias": "seafood", "title": "Seafood"}], "rating": 4.0, "coordinates": {"latitude": 32.95612, "longitude": -117.26436}, "transactions": [], "price": "$$", "location": {"address1": "1140 Camino Del Mar", "address2": "", "address3": "", "city": "Del Mar", "zip_code": "92014", "country": "US", "state": "CA", "display_address": ["1140 Camino Del Mar", "Del Mar, CA 92014"]}, "phone": "+18587920821", "display_phone": "(858) 792-0821", "distance": 18580.31723669027}, {"id": "iCLgNea5a2zCS3o3nQrVdQ", "alias": "tambo-cafe-oceanside-3", "name": "Tambo Cafe", "image_url": "https://s3-media1.fl.yelpcdn.com/bphoto/zNVsCViR_P3DA_RwZGD0sg/o.jpg", "is_closed": false, "url": "https://www.yelp.com/biz/tambo-cafe-oceanside-3?adjust_creative=oncXGL2aPIKrtJdnWeFSnA&utm_campaign=yelp_api_v3&utm_medium=api_v3_business_search&utm_source=oncXGL2aPIKrtJdnWeFSnA", "review_count": 20, "categories": [{"alias": "desserts", "title": "Desserts"}, {"alias": "peruvian", "title": "Peruvian"}, {"alias": "cafes", "title": "Cafes"}], "rating": 4.0, "coordinates": {"latitude": 33.1735764, "longitude": -117.360634}, "transactions": [], "location": {"address1": "1904 S Coast Hwy", "address2": "", "address3": null, "city": "Oceanside", "zip_code": "92054", "country": "US", "state": "CA", "display_address": ["1904 S Coast Hwy", "Oceanside, CA 92054"]}, "phone": "+17606963090", "display_phone": "(760) 696-3090", "distance": 8802.45150634208}], "total": 5, "region": {"center": {"longitude": -117.28866577148438, "latitude": 33.12198326621279}}}