{"businesses": [{"id": "d7BWosg1jl0TSI325fFMAw", "alias": "7-mile-kitchen-carlsbad", "name": "7 Mile Kitchen", "image_url": "https://s3-media2.fl.yelpcdn.com/bphoto/-MrjKPdeIX99iMbyxBIVPw/o.jpg", "is_closed": false, "url": "https://www.yelp.com/biz/7-mile-kitchen-carlsbad?adjust_creative=oncXGL2aPIKrtJdnWeFSnA&utm_campaign=yelp_api_v3&utm_medium=api_v3_business_search&utm_source=oncXGL2aPIKrtJdnWeFSnA", "review_count": 85, "categories": [{"alias": "newamerican", "title": "American (New)"}, {"alias": "pizza", "title": "Pizza"}, {"alias": "burgers", "title": "Burgers"}], "rating": 3.5, "coordinates": {"latitude": 33.1327473, "longitude": -117.3118966}, "transactions": [], "price": "$$", "location": {"address1": "5420 Grand Pacific Dr", "address2": null, "address3": "", "city": "Carlsbad", "zip_code": "92008", "country": "US", "state": "CA", "display_address": ["5420 Grand Pacific Dr", "Carlsbad, CA 92008"]}, "phone": "+17608272514", "display_phone": "(760) 827-2514", "distance": 2472.31626291649}, {"id": "aRacnEURw6oTkrijdeUZXA", "alias": "buona-forchetta-encinitas", "name": "Buona Forchetta", "image_url": "https://s3-media3.fl.yelpcdn.com/bphoto/WXve-tSW9FcOXICtSENE9g/o.jpg", "is_closed": false, "url": "https://www.yelp.com/biz/buona-forchetta-encinitas?adjust_creative=oncXGL2aPIKrtJdnWeFSnA&utm_campaign=yelp_api_v3&utm_medium=api_v3_business_search&utm_source=oncXGL2aPIKrtJdnWeFSnA", "review_count": 29, "categories": [{"alias": "pizza", "title": "Pizza"}, {"alias": "italian", "title": "Italian"}, {"alias": "wine_bars", "title": "Wine Bars"}], "rating": 5.0, "coordinates": {"latitude": 33.05359, "longitude": -117.29659}, "transactions": [], "location": {"address1": "250 N Coast Hwy 101", "address2": "", "address3": null, "city": "Encinitas", "zip_code": "92024", "country": "US", "state": "CA", "display_address": ["250 N Coast Hwy 101", "Encinitas, CA 92024"]}, "phone": "+17607048070", "display_phone": "(760) 704-8070", "distance": 7638.977038824506}, {"id": "cto_W4jjMqI6dU7G7JaKTA", "alias": "pizza-port-carlsbad-3", "name": "Pizza Port", "image_url": "https://s3-media2.fl.yelpcdn.com/bphoto/DT_E8CKJE-BlqKzXfiaDbA/o.jpg", "is_closed": false, "url": "https://www.yelp.com/biz/pizza-port-carlsbad-3?adjust_creative=oncXGL2aPIKrtJdnWeFSnA&utm_campaign=yelp_api_v3&utm_medium=api_v3_business_search&utm_source=oncXGL2aPIKrtJdnWeFSnA", "review_count": 1854, "categories": [{"alias": "pizza", "title": "Pizza"}, {"alias": "breweries", "title": "Breweries"}, {"alias": "beerbar", "title": "Beer Bar"}], "rating": 3.5, "coordinates": {"latitude": 33.1598323, "longitude": -117.3478227}, "transactions": ["pickup"], "price": "$$", "location": {"address1": "571 Carlsbad Village Dr", "address2": "", "address3": "", "city": "Carlsbad", "zip_code": "92008", "country": "US", "state": "CA", "display_address": ["571 Carlsbad Village Dr", "Carlsbad, CA 92008"]}, "phone": "+17607207007", "display_phone": "(760) 720-7007", "distance": 6930.699742061565}, {"id": "eTiQGScV5TbUfFeH4etwMQ", "alias": "blaze-fast-fired-pizza-carlsbad", "name": "Blaze Fast-Fire'd Pizza", "image_url": "https://s3-media4.fl.yelpcdn.com/bphoto/RdiWPOGfcK5C4bmnuL0MvA/o.jpg", "is_closed": false, "url": "https://www.yelp.com/biz/blaze-fast-fired-pizza-carlsbad?adjust_creative=oncXGL2aPIKrtJdnWeFSnA&utm_campaign=yelp_api_v3&utm_medium=api_v3_business_search&utm_source=oncXGL2aPIKrtJdnWeFSnA", "review_count": 686, "categories": [{"alias": "pizza", "title": "Pizza"}, {"alias": "salad", "title": "Salad"}, {"alias": "hotdogs", "title": "Fast Food"}], "rating": 4.5, "coordinates": {"latitude": 33.1250977336068, "longitude": -117.320182059245}, "transactions": [], "price": "$", "location": {"address1": "5620 Paseo Del Norte", "address2": "", "address3": "", "city": "Carlsbad", "zip_code": "92008", "country": "US", "state": "CA", "display_address": ["5620 Paseo Del Norte", "Carlsbad, CA 92008"]}, "phone": "+17608945029", "display_phone": "(760) 894-5029", "distance": 2955.315742368081}, {"id": "t93BSZqSbW7e6MpPXVhz2g", "alias": "primo-pizza-and-pasta-carlsbad-2", "name": "Primo Pizza & Pasta", "image_url": "https://s3-media2.fl.yelpcdn.com/bphoto/E7_2a5JKHkvutKdrriCcew/o.jpg", "is_closed": false, "url": "https://www.yelp.com/biz/primo-pizza-and-pasta-carlsbad-2?adjust_creative=oncXGL2aPIKrtJdnWeFSnA&utm_campaign=yelp_api_v3&utm_medium=api_v3_business_search&utm_source=oncXGL2aPIKrtJdnWeFSnA", "review_count": 316, "categories": [{"alias": "pizza", "title": "Pizza"}, {"alias": "italian", "title": "Italian"}, {"alias": "salad", "title": "Salad"}], "rating": 4.0, "coordinates": {"latitude": 33.10132, "longitude": -117.31131}, "transactions": ["pickup", "delivery"], "price": "$", "location": {"address1": "7110 Avenida Encinas", "address2": "Ste 103", "address3": "", "city": "Carlsbad", "zip_code": "92011", "country": "US", "state": "CA", "display_address": ["7110 Avenida Encinas", "Ste 103", "Carlsbad, CA 92011"]}, "phone": "+17604317155", "display_phone": "(760) 431-7155", "distance": 3074.515587889647}, {"id": "dYOccn1az0n0blBWuory1Q", "alias": "roosevelt-pizzeria-carlsbad-3", "name": "Roosevelt Pizzeria", "image_url": "https://s3-media1.fl.yelpcdn.com/bphoto/hntv0gM16K84bjR0MprHXA/o.jpg", "is_closed": false, "url": "https://www.yelp.com/biz/roosevelt-pizzeria-carlsbad-3?adjust_creative=oncXGL2aPIKrtJdnWeFSnA&utm_campaign=yelp_api_v3&utm_medium=api_v3_business_search&utm_source=oncXGL2aPIKrtJdnWeFSnA", "review_count": 179, "categories": [{"alias": "pizza", "title": "Pizza"}, {"alias": "italian", "title": "Italian"}], "rating": 4.5, "coordinates": {"latitude": 33.15929, "longitude": -117.34738}, "transactions": [], "price": "$$", "location": {"address1": "3067 Roosevelt St", "address2": "", "address3": "", "city": "Carlsbad", "zip_code": "92008", "country": "US", "state": "CA", "display_address": ["3067 Roosevelt St", "Carlsbad, CA 92008"]}, "phone": "+17607309105", "display_phone": "(760) 730-9105", "distance": 6857.5226090791075}, {"id": "UPGYeMQGPyKahAsW0AMorw", "alias": "mangia-e-bevi-oceanside", "name": "Mangia e Bevi", "image_url": "https://s3-media2.fl.yelpcdn.com/bphoto/JyNc7RZ6xSYKdnkOArHM2Q/o.jpg", "is_closed": false, "url": "https://www.yelp.com/biz/mangia-e-bevi-oceanside?adjust_creative=oncXGL2aPIKrtJdnWeFSnA&utm_campaign=yelp_api_v3&utm_medium=api_v3_business_search&utm_source=oncXGL2aPIKrtJdnWeFSnA", "review_count": 16, "categories": [{"alias": "italian", "title": "Italian"}, {"alias": "pizza", "title": "Pizza"}, {"alias": "wine_bars", "title": "Wine Bars"}], "rating": 5.0, "coordinates": {"latitude": 33.21011, "longitude": -117.31162}, "transactions": [], "location": {"address1": "3613 Ocean Ranch Blvd", "address2": "Ste 100", "address3": "", "city": "Oceanside", "zip_code": "92056", "country": "US", "state": "CA", "display_address": ["3613 Ocean Ranch Blvd", "Ste 100", "Oceanside, CA 92056"]}, "phone": "+17602311225", "display_phone": "(760) 231-1225", "distance": 10024.522637352935}, {"id": "3HwghixraHhQaG5GAChmsw", "alias": "bites-pints-taphouse-carlsbad", "name": "Bites + Pints Taphouse", "image_url": "https://s3-media2.fl.yelpcdn.com/bphoto/npuXcrqFlA6N8RsDvTzNlw/o.jpg", "is_closed": false, "url": "https://www.yelp.com/biz/bites-pints-taphouse-carlsbad?adjust_creative=oncXGL2aPIKrtJdnWeFSnA&utm_campaign=yelp_api_v3&utm_medium=api_v3_business_search&utm_source=oncXGL2aPIKrtJdnWeFSnA", "review_count": 23, "categories": [{"alias": "pizza", "title": "Pizza"}, {"alias": "tradamerican", "title": "American (Traditional)"}, {"alias": "salad", "title": "Salad"}], "rating": 3.5, "coordinates": {"latitude": 33.17993, "longitude": -117.32715}, "transactions": ["pickup", "delivery"], "location": {"address1": "2501 El Camino Real", "address2": "Ste 210", "address3": null, "city": "Carlsbad", "zip_code": "92008", "country": "US", "state": "CA", "display_address": ["2501 El Camino Real", "Ste 210", "Carlsbad, CA 92008"]}, "phone": "+17607291904", "display_phone": "(760) 729-1904", "distance": 7329.039866173189}, {"id": "Pk1RB_ymVaY1ZK4XcskvYQ", "alias": "bjs-restaurant-and-brewhouse-carlsbad-2", "name": "BJ's Restaurant & Brewhouse", "image_url": "https://s3-media2.fl.yelpcdn.com/bphoto/bpLbi_sIatXNr6NLy87DLg/o.jpg", "is_closed": false, "url": "https://www.yelp.com/biz/bjs-restaurant-and-brewhouse-carlsbad-2?adjust_creative=oncXGL2aPIKrtJdnWeFSnA&utm_campaign=yelp_api_v3&utm_medium=api_v3_business_search&utm_source=oncXGL2aPIKrtJdnWeFSnA", "review_count": 847, "categories": [{"alias": "breweries", "title": "Breweries"}, {"alias": "newamerican", "title": "American (New)"}, {"alias": "pizza", "title": "Pizza"}], "rating": 3.0, "coordinates": {"latitude": 33.127135, "longitude": -117.324024}, "transactions": ["delivery"], "price": "$$", "location": {"address1": "5613 Paseo Del Norte", "address2": "", "address3": "", "city": "Carlsbad", "zip_code": "92008", "country": "US", "state": "CA", "display_address": ["5613 Paseo Del Norte", "Carlsbad, CA 92008"]}, "phone": "+17605794440", "display_phone": "(760) 579-4440", "distance": 3342.1561143164577}, {"id": "eWIgR7DeS7BnKbFtIp-m4w", "alias": "pizza-port-bressi-ranch-carlsbad", "name": "Pizza Port Bressi Ranch", "image_url": "https://s3-media2.fl.yelpcdn.com/bphoto/I4DZ4hgRvvei0oqrTyvsXQ/o.jpg", "is_closed": false, "url": "https://www.yelp.com/biz/pizza-port-bressi-ranch-carlsbad?adjust_creative=oncXGL2aPIKrtJdnWeFSnA&utm_campaign=yelp_api_v3&utm_medium=api_v3_business_search&utm_source=oncXGL2aPIKrtJdnWeFSnA", "review_count": 518, "categories": [{"alias": "pizza", "title": "Pizza"}, {"alias": "pubs", "title": "Pubs"}], "rating": 3.5, "coordinates": {"latitude": 33.1283833252746, "longitude": -117.25021150388}, "transactions": ["pickup"], "price": "$$", "location": {"address1": "2730 Gateway Rd", "address2": null, "address3": "", "city": "Carlsbad", "zip_code": "92009", "country": "US", "state": "CA", "display_address": ["2730 Gateway Rd", "Carlsbad, CA 92009"]}, "phone": "+17607071655", "display_phone": "(760) 707-1655", "distance": 3651.016146488111}, {"id": "iMkiZxT_qnXkM_ihV4apqA", "alias": "knockout-pizza-carlsbad-3", "name": "Knockout Pizza", "image_url": "https://s3-media3.fl.yelpcdn.com/bphoto/2lirLD2vlIcmt9Ccfoyovw/o.jpg", "is_closed": false, "url": "https://www.yelp.com/biz/knockout-pizza-carlsbad-3?adjust_creative=oncXGL2aPIKrtJdnWeFSnA&utm_campaign=yelp_api_v3&utm_medium=api_v3_business_search&utm_source=oncXGL2aPIKrtJdnWeFSnA", "review_count": 426, "categories": [{"alias": "pizza", "title": "Pizza"}], "rating": 4.0, "coordinates": {"latitude": 33.1588609, "longitude": -117.3517835}, "transactions": ["pickup", "delivery"], "price": "$", "location": {"address1": "2937 Carlsbad Blvd", "address2": "", "address3": "", "city": "Carlsbad", "zip_code": "92008", "country": "US", "state": "CA", "display_address": ["2937 Carlsbad Blvd", "Carlsbad, CA 92008"]}, "phone": "+17604344468", "display_phone": "(760) 434-4468", "distance": 7159.763011557723}, {"id": "3GsXr0QB3olbteXRU38Epw", "alias": "rosaria-pizza-oceanside", "name": "Rosaria Pizza", "image_url": "https://s3-media1.fl.yelpcdn.com/bphoto/5qlTdYUXchi1q07pY9YOIA/o.jpg", "is_closed": false, "url": "https://www.yelp.com/biz/rosaria-pizza-oceanside?adjust_creative=oncXGL2aPIKrtJdnWeFSnA&utm_campaign=yelp_api_v3&utm_medium=api_v3_business_search&utm_source=oncXGL2aPIKrtJdnWeFSnA", "review_count": 5, "categories": [{"alias": "pizza", "title": "Pizza"}], "rating": 5.0, "coordinates": {"latitude": 33.19566, "longitude": -117.38085}, "transactions": ["pickup", "delivery"], "location": {"address1": "209 N Tremont St", "address2": null, "address3": "", "city": "Oceanside", "zip_code": "92054", "country": "US", "state": "CA", "display_address": ["209 N Tremont St", "Oceanside, CA 92054"]}, "phone": "+17607221949", "display_phone": "(760) 722-1949", "distance": 11863.241977776623}, {"id": "d1WKFhg5l_LCgnMHs140hQ", "alias": "pieology-pizzeria-carlsbad", "name": "Pieology Pizzeria", "image_url": "https://s3-media2.fl.yelpcdn.com/bphoto/EqC44ep-lYF3vLMwIQNM3Q/o.jpg", "is_closed": false, "url": "https://www.yelp.com/biz/pieology-pizzeria-carlsbad?adjust_creative=oncXGL2aPIKrtJdnWeFSnA&utm_campaign=yelp_api_v3&utm_medium=api_v3_business_search&utm_source=oncXGL2aPIKrtJdnWeFSnA", "review_count": 200, "categories": [{"alias": "pizza", "title": "Pizza"}], "rating": 4.0, "coordinates": {"latitude": 33.1272292, "longitude": -117.253689}, "transactions": [], "price": "$", "location": {"address1": "2647 Gateway Rd", "address2": "Ste 101", "address3": null, "city": "Carlsbad", "zip_code": "92009", "country": "US", "state": "CA", "display_address": ["2647 Gateway Rd", "Ste 101", "Carlsbad, CA 92009"]}, "phone": "+17609308988", "display_phone": "(760) 930-8988", "distance": 3288.6286346275983}, {"id": "v1H9N_3k3ckng8NcZek6gw", "alias": "fratellis-italian-kitchen-oceanside-5", "name": "Fratelli's Italian Kitchen", "image_url": "https://s3-media1.fl.yelpcdn.com/bphoto/rAUy6VUipaPXVzdSQ-g2lg/o.jpg", "is_closed": false, "url": "https://www.yelp.com/biz/fratellis-italian-kitchen-oceanside-5?adjust_creative=oncXGL2aPIKrtJdnWeFSnA&utm_campaign=yelp_api_v3&utm_medium=api_v3_business_search&utm_source=oncXGL2aPIKrtJdnWeFSnA", "review_count": 680, "categories": [{"alias": "italian", "title": "Italian"}, {"alias": "pizza", "title": "Pizza"}, {"alias": "seafood", "title": "Seafood"}], "rating": 4.5, "coordinates": {"latitude": 33.2281406, "longitude": -117.3245743}, "transactions": ["pickup", "delivery"], "price": "$$", "location": {"address1": "3915 Mission Ave", "address2": "Ste 12", "address3": "", "city": "Oceanside", "zip_code": "92058", "country": "US", "state": "CA", "display_address": ["3915 Mission Ave", "Ste 12", "Oceanside, CA 92058"]}, "phone": "+17606969007", "display_phone": "(760) 696-9007", "distance": 12193.131822847668}, {"id": "cVVxcRO-m-ObsuYD3thxLQ", "alias": "crust-pizzeria-carlsbad", "name": "Crust Pizzeria", "image_url": "https://s3-media3.fl.yelpcdn.com/bphoto/CVNKSesTTLGh52dCBMR7iQ/o.jpg", "is_closed": false, "url": "https://www.yelp.com/biz/crust-pizzeria-carlsbad?adjust_creative=oncXGL2aPIKrtJdnWeFSnA&utm_campaign=yelp_api_v3&utm_medium=api_v3_business_search&utm_source=oncXGL2aPIKrtJdnWeFSnA", "review_count": 357, "categories": [{"alias": "pizza", "title": "Pizza"}, {"alias": "wine_bars", "title": "Wine Bars"}, {"alias": "italian", "title": "Italian"}], "rating": 4.0, "coordinates": {"latitude": 33.0757914, "longitude": -117.2378596}, "transactions": ["delivery"], "price": "$$", "location": {"address1": "3263 Camino De Los Coches", "address2": "Ste 105", "address3": "", "city": "Carlsbad", "zip_code": "92009", "country": "US", "state": "CA", "display_address": ["3263 Camino De Los Coches", "Ste 105", "Carlsbad, CA 92009"]}, "phone": "+17609441111", "display_phone": "(760) 944-1111", "distance": 6999.185147655399}, {"id": "tf0EGIrqf0YqdqTyl-F0tA", "alias": "pizzamaniac-vista-5", "name": "Pizzamaniac", "image_url": "https://s3-media1.fl.yelpcdn.com/bphoto/zVzg8bzX3nzhTW2iSBMV8g/o.jpg", "is_closed": false, "url": "https://www.yelp.com/biz/pizzamaniac-vista-5?adjust_creative=oncXGL2aPIKrtJdnWeFSnA&utm_campaign=yelp_api_v3&utm_medium=api_v3_business_search&utm_source=oncXGL2aPIKrtJdnWeFSnA", "review_count": 473, "categories": [{"alias": "pizza", "title": "Pizza"}], "rating": 5.0, "coordinates": {"latitude": 33.2209354, "longitude": -117.2435248}, "transactions": [], "price": "$", "location": {"address1": "1461 N Santa Fe Ave", "address2": null, "address3": "", "city": "Vista", "zip_code": "92084", "country": "US", "state": "CA", "display_address": ["1461 N Santa Fe Ave", "Vista, CA 92084"]}, "phone": "+17609459901", "display_phone": "(760) 945-9901", "distance": 11777.836616529945}, {"id": "c4JMxplh7LSKotJWZTXMEg", "alias": "allens-new-york-pizza-carlsbad", "name": "Allen's New York Pizza", "image_url": "https://s3-media2.fl.yelpcdn.com/bphoto/J3Y5R-ljCiB6QTo_b6_MBg/o.jpg", "is_closed": false, "url": "https://www.yelp.com/biz/allens-new-york-pizza-carlsbad?adjust_creative=oncXGL2aPIKrtJdnWeFSnA&utm_campaign=yelp_api_v3&utm_medium=api_v3_business_search&utm_source=oncXGL2aPIKrtJdnWeFSnA", "review_count": 224, "categories": [{"alias": "pizza", "title": "Pizza"}, {"alias": "italian", "title": "Italian"}], "rating": 3.5, "coordinates": {"latitude": 33.1042566703733, "longitude": -117.268763358981}, "transactions": ["pickup", "delivery"], "price": "$", "location": {"address1": "6943 El Camino Real", "address2": "", "address3": "", "city": "Carlsbad", "zip_code": "92009", "country": "US", "state": "CA", "display_address": ["6943 El Camino Real", "Carlsbad, CA 92009"]}, "phone": "+17609189999", "display_phone": "(760) 918-9999", "distance": 2705.7732482093925}, {"id": "PSR6JnOP5r87fuwjyiY4gA", "alias": "criscito-pizza-carlsbad", "name": "Criscito Pizza", "image_url": "https://s3-media2.fl.yelpcdn.com/bphoto/C_ZZ08EGtYZJUyqX3DZzdA/o.jpg", "is_closed": false, "url": "https://www.yelp.com/biz/criscito-pizza-carlsbad?adjust_creative=oncXGL2aPIKrtJdnWeFSnA&utm_campaign=yelp_api_v3&utm_medium=api_v3_business_search&utm_source=oncXGL2aPIKrtJdnWeFSnA", "review_count": 81, "categories": [{"alias": "pizza", "title": "Pizza"}, {"alias": "foodtrucks", "title": "Food Trucks"}], "rating": 4.5, "coordinates": {"latitude": 33.148057, "longitude": -117.305483}, "transactions": [], "price": "$$", "location": {"address1": "", "address2": "", "address3": "", "city": "Carlsbad", "zip_code": "92008", "country": "US", "state": "CA", "display_address": ["Carlsbad, CA 92008"]}, "phone": "+17603319638", "display_phone": "(760) 331-9638", "distance": 3655.902635888155}, {"id": "B2opzGJ5QPVo4Sx3W5giWw", "alias": "carlsbad-pizza-by-the-slice-carlsbad-2", "name": "Carlsbad Pizza by the Slice", "image_url": "https://s3-media1.fl.yelpcdn.com/bphoto/G5yKlnEPLn5IP8shqPFZ6g/o.jpg", "is_closed": false, "url": "https://www.yelp.com/biz/carlsbad-pizza-by-the-slice-carlsbad-2?adjust_creative=oncXGL2aPIKrtJdnWeFSnA&utm_campaign=yelp_api_v3&utm_medium=api_v3_business_search&utm_source=oncXGL2aPIKrtJdnWeFSnA", "review_count": 84, "categories": [{"alias": "pizza", "title": "Pizza"}, {"alias": "chicken_wings", "title": "Chicken Wings"}], "rating": 4.0, "coordinates": {"latitude": 33.1358124, "longitude": -117.2878189}, "transactions": ["pickup", "delivery"], "price": "$", "location": {"address1": "5812 Van Allen Way", "address2": "Ste 130", "address3": "", "city": "Carlsbad", "zip_code": "92008", "country": "US", "state": "CA", "display_address": ["5812 Van Allen Way", "Ste 130", "Carlsbad, CA 92008"]}, "phone": "+17604318704", "display_phone": "(760) 431-8704", "distance": 1539.7485958405143}, {"id": "QkeyoOXj1V7I7_gkWsOhOg", "alias": "red-oven-artisanal-pizza-carlsbad-4", "name": "Red Oven Artisanal Pizza", "image_url": "https://s3-media2.fl.yelpcdn.com/bphoto/NObu10C3JQoIrM8wvJ13xw/o.jpg", "is_closed": false, "url": "https://www.yelp.com/biz/red-oven-artisanal-pizza-carlsbad-4?adjust_creative=oncXGL2aPIKrtJdnWeFSnA&utm_campaign=yelp_api_v3&utm_medium=api_v3_business_search&utm_source=oncXGL2aPIKrtJdnWeFSnA", "review_count": 165, "categories": [{"alias": "pizza", "title": "Pizza"}, {"alias": "catering", "title": "Caterers"}, {"alias": "foodtrucks", "title": "Food Trucks"}], "rating": 4.5, "coordinates": {"latitude": 33.0892333984375, "longitude": -117.254249572754}, "transactions": [], "price": "$$", "location": {"address1": "", "address2": "", "address3": "", "city": "Carlsbad", "zip_code": "92009", "country": "US", "state": "CA", "display_address": ["Carlsbad, CA 92009"]}, "phone": "+17608141688", "display_phone": "(760) 814-1688", "distance": 4657.950928045217}, {"id": "nqv_l0D5AsFoL2NHwwMLcg", "alias": "blue-ribbon-artisan-pizzeria-encinitas-2", "name": "Blue Ribbon Artisan Pizzeria", "image_url": "https://s3-media3.fl.yelpcdn.com/bphoto/VYFxOirhj1BV1hBCq4rRQA/o.jpg", "is_closed": false, "url": "https://www.yelp.com/biz/blue-ribbon-artisan-pizzeria-encinitas-2?adjust_creative=oncXGL2aPIKrtJdnWeFSnA&utm_campaign=yelp_api_v3&utm_medium=api_v3_business_search&utm_source=oncXGL2aPIKrtJdnWeFSnA", "review_count": 734, "categories": [{"alias": "pizza", "title": "Pizza"}, {"alias": "salad", "title": "Salad"}, {"alias": "soup", "title": "Soup"}], "rating": 4.0, "coordinates": {"latitude": 33.0421671982666, "longitude": -117.289921863477}, "transactions": ["restaurant_reservation"], "price": "$$", "location": {"address1": "897 S Coast Hwy 101", "address2": "Ste F102", "address3": "", "city": "Encinitas", "zip_code": "92024", "country": "US", "state": "CA", "display_address": ["897 S Coast Hwy 101", "Ste F102", "Encinitas, CA 92024"]}, "phone": "+17606347671", "display_phone": "(760) 634-7671", "distance": 8875.903522410003}, {"id": "iaV-0DI3Mky4WO0uhydohQ", "alias": "grand-slam-pizza-vista", "name": "Grand Slam Pizza", "image_url": "https://s3-media2.fl.yelpcdn.com/bphoto/4H1vJ2M3_tXyylSJFK1bWQ/o.jpg", "is_closed": false, "url": "https://www.yelp.com/biz/grand-slam-pizza-vista?adjust_creative=oncXGL2aPIKrtJdnWeFSnA&utm_campaign=yelp_api_v3&utm_medium=api_v3_business_search&utm_source=oncXGL2aPIKrtJdnWeFSnA", "review_count": 81, "categories": [{"alias": "pizza", "title": "Pizza"}, {"alias": "sportsbars", "title": "Sports Bars"}, {"alias": "italian", "title": "Italian"}], "rating": 5.0, "coordinates": {"latitude": 33.15787, "longitude": -117.24943}, "transactions": ["pickup", "delivery"], "location": {"address1": "1910 Shadowridge Dr", "address2": "Ste 101", "address3": null, "city": "Vista", "zip_code": "92081", "country": "US", "state": "CA", "display_address": ["1910 Shadowridge Dr", "Ste 101", "Vista, CA 92081"]}, "phone": "+17605991199", "display_phone": "(760) 599-1199", "distance": 5438.526001734605}, {"id": "yCnN34-6vks7zBZ7DnFEwQ", "alias": "paradise-pizza-carlsbad", "name": "Paradise Pizza", "image_url": "https://s3-media1.fl.yelpcdn.com/bphoto/SDgUbrb30BBZnwbsZlA99g/o.jpg", "is_closed": false, "url": "https://www.yelp.com/biz/paradise-pizza-carlsbad?adjust_creative=oncXGL2aPIKrtJdnWeFSnA&utm_campaign=yelp_api_v3&utm_medium=api_v3_business_search&utm_source=oncXGL2aPIKrtJdnWeFSnA", "review_count": 331, "categories": [{"alias": "pizza", "title": "Pizza"}, {"alias": "salad", "title": "Salad"}, {"alias": "sandwiches", "title": "Sandwiches"}], "rating": 4.0, "coordinates": {"latitude": 33.16457, "longitude": -117.35204}, "transactions": [], "price": "$$", "location": {"address1": "2564 State St", "address2": "Ste F", "address3": "", "city": "Carlsbad", "zip_code": "92008", "country": "US", "state": "CA", "display_address": ["2564 State St", "Ste F", "Carlsbad, CA 92008"]}, "phone": "+17607297492", "display_phone": "(760) 729-7492", "distance": 7560.507952889433}, {"id": "cJIcN2kZHiOvuvQrH_Ep8g", "alias": "benitos-cafe-oceanside", "name": "Benito's Cafe", "image_url": "https://s3-media2.fl.yelpcdn.com/bphoto/n4K1JC7Z18MNUFaxXir-YA/o.jpg", "is_closed": false, "url": "https://www.yelp.com/biz/benitos-cafe-oceanside?adjust_creative=oncXGL2aPIKrtJdnWeFSnA&utm_campaign=yelp_api_v3&utm_medium=api_v3_business_search&utm_source=oncXGL2aPIKrtJdnWeFSnA", "review_count": 18, "categories": [{"alias": "pizza", "title": "Pizza"}, {"alias": "pastashops", "title": "Pasta Shops"}, {"alias": "chickenshop", "title": "Chicken Shop"}], "rating": 4.5, "coordinates": {"latitude": 33.19667, "longitude": -117.37853}, "transactions": [], "location": {"address1": "610 Mission Ave", "address2": "", "address3": null, "city": "Oceanside", "zip_code": "92054", "country": "US", "state": "CA", "display_address": ["610 Mission Ave", "Oceanside, CA 92054"]}, "phone": "+17607213000", "display_phone": "(760) 721-3000", "distance": 11794.380542696064}, {"id": "KtynJLrjOM1aPWjc0Gy4Qg", "alias": "hammers-ny-pizza-encinitas", "name": "Hammer's NY Pizza", "image_url": "https://s3-media2.fl.yelpcdn.com/bphoto/J9-tW19u2xD8hVvrjxm4Ig/o.jpg", "is_closed": false, "url": "https://www.yelp.com/biz/hammers-ny-pizza-encinitas?adjust_creative=oncXGL2aPIKrtJdnWeFSnA&utm_campaign=yelp_api_v3&utm_medium=api_v3_business_search&utm_source=oncXGL2aPIKrtJdnWeFSnA", "review_count": 181, "categories": [{"alias": "pizza", "title": "Pizza"}], "rating": 4.5, "coordinates": {"latitude": 33.04989, "longitude": -117.25968}, "transactions": [], "price": "$", "location": {"address1": "199 N El Camino Real", "address2": "Ste F", "address3": "", "city": "Encinitas", "zip_code": "92024", "country": "US", "state": "CA", "display_address": ["199 N El Camino Real", "Ste F", "Encinitas, CA 92024"]}, "phone": "+17604875429", "display_phone": "(760) 487-5429", "distance": 8452.319059320233}, {"id": "ePu_rvcv32Q-l-qVaq8P7w", "alias": "that-pizza-place-carlsbad", "name": "That Pizza Place", "image_url": "https://s3-media3.fl.yelpcdn.com/bphoto/hl1QriCBBF5nczNqz-IwSw/o.jpg", "is_closed": false, "url": "https://www.yelp.com/biz/that-pizza-place-carlsbad?adjust_creative=oncXGL2aPIKrtJdnWeFSnA&utm_campaign=yelp_api_v3&utm_medium=api_v3_business_search&utm_source=oncXGL2aPIKrtJdnWeFSnA", "review_count": 244, "categories": [{"alias": "pizza", "title": "Pizza"}], "rating": 3.5, "coordinates": {"latitude": 33.1759356261055, "longitude": -117.324742063477}, "transactions": [], "price": "$$", "location": {"address1": "2622 El Camino Real", "address2": "Ste B", "address3": "", "city": "Carlsbad", "zip_code": "92008", "country": "US", "state": "CA", "display_address": ["2622 El Camino Real", "Ste B", "Carlsbad, CA 92008"]}, "phone": "+17604343171", "display_phone": "(760) 434-3171", "distance": 6875.396269162027}, {"id": "5OTTzfZdp5ld_L5xCN3RAQ", "alias": "cucina-amore-san-marcos-5", "name": "Cucina Amore", "image_url": "https://s3-media2.fl.yelpcdn.com/bphoto/abc7nXpH2KyWcTIO6lnvmg/o.jpg", "is_closed": false, "url": "https://www.yelp.com/biz/cucina-amore-san-marcos-5?adjust_creative=oncXGL2aPIKrtJdnWeFSnA&utm_campaign=yelp_api_v3&utm_medium=api_v3_business_search&utm_source=oncXGL2aPIKrtJdnWeFSnA", "review_count": 245, "categories": [{"alias": "italian", "title": "Italian"}, {"alias": "gelato", "title": "Gelato"}, {"alias": "pizza", "title": "Pizza"}], "rating": 4.0, "coordinates": {"latitude": 33.1318662450634, "longitude": -117.205854914526}, "transactions": ["pickup", "delivery"], "price": "$$", "location": {"address1": "679 S Rancho Santa Fe Rd", "address2": "", "address3": "", "city": "San Marcos", "zip_code": "92078", "country": "US", "state": "CA", "display_address": ["679 S Rancho Santa Fe Rd", "San Marcos, CA 92078"]}, "phone": "+17603046939", "display_phone": "(760) 304-6939", "distance": 7789.37387661313}, {"id": "rhVaTqNvOWjZfXlM_siHRg", "alias": "sublime-alehouse-san-marcos", "name": "Sublime AleHouse", "image_url": "https://s3-media1.fl.yelpcdn.com/bphoto/dzJzsNB_Fp2wcoKr-rIazw/o.jpg", "is_closed": false, "url": "https://www.yelp.com/biz/sublime-alehouse-san-marcos?adjust_creative=oncXGL2aPIKrtJdnWeFSnA&utm_campaign=yelp_api_v3&utm_medium=api_v3_business_search&utm_source=oncXGL2aPIKrtJdnWeFSnA", "review_count": 1087, "categories": [{"alias": "pizza", "title": "Pizza"}, {"alias": "burgers", "title": "Burgers"}, {"alias": "bars", "title": "Bars"}], "rating": 4.0, "coordinates": {"latitude": 33.1343623, "longitude": -117.1901704}, "transactions": ["pickup", "delivery"], "price": "$$", "location": {"address1": "1020 W San Marcos Blvd", "address2": "", "address3": "", "city": "San Marcos", "zip_code": "92078", "country": "US", "state": "CA", "display_address": ["1020 W San Marcos Blvd", "San Marcos, CA 92078"]}, "phone": "+17605109220", "display_phone": "(760) 510-9220", "distance": 9274.611975126572}, {"id": "uP5eA_e6Ts0TMj5Iqvlhhw", "alias": "jays-gourmet-carlsbad", "name": "Jay's Gourmet", "image_url": "https://s3-media2.fl.yelpcdn.com/bphoto/GnzKGRsRdCqYgCoJNnmfVg/o.jpg", "is_closed": false, "url": "https://www.yelp.com/biz/jays-gourmet-carlsbad?adjust_creative=oncXGL2aPIKrtJdnWeFSnA&utm_campaign=yelp_api_v3&utm_medium=api_v3_business_search&utm_source=oncXGL2aPIKrtJdnWeFSnA", "review_count": 318, "categories": [{"alias": "pizza", "title": "Pizza"}, {"alias": "italian", "title": "Italian"}, {"alias": "seafood", "title": "Seafood"}], "rating": 3.5, "coordinates": {"latitude": 33.1583, "longitude": -117.35146}, "transactions": [], "price": "$$", "location": {"address1": "2975 Carlsbad Blvd", "address2": "", "address3": "", "city": "Carlsbad", "zip_code": "92008", "country": "US", "state": "CA", "display_address": ["2975 Carlsbad Blvd", "Carlsbad, CA 92008"]}, "phone": "+17607209688", "display_phone": "(760) 720-9688", "distance": 7107.915427819197}, {"id": "uEwvJBVCrU3YXS1lv4v0Ng", "alias": "caldo-pomodoro-carlsbad", "name": "Caldo Pomodoro", "image_url": "https://s3-media2.fl.yelpcdn.com/bphoto/RRv4A0zgZ-p2xR8PXSE39Q/o.jpg", "is_closed": false, "url": "https://www.yelp.com/biz/caldo-pomodoro-carlsbad?adjust_creative=oncXGL2aPIKrtJdnWeFSnA&utm_campaign=yelp_api_v3&utm_medium=api_v3_business_search&utm_source=oncXGL2aPIKrtJdnWeFSnA", "review_count": 328, "categories": [{"alias": "italian", "title": "Italian"}, {"alias": "seafood", "title": "Seafood"}, {"alias": "pizza", "title": "Pizza"}], "rating": 3.5, "coordinates": {"latitude": 33.16038, "longitude": -117.34967}, "transactions": ["pickup", "delivery"], "price": "$$", "location": {"address1": "2907 State St", "address2": "", "address3": "", "city": "Carlsbad", "zip_code": "92008", "country": "US", "state": "CA", "display_address": ["2907 State St", "Carlsbad, CA 92008"]}, "phone": "+17607209998", "display_phone": "(760) 720-9998", "distance": 7106.345352572849}, {"id": "r53XDut6NW5_bF8TF2dwGA", "alias": "flippin-pizza-vista", "name": "Flippin' Pizza", "image_url": "https://s3-media2.fl.yelpcdn.com/bphoto/Kt3UBw5-JiD-7aMdbNmnqw/o.jpg", "is_closed": false, "url": "https://www.yelp.com/biz/flippin-pizza-vista?adjust_creative=oncXGL2aPIKrtJdnWeFSnA&utm_campaign=yelp_api_v3&utm_medium=api_v3_business_search&utm_source=oncXGL2aPIKrtJdnWeFSnA", "review_count": 246, "categories": [{"alias": "pizza", "title": "Pizza"}], "rating": 4.0, "coordinates": {"latitude": 33.141735, "longitude": -117.242835}, "transactions": ["pickup", "delivery"], "price": "$", "location": {"address1": "2440 S Melrose Dr", "address2": "", "address3": "", "city": "Vista", "zip_code": "92081", "country": "US", "state": "CA", "display_address": ["2440 S Melrose Dr", "Vista, CA 92081"]}, "phone": "+17605988005", "display_phone": "(760) 598-8005", "distance": 4799.58189752384}, {"id": "zw9c0RUdFlCbAih3J0xMyA", "alias": "pandoras-pizza-encinitas", "name": "Pandora's Pizza", "image_url": "https://s3-media4.fl.yelpcdn.com/bphoto/6V8LN6L58l7hV6_BEdQ1Kw/o.jpg", "is_closed": false, "url": "https://www.yelp.com/biz/pandoras-pizza-encinitas?adjust_creative=oncXGL2aPIKrtJdnWeFSnA&utm_campaign=yelp_api_v3&utm_medium=api_v3_business_search&utm_source=oncXGL2aPIKrtJdnWeFSnA", "review_count": 354, "categories": [{"alias": "pizza", "title": "Pizza"}], "rating": 4.5, "coordinates": {"latitude": 33.0635505, "longitude": -117.3022674}, "transactions": ["pickup"], "price": "$$", "location": {"address1": "828 N Coast Hwy 101", "address2": null, "address3": "", "city": "Encinitas", "zip_code": "92024", "country": "US", "state": "CA", "display_address": ["828 N Coast Hwy 101", "Encinitas, CA 92024"]}, "phone": "+17602302323", "display_phone": "(760) 230-2323", "distance": 6619.818478850854}, {"id": "Dufn2sTES6eKdnMGv7gV0Q", "alias": "pizza-port-solana-beach-solana-beach", "name": "Pizza Port Solana Beach", "image_url": "https://s3-media2.fl.yelpcdn.com/bphoto/fgSw-lpI7wYp5hoBD0yW-w/o.jpg", "is_closed": false, "url": "https://www.yelp.com/biz/pizza-port-solana-beach-solana-beach?adjust_creative=oncXGL2aPIKrtJdnWeFSnA&utm_campaign=yelp_api_v3&utm_medium=api_v3_business_search&utm_source=oncXGL2aPIKrtJdnWeFSnA", "review_count": 1348, "categories": [{"alias": "pizza", "title": "Pizza"}, {"alias": "breweries", "title": "Breweries"}], "rating": 4.0, "coordinates": {"latitude": 32.9929237365723, "longitude": -117.272216796875}, "transactions": [], "price": "$$", "location": {"address1": "135 N Hwy 101", "address2": "", "address3": "", "city": "Solana Beach", "zip_code": "92075", "country": "US", "state": "CA", "display_address": ["135 N Hwy 101", "Solana Beach, CA 92075"]}, "phone": "+18584817332", "display_phone": "(858) 481-7332", "distance": 14432.482401931142}, {"id": "Qlue-v1qqcBwqFWi6qq3CQ", "alias": "rosatis-encinitas-encinitas", "name": "Rosati's Encinitas", "image_url": "https://s3-media1.fl.yelpcdn.com/bphoto/Fbi8TsDEkwRyCcrcmeLdRQ/o.jpg", "is_closed": false, "url": "https://www.yelp.com/biz/rosatis-encinitas-encinitas?adjust_creative=oncXGL2aPIKrtJdnWeFSnA&utm_campaign=yelp_api_v3&utm_medium=api_v3_business_search&utm_source=oncXGL2aPIKrtJdnWeFSnA", "review_count": 257, "categories": [{"alias": "pizza", "title": "Pizza"}, {"alias": "italian", "title": "Italian"}, {"alias": "sportsbars", "title": "Sports Bars"}], "rating": 4.0, "coordinates": {"latitude": 33.0557654984971, "longitude": -117.261638827622}, "transactions": [], "price": "$$", "location": {"address1": "337 N El Camino Real", "address2": "", "address3": "", "city": "Encinitas", "zip_code": "92024", "country": "US", "state": "CA", "display_address": ["337 N El Camino Real", "Encinitas, CA 92024"]}, "phone": "+17604522007", "display_phone": "(760) 452-2007", "distance": 7781.679133649525}, {"id": "ZOaV2dsPKgfa1spWEXl4FA", "alias": "duffs-at-the-beach-encinitas-2", "name": "Duffs At the Beach", "image_url": "https://s3-media3.fl.yelpcdn.com/bphoto/cF7nt9RfAGywqNHVRy9N7g/o.jpg", "is_closed": false, "url": "https://www.yelp.com/biz/duffs-at-the-beach-encinitas-2?adjust_creative=oncXGL2aPIKrtJdnWeFSnA&utm_campaign=yelp_api_v3&utm_medium=api_v3_business_search&utm_source=oncXGL2aPIKrtJdnWeFSnA", "review_count": 120, "categories": [{"alias": "pizza", "title": "Pizza"}, {"alias": "scottish", "title": "Scottish"}, {"alias": "beerbar", "title": "Beer Bar"}], "rating": 4.5, "coordinates": {"latitude": 33.0497874, "longitude": -117.2945725}, "transactions": ["pickup", "delivery"], "price": "$$", "location": {"address1": "90 N Coast Hwy 101", "address2": "Ste 208", "address3": null, "city": "Encinitas", "zip_code": "92024", "country": "US", "state": "CA", "display_address": ["90 N Coast Hwy 101", "Ste 208", "Encinitas, CA 92024"]}, "phone": "+17604875922", "display_phone": "(760) 487-5922", "distance": 8046.644352373355}, {"id": "qiLilEBLLvmoPK9aSvS5aQ", "alias": "leucadia-pizza-and-italian-restaurant-carlsbad", "name": "Leucadia Pizza& Italian Restaurant", "image_url": "https://s3-media3.fl.yelpcdn.com/bphoto/zcFS0EwuPopV9Xul3hY5kQ/o.jpg", "is_closed": false, "url": "https://www.yelp.com/biz/leucadia-pizza-and-italian-restaurant-carlsbad?adjust_creative=oncXGL2aPIKrtJdnWeFSnA&utm_campaign=yelp_api_v3&utm_medium=api_v3_business_search&utm_source=oncXGL2aPIKrtJdnWeFSnA", "review_count": 74, "categories": [{"alias": "italian", "title": "Italian"}, {"alias": "pizza", "title": "Pizza"}, {"alias": "sandwiches", "title": "Sandwiches"}], "rating": 4.0, "coordinates": {"latitude": 33.15213, "longitude": -117.33445}, "transactions": [], "price": "$$", "location": {"address1": "959 Tamarack Ave", "address2": null, "address3": "", "city": "Carlsbad", "zip_code": "92008", "country": "US", "state": "CA", "display_address": ["959 Tamarack Ave", "Carlsbad, CA 92008"]}, "phone": "+17604342222", "display_phone": "(760) 434-2222", "distance": 5432.015537694663}, {"id": "REs-IYie1ERpX21kkYE8Pw", "alias": "cucina-enoteca-del-mar-del-mar-2", "name": "Cucina Enoteca Del Mar", "image_url": "https://s3-media4.fl.yelpcdn.com/bphoto/mO9Bw_jgW16ilsikoiWMCA/o.jpg", "is_closed": false, "url": "https://www.yelp.com/biz/cucina-enoteca-del-mar-del-mar-2?adjust_creative=oncXGL2aPIKrtJdnWeFSnA&utm_campaign=yelp_api_v3&utm_medium=api_v3_business_search&utm_source=oncXGL2aPIKrtJdnWeFSnA", "review_count": 930, "categories": [{"alias": "italian", "title": "Italian"}, {"alias": "wine_bars", "title": "Wine Bars"}, {"alias": "pizza", "title": "Pizza"}], "rating": 4.0, "coordinates": {"latitude": 32.9810134249869, "longitude": -117.248989232541}, "transactions": [], "price": "$$", "location": {"address1": "2730 Via De La Valle", "address2": "", "address3": "", "city": "Del Mar", "zip_code": "92014", "country": "US", "state": "CA", "display_address": ["2730 Via De La Valle", "Del Mar, CA 92014"]}, "phone": "+18587044500", "display_phone": "(858) 704-4500", "distance": 16105.393147879046}, {"id": "JcoMV3ZGMAtVauyDlPoUKg", "alias": "leucadia-pizzeria-vista", "name": "Leucadia Pizzeria", "image_url": "https://s3-media1.fl.yelpcdn.com/bphoto/vBD_ze94dKOwn2i54XZ1ng/o.jpg", "is_closed": false, "url": "https://www.yelp.com/biz/leucadia-pizzeria-vista?adjust_creative=oncXGL2aPIKrtJdnWeFSnA&utm_campaign=yelp_api_v3&utm_medium=api_v3_business_search&utm_source=oncXGL2aPIKrtJdnWeFSnA", "review_count": 71, "categories": [{"alias": "pizza", "title": "Pizza"}, {"alias": "italian", "title": "Italian"}, {"alias": "sandwiches", "title": "Sandwiches"}], "rating": 4.0, "coordinates": {"latitude": 33.1459728, "longitude": -117.2423388}, "transactions": ["pickup", "delivery"], "price": "$$", "location": {"address1": "2215 S Melrose Dr", "address2": "Ste 105", "address3": "Melrose Square Center", "city": "Vista", "zip_code": "92081", "country": "US", "state": "CA", "display_address": ["2215 S Melrose Dr", "Ste 105", "Melrose Square Center", "Vista, CA 92081"]}, "phone": "+17607272223", "display_phone": "(760) 727-2223", "distance": 5071.835080142837}, {"id": "YNfDnUoHj6JybsNb8KxoaA", "alias": "palomar-pizza-and-pasta-vista", "name": "Palomar Pizza & Pasta", "image_url": "https://s3-media2.fl.yelpcdn.com/bphoto/fQj0wRhwTc2kWQyjytnowA/o.jpg", "is_closed": false, "url": "https://www.yelp.com/biz/palomar-pizza-and-pasta-vista?adjust_creative=oncXGL2aPIKrtJdnWeFSnA&utm_campaign=yelp_api_v3&utm_medium=api_v3_business_search&utm_source=oncXGL2aPIKrtJdnWeFSnA", "review_count": 92, "categories": [{"alias": "pizza", "title": "Pizza"}, {"alias": "italian", "title": "Italian"}], "rating": 3.5, "coordinates": {"latitude": 33.132653, "longitude": -117.229594}, "transactions": [], "price": "$", "location": {"address1": "3265 Business Park Dr", "address2": "", "address3": "", "city": "Vista", "zip_code": "92081", "country": "US", "state": "CA", "display_address": ["3265 Business Park Dr", "Vista, CA 92081"]}, "phone": "+17607275559", "display_phone": "(760) 727-5559", "distance": 5627.311923315803}, {"id": "aPcUhduRD-uWwzDSz-GddA", "alias": "two-brothers-from-italy-oceanside", "name": "Two Brothers From Italy", "image_url": "https://s3-media3.fl.yelpcdn.com/bphoto/aCORsr2X6Br3x33XGcsASQ/o.jpg", "is_closed": false, "url": "https://www.yelp.com/biz/two-brothers-from-italy-oceanside?adjust_creative=oncXGL2aPIKrtJdnWeFSnA&utm_campaign=yelp_api_v3&utm_medium=api_v3_business_search&utm_source=oncXGL2aPIKrtJdnWeFSnA", "review_count": 74, "categories": [{"alias": "pizza", "title": "Pizza"}, {"alias": "italian", "title": "Italian"}], "rating": 4.5, "coordinates": {"latitude": 33.18645, "longitude": -117.37194}, "transactions": [], "price": "$$", "location": {"address1": "1001 S Coast Hwy", "address2": "", "address3": null, "city": "Oceanside", "zip_code": "92054", "country": "US", "state": "CA", "display_address": ["1001 S Coast Hwy", "Oceanside, CA 92054"]}, "phone": "+17606963884", "display_phone": "(760) 696-3884", "distance": 10557.594128381776}, {"id": "EUWF4__8fj7VUWq9c19OoA", "alias": "pizza-on-tap-vista", "name": "Pizza On Tap", "image_url": "https://s3-media4.fl.yelpcdn.com/bphoto/ZUeijKmujSPFlluSTFwmMQ/o.jpg", "is_closed": false, "url": "https://www.yelp.com/biz/pizza-on-tap-vista?adjust_creative=oncXGL2aPIKrtJdnWeFSnA&utm_campaign=yelp_api_v3&utm_medium=api_v3_business_search&utm_source=oncXGL2aPIKrtJdnWeFSnA", "review_count": 216, "categories": [{"alias": "pizza", "title": "Pizza"}, {"alias": "salad", "title": "Salad"}, {"alias": "sportsbars", "title": "Sports Bars"}], "rating": 4.5, "coordinates": {"latitude": 33.1887288, "longitude": -117.2802999}, "transactions": ["pickup", "delivery"], "price": "$", "location": {"address1": "1825 W Vista Way", "address2": "", "address3": "", "city": "Vista", "zip_code": "92083", "country": "US", "state": "CA", "display_address": ["1825 W Vista Way", "Vista, CA 92083"]}, "phone": "+17606304105", "display_phone": "(760) 630-4105", "distance": 7547.68569566146}, {"id": "iDqjGpLfBOUNBD0bZUPHTA", "alias": "pizza-hut-carlsbad-4", "name": "Pizza Hut", "image_url": "https://s3-media2.fl.yelpcdn.com/bphoto/rMVZqWULh1ri3noZ5FjIAw/o.jpg", "is_closed": false, "url": "https://www.yelp.com/biz/pizza-hut-carlsbad-4?adjust_creative=oncXGL2aPIKrtJdnWeFSnA&utm_campaign=yelp_api_v3&utm_medium=api_v3_business_search&utm_source=oncXGL2aPIKrtJdnWeFSnA", "review_count": 34, "categories": [{"alias": "pizza", "title": "Pizza"}, {"alias": "italian", "title": "Italian"}, {"alias": "chicken_wings", "title": "Chicken Wings"}], "rating": 4.0, "coordinates": {"latitude": 33.0825253, "longitude": -117.266711}, "transactions": [], "price": "$", "location": {"address1": "7750 El Camino Real", "address2": "Ste E", "address3": "", "city": "Carlsbad", "zip_code": "92009", "country": "US", "state": "CA", "display_address": ["7750 El Camino Real", "Ste E", "Carlsbad, CA 92009"]}, "phone": "+17609444222", "display_phone": "(760) 944-4222", "distance": 4840.712920106332}, {"id": "oDZJaS04OMmRlEsisNRAXg", "alias": "the-privateer-coal-fire-pizza-oceanside", "name": "The Privateer Coal Fire Pizza", "image_url": "https://s3-media2.fl.yelpcdn.com/bphoto/8ei0Nk3mWu3CvUlmbWPUUg/o.jpg", "is_closed": false, "url": "https://www.yelp.com/biz/the-privateer-coal-fire-pizza-oceanside?adjust_creative=oncXGL2aPIKrtJdnWeFSnA&utm_campaign=yelp_api_v3&utm_medium=api_v3_business_search&utm_source=oncXGL2aPIKrtJdnWeFSnA", "review_count": 519, "categories": [{"alias": "pizza", "title": "Pizza"}, {"alias": "italian", "title": "Italian"}, {"alias": "bars", "title": "Bars"}], "rating": 4.0, "coordinates": {"latitude": 33.176624, "longitude": -117.362973}, "transactions": ["pickup", "delivery"], "price": "$$", "location": {"address1": "1706 S Coast Hwy", "address2": "", "address3": "", "city": "Oceanside", "zip_code": "92054", "country": "US", "state": "CA", "display_address": ["1706 S Coast Hwy", "Oceanside, CA 92054"]}, "phone": "+17604532500", "display_phone": "(760) 453-2500", "distance": 9207.145649727367}, {"id": "E3HZhCH3w_zEOmcaHmlvBg", "alias": "dominos-pizza-carlsbad-4", "name": "Domino's Pizza", "image_url": "https://s3-media2.fl.yelpcdn.com/bphoto/Q5mLrFV3X9J2y7ly2jwu_A/o.jpg", "is_closed": false, "url": "https://www.yelp.com/biz/dominos-pizza-carlsbad-4?adjust_creative=oncXGL2aPIKrtJdnWeFSnA&utm_campaign=yelp_api_v3&utm_medium=api_v3_business_search&utm_source=oncXGL2aPIKrtJdnWeFSnA", "review_count": 61, "categories": [{"alias": "pizza", "title": "Pizza"}], "rating": 3.0, "coordinates": {"latitude": 33.10401, "longitude": -117.26627}, "transactions": [], "price": "$", "location": {"address1": "6986 El Camino Real", "address2": "Ste A", "address3": "", "city": "Carlsbad", "zip_code": "92009", "country": "US", "state": "CA", "display_address": ["6986 El Camino Real", "Ste A", "Carlsbad, CA 92009"]}, "phone": "+17604383033", "display_phone": "(760) 438-3033", "distance": 2852.1474771930466}, {"id": "FRQ6rb-uvF5CGO_KhNXt0A", "alias": "flippin-pizza-la-costa", "name": "Flippin' Pizza", "image_url": "https://s3-media2.fl.yelpcdn.com/bphoto/4l7W4UG2XcxuxhA8WUy1DQ/o.jpg", "is_closed": false, "url": "https://www.yelp.com/biz/flippin-pizza-la-costa?adjust_creative=oncXGL2aPIKrtJdnWeFSnA&utm_campaign=yelp_api_v3&utm_medium=api_v3_business_search&utm_source=oncXGL2aPIKrtJdnWeFSnA", "review_count": 179, "categories": [{"alias": "pizza", "title": "Pizza"}], "rating": 3.5, "coordinates": {"latitude": 33.0858811396586, "longitude": -117.266553096787}, "transactions": ["delivery"], "price": "$", "location": {"address1": "7662 El Camino Real", "address2": "", "address3": "", "city": "La Costa", "zip_code": "92009", "country": "US", "state": "CA", "display_address": ["7662 El Camino Real", "La Costa, CA 92009"]}, "phone": "+17604367499", "display_phone": "(760) 436-7499", "distance": 4511.9322429586855}, {"id": "YSyO7Z6yMkRG3knkq40mfQ", "alias": "uncle-tonys-italian-cuisine-vista", "name": "Uncle Tony's Italian Cuisine", "image_url": "https://s3-media3.fl.yelpcdn.com/bphoto/LrfOjSaYknHsKj5BEsHYBQ/o.jpg", "is_closed": false, "url": "https://www.yelp.com/biz/uncle-tonys-italian-cuisine-vista?adjust_creative=oncXGL2aPIKrtJdnWeFSnA&utm_campaign=yelp_api_v3&utm_medium=api_v3_business_search&utm_source=oncXGL2aPIKrtJdnWeFSnA", "review_count": 319, "categories": [{"alias": "italian", "title": "Italian"}, {"alias": "pizza", "title": "Pizza"}, {"alias": "cocktailbars", "title": "Cocktail Bars"}], "rating": 4.0, "coordinates": {"latitude": 33.16353, "longitude": -117.219449}, "transactions": [], "price": "$$", "location": {"address1": "770 Sycamore Ave", "address2": "Ste 121", "address3": "", "city": "Vista", "zip_code": "92083", "country": "US", "state": "CA", "display_address": ["770 Sycamore Ave", "Ste 121", "Vista, CA 92083"]}, "phone": "+17605986669", "display_phone": "(760) 598-6669", "distance": 7929.229676190392}, {"id": "DnDi5lJ7SKFshww3dZHUHg", "alias": "big-bobs-best-pizza-oceanside", "name": "Big Bob's Best Pizza", "image_url": "https://s3-media1.fl.yelpcdn.com/bphoto/Y5cqqvPVRLLv1ZYGw-Id_Q/o.jpg", "is_closed": false, "url": "https://www.yelp.com/biz/big-bobs-best-pizza-oceanside?adjust_creative=oncXGL2aPIKrtJdnWeFSnA&utm_campaign=yelp_api_v3&utm_medium=api_v3_business_search&utm_source=oncXGL2aPIKrtJdnWeFSnA", "review_count": 432, "categories": [{"alias": "pizza", "title": "Pizza"}], "rating": 4.5, "coordinates": {"latitude": 33.20949, "longitude": -117.31192}, "transactions": [], "price": "$$", "location": {"address1": "3617 Ocean Ranch Blvd", "address2": "Ste 105", "address3": "", "city": "Oceanside", "zip_code": "92056", "country": "US", "state": "CA", "display_address": ["3617 Ocean Ranch Blvd", "Ste 105", "Oceanside, CA 92056"]}, "phone": "+17602315050", "display_phone": "(760) 231-5050", "distance": 9992.144059054272}, {"id": "tUMvfEBvvXjOxiQC2XCsYw", "alias": "urbn-vista", "name": "URBN", "image_url": "https://s3-media3.fl.yelpcdn.com/bphoto/GdWL7mWTKOYPLYkIgYVdDQ/o.jpg", "is_closed": false, "url": "https://www.yelp.com/biz/urbn-vista?adjust_creative=oncXGL2aPIKrtJdnWeFSnA&utm_campaign=yelp_api_v3&utm_medium=api_v3_business_search&utm_source=oncXGL2aPIKrtJdnWeFSnA", "review_count": 791, "categories": [{"alias": "pizza", "title": "Pizza"}], "rating": 4.0, "coordinates": {"latitude": 33.202535, "longitude": -117.242428}, "transactions": ["pickup", "delivery"], "price": "$$", "location": {"address1": "203 Main St", "address2": "", "address3": "", "city": "Vista", "zip_code": "92084", "country": "US", "state": "CA", "display_address": ["203 Main St", "Vista, CA 92084"]}, "phone": "+17607248840", "display_phone": "(760) 724-8840", "distance": 9937.354900229466}, {"id": "VYGr0SglLydBUD-X2KL1qg", "alias": "the-privateer-marketplace-and-wine-bar-oceanside-3", "name": "The Privateer Marketplace & Wine Bar", "image_url": "https://s3-media1.fl.yelpcdn.com/bphoto/A_eHdAnYD-0K99gMsBiENA/o.jpg", "is_closed": false, "url": "https://www.yelp.com/biz/the-privateer-marketplace-and-wine-bar-oceanside-3?adjust_creative=oncXGL2aPIKrtJdnWeFSnA&utm_campaign=yelp_api_v3&utm_medium=api_v3_business_search&utm_source=oncXGL2aPIKrtJdnWeFSnA", "review_count": 35, "categories": [{"alias": "wine_bars", "title": "Wine Bars"}, {"alias": "pizza", "title": "Pizza"}, {"alias": "italian", "title": "Italian"}], "rating": 4.0, "coordinates": {"latitude": 33.1766141, "longitude": -117.3631858}, "transactions": [], "price": "$$", "location": {"address1": "1704 S Coast Hwy", "address2": "", "address3": null, "city": "Oceanside", "zip_code": "92054", "country": "US", "state": "CA", "display_address": ["1704 S Coast Hwy", "Oceanside, CA 92054"]}, "phone": "+17604532254", "display_phone": "(760) 453-2254", "distance": 9224.339652224435}, {"id": "RfPLMtsNjSt4766lMWmDlQ", "alias": "marketplace-carlsbad-3", "name": "Marketplace", "image_url": "https://s3-media3.fl.yelpcdn.com/bphoto/vZSzC2QGOT5XUUqtmd2hZA/o.jpg", "is_closed": false, "url": "https://www.yelp.com/biz/marketplace-carlsbad-3?adjust_creative=oncXGL2aPIKrtJdnWeFSnA&utm_campaign=yelp_api_v3&utm_medium=api_v3_business_search&utm_source=oncXGL2aPIKrtJdnWeFSnA", "review_count": 6, "categories": [{"alias": "sandwiches", "title": "Sandwiches"}, {"alias": "icecream", "title": "Ice Cream & Frozen Yogurt"}, {"alias": "pizza", "title": "Pizza"}], "rating": 3.0, "coordinates": {"latitude": 33.091748, "longitude": -117.268002}, "transactions": [], "price": "$$$", "location": {"address1": "2100 Costa Del Mar Rd", "address2": "", "address3": "Omni La Costa Resort & Spa", "city": "Carlsbad", "zip_code": "92009", "country": "US", "state": "CA", "display_address": ["2100 Costa Del Mar Rd", "Omni La Costa Resort & Spa", "Carlsbad, CA 92009"]}, "phone": "+17604389111", "display_phone": "(760) 438-9111", "distance": 3873.9468560786754}], "total": 190, "region": {"center": {"longitude": -117.28866577148438, "latitude": 33.12198326621279}}}