{"businesses": [{"id": "ugXBWg1mGPSH74h1J7HiUg", "alias": "coyote-bar-and-grill-carlsbad", "name": "Coyote Bar & Grill", "image_url": "https://s3-media4.fl.yelpcdn.com/bphoto/3l_mwkJARYkRp6hRCXVlIQ/o.jpg", "is_closed": false, "url": "https://www.yelp.com/biz/coyote-bar-and-grill-carlsbad?adjust_creative=oncXGL2aPIKrtJdnWeFSnA&utm_campaign=yelp_api_v3&utm_medium=api_v3_business_search&utm_source=oncXGL2aPIKrtJdnWeFSnA", "review_count": 535, "categories": [{"alias": "tex-mex", "title": "Tex-Mex"}, {"alias": "musicvenues", "title": "Music Venues"}], "rating": 3.0, "coordinates": {"latitude": 33.1596218284776, "longitude": -117.350581840475}, "transactions": [], "price": "$$", "location": {"address1": "300 Carlsbad Village Dr", "address2": "", "address3": "", "city": "Carlsbad", "zip_code": "92008", "country": "US", "state": "CA", "display_address": ["300 Carlsbad Village Dr", "Carlsbad, CA 92008"]}, "phone": "+17607294695", "display_phone": "(760) 729-4695", "distance": 7123.828297776528}, {"id": "g4ppIq11MsChgWZI1DwgJA", "alias": "mas-fina-cantina-carlsbad", "name": "Mas Fina Cantina", "image_url": "https://s3-media4.fl.yelpcdn.com/bphoto/a7X89NTDV96VNzIz0Y2qHA/o.jpg", "is_closed": false, "url": "https://www.yelp.com/biz/mas-fina-cantina-carlsbad?adjust_creative=oncXGL2aPIKrtJdnWeFSnA&utm_campaign=yelp_api_v3&utm_medium=api_v3_business_search&utm_source=oncXGL2aPIKrtJdnWeFSnA", "review_count": 211, "categories": [{"alias": "bars", "title": "Bars"}, {"alias": "tex-mex", "title": "Tex-Mex"}, {"alias": "mexican", "title": "Mexican"}], "rating": 3.5, "coordinates": {"latitude": 33.16175, "longitude": -117.35004}, "transactions": [], "price": "$", "location": {"address1": "2780 State St", "address2": "", "address3": "", "city": "Carlsbad", "zip_code": "92008", "country": "US", "state": "CA", "display_address": ["2780 State St", "Carlsbad, CA 92008"]}, "phone": "+17604343497", "display_phone": "(760) 434-3497", "distance": 7228.2267731337215}, {"id": "4EWse4VtDCu1Gh6qwXCKAw", "alias": "chilis-oceanside", "name": "Chili's", "image_url": "https://s3-media1.fl.yelpcdn.com/bphoto/TZE9uLFI4YW4pb58k7QSjA/o.jpg", "is_closed": false, "url": "https://www.yelp.com/biz/chilis-oceanside?adjust_creative=oncXGL2aPIKrtJdnWeFSnA&utm_campaign=yelp_api_v3&utm_medium=api_v3_business_search&utm_source=oncXGL2aPIKrtJdnWeFSnA", "review_count": 241, "categories": [{"alias": "tradamerican", "title": "American (Traditional)"}, {"alias": "bars", "title": "Bars"}, {"alias": "tex-mex", "title": "Tex-Mex"}], "rating": 3.0, "coordinates": {"latitude": 33.1828929800087, "longitude": -117.33092873202}, "transactions": [], "price": "$$", "location": {"address1": "2627 Vista Way", "address2": "", "address3": "", "city": "Oceanside", "zip_code": "92054", "country": "US", "state": "CA", "display_address": ["2627 Vista Way", "Oceanside, CA 92054"]}, "phone": "+17609671064", "display_phone": "(760) 967-1064", "distance": 7832.70382081098}, {"id": "wZwwljmM3E2O79aCVj2lBQ", "alias": "chilis-vista-4", "name": "Chili's", "image_url": "https://s3-media3.fl.yelpcdn.com/bphoto/DGrWoGxy7-yAqaaUcBriRQ/o.jpg", "is_closed": false, "url": "https://www.yelp.com/biz/chilis-vista-4?adjust_creative=oncXGL2aPIKrtJdnWeFSnA&utm_campaign=yelp_api_v3&utm_medium=api_v3_business_search&utm_source=oncXGL2aPIKrtJdnWeFSnA", "review_count": 195, "categories": [{"alias": "tradamerican", "title": "American (Traditional)"}, {"alias": "bars", "title": "Bars"}, {"alias": "tex-mex", "title": "Tex-Mex"}], "rating": 3.0, "coordinates": {"latitude": 33.19762, "longitude": -117.2479}, "transactions": [], "price": "$$", "location": {"address1": "255 Vista Village Dr", "address2": "", "address3": "", "city": "Vista", "zip_code": "92083", "country": "US", "state": "CA", "display_address": ["255 Vista Village Dr", "Vista, CA 92083"]}, "phone": "+17606391958", "display_phone": "(760) 639-1958", "distance": 9205.829171366851}, {"id": "S1iCm3yPWJSPVPnHjzlkSQ", "alias": "chilis-encinitas", "name": "Chili's", "image_url": "https://s3-media1.fl.yelpcdn.com/bphoto/FZV-Iq0OiTOyKG8skhQDYw/o.jpg", "is_closed": false, "url": "https://www.yelp.com/biz/chilis-encinitas?adjust_creative=oncXGL2aPIKrtJdnWeFSnA&utm_campaign=yelp_api_v3&utm_medium=api_v3_business_search&utm_source=oncXGL2aPIKrtJdnWeFSnA", "review_count": 122, "categories": [{"alias": "tradamerican", "title": "American (Traditional)"}, {"alias": "bars", "title": "Bars"}, {"alias": "tex-mex", "title": "Tex-Mex"}], "rating": 2.5, "coordinates": {"latitude": 33.0639266967773, "longitude": -117.263328552246}, "transactions": [], "price": "$$", "location": {"address1": "1004 N El Camino Real", "address2": "", "address3": "", "city": "Encinitas", "zip_code": "92024", "country": "US", "state": "CA", "display_address": ["1004 N El Camino Real", "Encinitas, CA 92024"]}, "phone": "+17606345488", "display_phone": "(760) 634-5488", "distance": 6894.793358607187}, {"id": "mWOK_8iyTZaQ29W-h0l7NQ", "alias": "taco-bell-vista-3", "name": "Taco Bell", "image_url": "https://s3-media2.fl.yelpcdn.com/bphoto/xkgyLTn1a0JjCC84wLtmOg/o.jpg", "is_closed": false, "url": "https://www.yelp.com/biz/taco-bell-vista-3?adjust_creative=oncXGL2aPIKrtJdnWeFSnA&utm_campaign=yelp_api_v3&utm_medium=api_v3_business_search&utm_source=oncXGL2aPIKrtJdnWeFSnA", "review_count": 28, "categories": [{"alias": "mexican", "title": "Mexican"}, {"alias": "tex-mex", "title": "Tex-Mex"}, {"alias": "hotdogs", "title": "Fast Food"}], "rating": 2.0, "coordinates": {"latitude": 33.134975, "longitude": -117.229288}, "transactions": ["delivery"], "price": "$", "location": {"address1": "3271 Business Park Dr", "address2": "", "address3": "", "city": "Vista", "zip_code": "92083", "country": "US", "state": "CA", "display_address": ["3271 Business Park Dr", "Vista, CA 92083"]}, "phone": "+17607275912", "display_phone": "(760) 727-5912", "distance": 5714.844929722144}, {"id": "Dv9aFbavvTXseYuXs2hOFQ", "alias": "taco-bell-encinitas", "name": "Taco Bell", "image_url": "https://s3-media4.fl.yelpcdn.com/bphoto/DpdSav2t5lE2qMlxe8Tt3A/o.jpg", "is_closed": false, "url": "https://www.yelp.com/biz/taco-bell-encinitas?adjust_creative=oncXGL2aPIKrtJdnWeFSnA&utm_campaign=yelp_api_v3&utm_medium=api_v3_business_search&utm_source=oncXGL2aPIKrtJdnWeFSnA", "review_count": 51, "categories": [{"alias": "hotdogs", "title": "Fast Food"}, {"alias": "mexican", "title": "Mexican"}, {"alias": "tex-mex", "title": "Tex-Mex"}], "rating": 2.0, "coordinates": {"latitude": 33.046120044418, "longitude": -117.25648519217}, "transactions": ["delivery"], "price": "$", "location": {"address1": "1502 Encinitas Blvd", "address2": "", "address3": "", "city": "Encinitas", "zip_code": "92024", "country": "US", "state": "CA", "display_address": ["1502 Encinitas Blvd", "Encinitas, CA 92024"]}, "phone": "+17604368033", "display_phone": "(760) 436-8033", "distance": 8952.556234092666}, {"id": "rCVj374oPXXD9ZMcSGVmkA", "alias": "taco-bell-san-marcos-2", "name": "Taco Bell", "image_url": "https://s3-media1.fl.yelpcdn.com/bphoto/Bfzf5D_K0ZBI5x9E4DUvFA/o.jpg", "is_closed": false, "url": "https://www.yelp.com/biz/taco-bell-san-marcos-2?adjust_creative=oncXGL2aPIKrtJdnWeFSnA&utm_campaign=yelp_api_v3&utm_medium=api_v3_business_search&utm_source=oncXGL2aPIKrtJdnWeFSnA", "review_count": 35, "categories": [{"alias": "mexican", "title": "Mexican"}, {"alias": "tex-mex", "title": "Tex-Mex"}, {"alias": "hotdogs", "title": "Fast Food"}], "rating": 3.5, "coordinates": {"latitude": 33.148373, "longitude": -117.198243}, "transactions": ["delivery"], "price": "$", "location": {"address1": "120 N Rancho Santa Fe Rd", "address2": "", "address3": "", "city": "San Marcos", "zip_code": "92069", "country": "US", "state": "CA", "display_address": ["120 N Rancho Santa Fe Rd", "San Marcos, CA 92069"]}, "phone": "+17605999736", "display_phone": "(760) 599-9736", "distance": 8916.208596906923}, {"id": "nJc4Zg_QHuGu8666Ne27nw", "alias": "chilis-regional-office-so-ca-escondido", "name": "Chili's Regional Office So CA", "image_url": "", "is_closed": false, "url": "https://www.yelp.com/biz/chilis-regional-office-so-ca-escondido?adjust_creative=oncXGL2aPIKrtJdnWeFSnA&utm_campaign=yelp_api_v3&utm_medium=api_v3_business_search&utm_source=oncXGL2aPIKrtJdnWeFSnA", "review_count": 1, "categories": [{"alias": "bars", "title": "Bars"}, {"alias": "tex-mex", "title": "Tex-Mex"}], "rating": 5.0, "coordinates": {"latitude": 33.1190432009479, "longitude": -117.089097100294}, "transactions": [], "location": {"address1": "613 W Valley Pkwy", "address2": null, "address3": null, "city": "Escondido", "zip_code": "92025", "country": "US", "state": "CA", "display_address": ["613 W Valley Pkwy", "Escondido, CA 92025"]}, "phone": "+17603172123", "display_phone": "(760) 317-2123", "distance": 18598.718428025153}, {"id": "_OM9WepkCjt5Fw9u_LDKtQ", "alias": "chilis-escondido-3", "name": "Chili's", "image_url": "https://s3-media2.fl.yelpcdn.com/bphoto/ms5NY7vIRcZ5onOB1a1YxA/o.jpg", "is_closed": false, "url": "https://www.yelp.com/biz/chilis-escondido-3?adjust_creative=oncXGL2aPIKrtJdnWeFSnA&utm_campaign=yelp_api_v3&utm_medium=api_v3_business_search&utm_source=oncXGL2aPIKrtJdnWeFSnA", "review_count": 181, "categories": [{"alias": "tradamerican", "title": "American (Traditional)"}, {"alias": "bars", "title": "Bars"}, {"alias": "tex-mex", "title": "Tex-Mex"}], "rating": 3.0, "coordinates": {"latitude": 33.1161, "longitude": -117.09704}, "transactions": [], "price": "$$", "location": {"address1": "1105 W Valley Pkwy", "address2": "", "address3": "", "city": "Escondido", "zip_code": "92025", "country": "US", "state": "CA", "display_address": ["1105 W Valley Pkwy", "Escondido, CA 92025"]}, "phone": "+17607375101", "display_phone": "(760) 737-5101", "distance": 17861.341960018843}, {"id": "3SaExSZ4L4pDmGAlQe4FqQ", "alias": "moes-southwest-grill-camp-pendleton", "name": "Moe's Southwest Grill", "image_url": "https://s3-media3.fl.yelpcdn.com/bphoto/oHsy9JreIe9SiXk0Z41-tw/o.jpg", "is_closed": false, "url": "https://www.yelp.com/biz/moes-southwest-grill-camp-pendleton?adjust_creative=oncXGL2aPIKrtJdnWeFSnA&utm_campaign=yelp_api_v3&utm_medium=api_v3_business_search&utm_source=oncXGL2aPIKrtJdnWeFSnA", "review_count": 2, "categories": [{"alias": "mexican", "title": "Mexican"}, {"alias": "tex-mex", "title": "Tex-Mex"}], "rating": 2.0, "coordinates": {"latitude": 33.28731, "longitude": -117.37136}, "transactions": [], "location": {"address1": "51096 Basilone Rd", "address2": null, "address3": "Area 51", "city": "Camp Pendleton", "zip_code": "92055", "country": "US", "state": "CA", "display_address": ["51096 Basilone Rd", "Area 51", "Camp Pendleton, CA 92055"]}, "phone": "+17603850030", "display_phone": "(760) 385-0030", "distance": 19928.52890957535}, {"id": "yZTo3VqDB8_aRdlrovdB_w", "alias": "taco-bell-vista-2", "name": "Taco Bell", "image_url": "https://s3-media3.fl.yelpcdn.com/bphoto/6KxbqTZ3edZuwvL-eV0FwQ/o.jpg", "is_closed": false, "url": "https://www.yelp.com/biz/taco-bell-vista-2?adjust_creative=oncXGL2aPIKrtJdnWeFSnA&utm_campaign=yelp_api_v3&utm_medium=api_v3_business_search&utm_source=oncXGL2aPIKrtJdnWeFSnA", "review_count": 13, "categories": [{"alias": "hotdogs", "title": "Fast Food"}, {"alias": "tex-mex", "title": "Tex-Mex"}, {"alias": "mexican", "title": "Mexican"}], "rating": 2.5, "coordinates": {"latitude": 33.211113, "longitude": -117.230613}, "transactions": ["delivery"], "price": "$", "location": {"address1": "910 East Vista Way", "address2": "", "address3": "", "city": "Vista", "zip_code": "92084", "country": "US", "state": "CA", "display_address": ["910 East Vista Way", "Vista, CA 92084"]}, "phone": "+17606313655", "display_phone": "(760) 631-3655", "distance": 11288.09972862242}, {"id": "rESWrhmoCdXFiK_KJr9PAg", "alias": "taco-bell-oceanside", "name": "Taco Bell", "image_url": "https://s3-media3.fl.yelpcdn.com/bphoto/9r9L2dYPygqXvjMLw8kReQ/o.jpg", "is_closed": false, "url": "https://www.yelp.com/biz/taco-bell-oceanside?adjust_creative=oncXGL2aPIKrtJdnWeFSnA&utm_campaign=yelp_api_v3&utm_medium=api_v3_business_search&utm_source=oncXGL2aPIKrtJdnWeFSnA", "review_count": 34, "categories": [{"alias": "mexican", "title": "Mexican"}, {"alias": "tex-mex", "title": "Tex-Mex"}, {"alias": "hotdogs", "title": "Fast Food"}], "rating": 2.5, "coordinates": {"latitude": 33.193705, "longitude": -117.356233}, "transactions": ["delivery"], "price": "$", "location": {"address1": "1940 Oceanside Blvd", "address2": "", "address3": "", "city": "Oceanside", "zip_code": "92054", "country": "US", "state": "CA", "display_address": ["1940 Oceanside Blvd", "Oceanside, CA 92054"]}, "phone": "+17607220925", "display_phone": "(760) 722-0925", "distance": 10156.907957231806}, {"id": "a5dmCm_1sLVPGoxzTwyouA", "alias": "taco-bell-oceanside-3", "name": "Taco Bell", "image_url": "https://s3-media2.fl.yelpcdn.com/bphoto/OIeWXOScXTsoVZpNEJd1PA/o.jpg", "is_closed": false, "url": "https://www.yelp.com/biz/taco-bell-oceanside-3?adjust_creative=oncXGL2aPIKrtJdnWeFSnA&utm_campaign=yelp_api_v3&utm_medium=api_v3_business_search&utm_source=oncXGL2aPIKrtJdnWeFSnA", "review_count": 39, "categories": [{"alias": "mexican", "title": "Mexican"}, {"alias": "tex-mex", "title": "Tex-Mex"}, {"alias": "hotdogs", "title": "Fast Food"}], "rating": 2.5, "coordinates": {"latitude": 33.24304, "longitude": -117.29161}, "transactions": ["delivery"], "price": "$", "location": {"address1": "695 College Blvd", "address2": "", "address3": "", "city": "Oceanside", "zip_code": "92057", "country": "US", "state": "CA", "display_address": ["695 College Blvd", "Oceanside, CA 92057"]}, "phone": "+17606317860", "display_phone": "(760) 631-7860", "distance": 13467.27659067788}, {"id": "oUMmJE-vdtVrNoLG2jmx_g", "alias": "taco-bell-oceanside-2", "name": "Taco Bell", "image_url": "https://s3-media1.fl.yelpcdn.com/bphoto/RJti1FyuVHyZuRRpwXpGtQ/o.jpg", "is_closed": false, "url": "https://www.yelp.com/biz/taco-bell-oceanside-2?adjust_creative=oncXGL2aPIKrtJdnWeFSnA&utm_campaign=yelp_api_v3&utm_medium=api_v3_business_search&utm_source=oncXGL2aPIKrtJdnWeFSnA", "review_count": 36, "categories": [{"alias": "mexican", "title": "Mexican"}, {"alias": "tex-mex", "title": "Tex-Mex"}, {"alias": "hotdogs", "title": "Fast Food"}], "rating": 2.5, "coordinates": {"latitude": 33.182152, "longitude": -117.29156}, "transactions": [], "price": "$", "location": {"address1": "3845 Plaza Dr", "address2": "", "address3": "", "city": "Oceanside", "zip_code": "92056", "country": "US", "state": "CA", "display_address": ["3845 Plaza Dr", "Oceanside, CA 92056"]}, "phone": "+17609417307", "display_phone": "(760) 941-7307", "distance": 6695.87370606392}, {"id": "xBH6IqrzDaRGDwYiFDPtOQ", "alias": "taco-bell-oceanside-6", "name": "Taco Bell", "image_url": "https://s3-media1.fl.yelpcdn.com/bphoto/4FqmkYl0ahqrafu9w4SNNA/o.jpg", "is_closed": false, "url": "https://www.yelp.com/biz/taco-bell-oceanside-6?adjust_creative=oncXGL2aPIKrtJdnWeFSnA&utm_campaign=yelp_api_v3&utm_medium=api_v3_business_search&utm_source=oncXGL2aPIKrtJdnWeFSnA", "review_count": 19, "categories": [{"alias": "hotdogs", "title": "Fast Food"}, {"alias": "tex-mex", "title": "Tex-Mex"}, {"alias": "mexican", "title": "Mexican"}], "rating": 2.0, "coordinates": {"latitude": 33.20608, "longitude": -117.2895}, "transactions": [], "price": "$", "location": {"address1": "4100 Oceanside Blvd.", "address2": "", "address3": "", "city": "Oceanside", "zip_code": "92056", "country": "US", "state": "CA", "display_address": ["4100 Oceanside Blvd.", "Oceanside, CA 92056"]}, "phone": "+17606309600", "display_phone": "(760) 630-9600", "distance": 9351.442177332015}, {"id": "hdJQUmk0-iZo2I_yUQUPAw", "alias": "taco-bell-san-marcos-4", "name": "Taco Bell", "image_url": "https://s3-media2.fl.yelpcdn.com/bphoto/kyb2o0M67sKJG7IBkcrRpA/o.jpg", "is_closed": false, "url": "https://www.yelp.com/biz/taco-bell-san-marcos-4?adjust_creative=oncXGL2aPIKrtJdnWeFSnA&utm_campaign=yelp_api_v3&utm_medium=api_v3_business_search&utm_source=oncXGL2aPIKrtJdnWeFSnA", "review_count": 42, "categories": [{"alias": "hotdogs", "title": "Fast Food"}, {"alias": "mexican", "title": "Mexican"}, {"alias": "tex-mex", "title": "Tex-Mex"}], "rating": 2.5, "coordinates": {"latitude": 33.133528, "longitude": -117.121863}, "transactions": ["delivery"], "price": "$", "location": {"address1": "704 Center Dr", "address2": "", "address3": "", "city": "San Marcos", "zip_code": "92069", "country": "US", "state": "CA", "display_address": ["704 Center Dr", "San Marcos, CA 92069"]}, "phone": "+17607964149", "display_phone": "(760) 796-4149", "distance": 15585.718985040412}, {"id": "eBgbibXGP0amErKvRZVDtA", "alias": "taco-bell-escondido-2", "name": "Taco Bell", "image_url": "https://s3-media3.fl.yelpcdn.com/bphoto/M-ouugZ7YYPat83pMIKEMg/o.jpg", "is_closed": false, "url": "https://www.yelp.com/biz/taco-bell-escondido-2?adjust_creative=oncXGL2aPIKrtJdnWeFSnA&utm_campaign=yelp_api_v3&utm_medium=api_v3_business_search&utm_source=oncXGL2aPIKrtJdnWeFSnA", "review_count": 34, "categories": [{"alias": "mexican", "title": "Mexican"}, {"alias": "tex-mex", "title": "Tex-Mex"}, {"alias": "hotdogs", "title": "Fast Food"}], "rating": 3.0, "coordinates": {"latitude": 33.126362, "longitude": -117.088305}, "transactions": ["delivery"], "price": "$", "location": {"address1": "627 N Escondido Blvd", "address2": "", "address3": "", "city": "Escondido", "zip_code": "92025", "country": "US", "state": "CA", "display_address": ["627 N Escondido Blvd", "Escondido, CA 92025"]}, "phone": "+17607450995", "display_phone": "(760) 745-0995", "distance": 18664.813563007967}], "total": 18, "region": {"center": {"longitude": -117.28866577148438, "latitude": 33.12198326621279}}}