{"businesses": [{"id": "E_7aL7hgLrR9YhMUDv-JjQ", "alias": "pho-house-and-grill-carlsbad-2", "name": "Pho House & Grill", "image_url": "https://s3-media3.fl.yelpcdn.com/bphoto/jlSgGZGPhPthJBD2RsGEDA/o.jpg", "is_closed": false, "url": "https://www.yelp.com/biz/pho-house-and-grill-carlsbad-2?adjust_creative=oncXGL2aPIKrtJdnWeFSnA&utm_campaign=yelp_api_v3&utm_medium=api_v3_business_search&utm_source=oncXGL2aPIKrtJdnWeFSnA", "review_count": 73, "categories": [{"alias": "vietnamese", "title": "Vietnamese"}], "rating": 3.5, "coordinates": {"latitude": 33.13105, "longitude": -117.26056}, "transactions": [], "price": "$", "location": {"address1": "2708 Loker Ave W", "address2": "Ste B107", "address3": "", "city": "Carlsbad", "zip_code": "92010", "country": "US", "state": "CA", "display_address": ["2708 Loker Ave W", "Ste B107", "Carlsbad, CA 92010"]}, "phone": "+17608142711", "display_phone": "(760) 814-2711", "distance": 2808.216653884248}, {"id": "Oeh6x7EZJWw7dpezf1tEOg", "alias": "pho-guys-vista", "name": "Pho Guys", "image_url": "https://s3-media2.fl.yelpcdn.com/bphoto/XL94utqXIeuineW-QtHbEA/o.jpg", "is_closed": false, "url": "https://www.yelp.com/biz/pho-guys-vista?adjust_creative=oncXGL2aPIKrtJdnWeFSnA&utm_campaign=yelp_api_v3&utm_medium=api_v3_business_search&utm_source=oncXGL2aPIKrtJdnWeFSnA", "review_count": 278, "categories": [{"alias": "vietnamese", "title": "Vietnamese"}], "rating": 5.0, "coordinates": {"latitude": 33.1862970543714, "longitude": -117.281164032102}, "transactions": ["pickup", "delivery"], "price": "$", "location": {"address1": "1876 Hacienda Dr", "address2": "", "address3": null, "city": "Vista", "zip_code": "92081", "country": "US", "state": "CA", "display_address": ["1876 Hacienda Dr", "Vista, CA 92081"]}, "phone": "+17605607257", "display_phone": "(760) 560-7257", "distance": 7185.376602971645}, {"id": "wUJnAuPUjwOK-9gnhdK_nw", "alias": "pho-ever-vista-4", "name": "Pho-Ever", "image_url": "https://s3-media4.fl.yelpcdn.com/bphoto/6_0pLGUEThdzzAYUfXqexg/o.jpg", "is_closed": false, "url": "https://www.yelp.com/biz/pho-ever-vista-4?adjust_creative=oncXGL2aPIKrtJdnWeFSnA&utm_campaign=yelp_api_v3&utm_medium=api_v3_business_search&utm_source=oncXGL2aPIKrtJdnWeFSnA", "review_count": 732, "categories": [{"alias": "vietnamese", "title": "Vietnamese"}], "rating": 4.0, "coordinates": {"latitude": 33.188533782959, "longitude": -117.254333496094}, "transactions": [], "price": "$", "location": {"address1": "485 S Melrose Dr", "address2": "Ste 106", "address3": "", "city": "Vista", "zip_code": "92081", "country": "US", "state": "CA", "display_address": ["485 S Melrose Dr", "Ste 106", "Vista, CA 92081"]}, "phone": "+17606303837", "display_phone": "(760) 630-3837", "distance": 8049.284909507688}, {"id": "SDv30y573hEIby0MojH7cg", "alias": "birdseye-kitchen-encinitas", "name": "Birdseye Kitchen", "image_url": "https://s3-media1.fl.yelpcdn.com/bphoto/cVy-x0Z7y7izRk3FJFFxLw/o.jpg", "is_closed": false, "url": "https://www.yelp.com/biz/birdseye-kitchen-encinitas?adjust_creative=oncXGL2aPIKrtJdnWeFSnA&utm_campaign=yelp_api_v3&utm_medium=api_v3_business_search&utm_source=oncXGL2aPIKrtJdnWeFSnA", "review_count": 344, "categories": [{"alias": "vietnamese", "title": "Vietnamese"}, {"alias": "thai", "title": "Thai"}, {"alias": "asianfusion", "title": "Asian Fusion"}], "rating": 4.0, "coordinates": {"latitude": 33.0591018255092, "longitude": -117.300049330005}, "transactions": [], "price": "$$", "location": {"address1": "540 N Coast Hwy 101", "address2": "", "address3": "", "city": "Encinitas", "zip_code": "92024", "country": "US", "state": "CA", "display_address": ["540 N Coast Hwy 101", "Encinitas, CA 92024"]}, "phone": "+17604790488", "display_phone": "(760) 479-0488", "distance": 7072.0547268385}, {"id": "p9oELCyIzHca9cke7VCmfA", "alias": "ninja-kitchen-carlsbad-2", "name": "Ninja Kitchen", "image_url": "https://s3-media4.fl.yelpcdn.com/bphoto/fYT8GKgIptr_GqMvp97HIw/o.jpg", "is_closed": false, "url": "https://www.yelp.com/biz/ninja-kitchen-carlsbad-2?adjust_creative=oncXGL2aPIKrtJdnWeFSnA&utm_campaign=yelp_api_v3&utm_medium=api_v3_business_search&utm_source=oncXGL2aPIKrtJdnWeFSnA", "review_count": 17, "categories": [{"alias": "vietnamese", "title": "Vietnamese"}, {"alias": "sandwiches", "title": "Sandwiches"}], "rating": 3.5, "coordinates": {"latitude": 33.126252, "longitude": -117.311924}, "transactions": [], "price": "$$", "location": {"address1": "1 Legoland Dr", "address2": "", "address3": "", "city": "Carlsbad", "zip_code": "92008", "country": "US", "state": "CA", "display_address": ["1 Legoland Dr", "Carlsbad, CA 92008"]}, "phone": "+17609185346", "display_phone": "(760) 918-5346", "distance": 2217.309839299115}, {"id": "OL3IptoQz-ONWsUFzVAZJw", "alias": "banh-mi-san-marcos-san-marcos-2", "name": "Banh Mi San Marcos", "image_url": "https://s3-media3.fl.yelpcdn.com/bphoto/BPHgA-ZAIivTsP8zrbroBg/o.jpg", "is_closed": false, "url": "https://www.yelp.com/biz/banh-mi-san-marcos-san-marcos-2?adjust_creative=oncXGL2aPIKrtJdnWeFSnA&utm_campaign=yelp_api_v3&utm_medium=api_v3_business_search&utm_source=oncXGL2aPIKrtJdnWeFSnA", "review_count": 317, "categories": [{"alias": "vietnamese", "title": "Vietnamese"}, {"alias": "sandwiches", "title": "Sandwiches"}], "rating": 4.5, "coordinates": {"latitude": 33.1328075623869, "longitude": -117.207942008972}, "transactions": [], "price": "$", "location": {"address1": "706 S Rancho Santa Fe Rd", "address2": "", "address3": "", "city": "San Marcos", "zip_code": "92078", "country": "US", "state": "CA", "display_address": ["706 S Rancho Santa Fe Rd", "San Marcos, CA 92078"]}, "phone": "+17605990177", "display_phone": "(760) 599-0177", "distance": 7612.819669647424}, {"id": "PmKT6_qos-hcis5IL89X3A", "alias": "pho-kitchen-oceanside-2", "name": "Pho Kitchen", "image_url": "https://s3-media1.fl.yelpcdn.com/bphoto/t5N0Gv3slh2J038yTRFjKw/o.jpg", "is_closed": false, "url": "https://www.yelp.com/biz/pho-kitchen-oceanside-2?adjust_creative=oncXGL2aPIKrtJdnWeFSnA&utm_campaign=yelp_api_v3&utm_medium=api_v3_business_search&utm_source=oncXGL2aPIKrtJdnWeFSnA", "review_count": 330, "categories": [{"alias": "vietnamese", "title": "Vietnamese"}], "rating": 4.5, "coordinates": {"latitude": 33.2058763612272, "longitude": -117.28825673461}, "transactions": [], "price": "$", "location": {"address1": "4121 Oceanside Blvd", "address2": "", "address3": "", "city": "Oceanside", "zip_code": "92056", "country": "US", "state": "CA", "display_address": ["4121 Oceanside Blvd", "Oceanside, CA 92056"]}, "phone": "+17602955445", "display_phone": "(760) 295-5445", "distance": 9328.55389882411}, {"id": "5p0Wo1Af2EnQOkkDSbrP_w", "alias": "pho-ever-encinitas", "name": "Pho-Ever", "image_url": "https://s3-media2.fl.yelpcdn.com/bphoto/Rqll9LOS5c8c5TbZ35ycpA/o.jpg", "is_closed": false, "url": "https://www.yelp.com/biz/pho-ever-encinitas?adjust_creative=oncXGL2aPIKrtJdnWeFSnA&utm_campaign=yelp_api_v3&utm_medium=api_v3_business_search&utm_source=oncXGL2aPIKrtJdnWeFSnA", "review_count": 431, "categories": [{"alias": "vietnamese", "title": "Vietnamese"}], "rating": 3.5, "coordinates": {"latitude": 33.047187, "longitude": -117.260351}, "transactions": [], "price": "$", "location": {"address1": "120 N El Camino Real", "address2": null, "address3": "", "city": "Encinitas", "zip_code": "92024", "country": "US", "state": "CA", "display_address": ["120 N El Camino Real", "Encinitas, CA 92024"]}, "phone": "+17604366000", "display_phone": "(760) 436-6000", "distance": 8725.291315835071}, {"id": "7m_Vve98CiTJqrqVe7Nu0A", "alias": "pho-oceanside-oceanside", "name": "Pho Oceanside", "image_url": "https://s3-media2.fl.yelpcdn.com/bphoto/d4Rl0ULDmmHYrx6iOCMJsw/o.jpg", "is_closed": false, "url": "https://www.yelp.com/biz/pho-oceanside-oceanside?adjust_creative=oncXGL2aPIKrtJdnWeFSnA&utm_campaign=yelp_api_v3&utm_medium=api_v3_business_search&utm_source=oncXGL2aPIKrtJdnWeFSnA", "review_count": 507, "categories": [{"alias": "vietnamese", "title": "Vietnamese"}], "rating": 4.0, "coordinates": {"latitude": 33.1843375867943, "longitude": -117.369014641}, "transactions": [], "price": "$", "location": {"address1": "518 Oceanside Blvd", "address2": "Ste 107-110", "address3": "", "city": "Oceanside", "zip_code": "92054", "country": "US", "state": "CA", "display_address": ["518 Oceanside Blvd", "Ste 107-110", "Oceanside, CA 92054"]}, "phone": "+17607542828", "display_phone": "(760) 754-2828", "distance": 10199.164096630571}, {"id": "2Mwu0pGf7MXCJPHz4SsAAQ", "alias": "nd-banh-mi-oceanside-2", "name": "ND Banh Mi", "image_url": "https://s3-media2.fl.yelpcdn.com/bphoto/iW10cNe9Qgq-iRSM1mAojA/o.jpg", "is_closed": false, "url": "https://www.yelp.com/biz/nd-banh-mi-oceanside-2?adjust_creative=oncXGL2aPIKrtJdnWeFSnA&utm_campaign=yelp_api_v3&utm_medium=api_v3_business_search&utm_source=oncXGL2aPIKrtJdnWeFSnA", "review_count": 275, "categories": [{"alias": "bubbletea", "title": "Bubble Tea"}, {"alias": "bakeries", "title": "Bakeries"}, {"alias": "vietnamese", "title": "Vietnamese"}], "rating": 4.5, "coordinates": {"latitude": 33.2078605151782, "longitude": -117.286571636796}, "transactions": [], "price": "$", "location": {"address1": "4160 Oceanside Blvd", "address2": "Ste 169", "address3": "", "city": "Oceanside", "zip_code": "92056", "country": "US", "state": "CA", "display_address": ["4160 Oceanside Blvd", "Ste 169", "Oceanside, CA 92056"]}, "phone": "+17607264650", "display_phone": "(760) 726-4650", "distance": 9551.09308047328}, {"id": "c_LAUYCPgt9J62EH69E26g", "alias": "pho-lucky-vista", "name": "Pho Lucky", "image_url": "https://s3-media2.fl.yelpcdn.com/bphoto/2xD6sohoUyYFMALLdAfzvQ/o.jpg", "is_closed": false, "url": "https://www.yelp.com/biz/pho-lucky-vista?adjust_creative=oncXGL2aPIKrtJdnWeFSnA&utm_campaign=yelp_api_v3&utm_medium=api_v3_business_search&utm_source=oncXGL2aPIKrtJdnWeFSnA", "review_count": 319, "categories": [{"alias": "vietnamese", "title": "Vietnamese"}], "rating": 4.0, "coordinates": {"latitude": 33.163441125254, "longitude": -117.219588403705}, "transactions": ["pickup", "delivery"], "price": "$", "location": {"address1": "770 Sycamore Ave", "address2": "", "address3": "", "city": "Vista", "zip_code": "92083", "country": "US", "state": "CA", "display_address": ["770 Sycamore Ave", "Vista, CA 92083"]}, "phone": "+17607272738", "display_phone": "(760) 727-2738", "distance": 7912.9259270010625}, {"id": "HTHCPCLeQnOhszY_5PV_XA", "alias": "pho-bowl-and-grill-oceanside", "name": "Pho Bowl & Grill", "image_url": "https://s3-media3.fl.yelpcdn.com/bphoto/enNoxkk0TBtlQLicDpSYbQ/o.jpg", "is_closed": false, "url": "https://www.yelp.com/biz/pho-bowl-and-grill-oceanside?adjust_creative=oncXGL2aPIKrtJdnWeFSnA&utm_campaign=yelp_api_v3&utm_medium=api_v3_business_search&utm_source=oncXGL2aPIKrtJdnWeFSnA", "review_count": 15, "categories": [{"alias": "vietnamese", "title": "Vietnamese"}, {"alias": "vegetarian", "title": "Vegetarian"}], "rating": 3.5, "coordinates": {"latitude": 33.1997799, "longitude": -117.37539}, "transactions": [], "location": {"address1": "1006 Mission Ave", "address2": "Ste C", "address3": "", "city": "Oceanside", "zip_code": "92054", "country": "US", "state": "CA", "display_address": ["1006 Mission Ave", "Ste C", "Oceanside, CA 92054"]}, "phone": "+17604532999", "display_phone": "(760) 453-2999", "distance": 11829.02409109033}, {"id": "R0Zgcp0PZfOaXh-PEa9Mng", "alias": "pho-truc-xanh-escondido", "name": "Pho Truc Xanh", "image_url": "https://s3-media4.fl.yelpcdn.com/bphoto/71Z4dwkLY1ZEA7WELil1dA/o.jpg", "is_closed": false, "url": "https://www.yelp.com/biz/pho-truc-xanh-escondido?adjust_creative=oncXGL2aPIKrtJdnWeFSnA&utm_campaign=yelp_api_v3&utm_medium=api_v3_business_search&utm_source=oncXGL2aPIKrtJdnWeFSnA", "review_count": 940, "categories": [{"alias": "vietnamese", "title": "Vietnamese"}, {"alias": "chinese", "title": "Chinese"}], "rating": 4.5, "coordinates": {"latitude": 33.127895, "longitude": -117.091797}, "transactions": [], "price": "$", "location": {"address1": "503 W Mission Ave", "address2": "", "address3": "", "city": "Escondido", "zip_code": "92025", "country": "US", "state": "CA", "display_address": ["503 W Mission Ave", "Escondido, CA 92025"]}, "phone": "+17604898201", "display_phone": "(760) 489-8201", "distance": 18344.79212712384}, {"id": "7hY5OuVIkJQMoYPdIN-frQ", "alias": "pho-house-oceanside", "name": "Pho House", "image_url": "https://s3-media3.fl.yelpcdn.com/bphoto/RWrkTtxHz0eIGpBtbrgvhg/o.jpg", "is_closed": false, "url": "https://www.yelp.com/biz/pho-house-oceanside?adjust_creative=oncXGL2aPIKrtJdnWeFSnA&utm_campaign=yelp_api_v3&utm_medium=api_v3_business_search&utm_source=oncXGL2aPIKrtJdnWeFSnA", "review_count": 403, "categories": [{"alias": "vietnamese", "title": "Vietnamese"}], "rating": 4.0, "coordinates": {"latitude": 33.22436, "longitude": -117.33183}, "transactions": [], "price": "$", "location": {"address1": "3753 MIssion Ave", "address2": "Ste 120", "address3": "", "city": "Oceanside", "zip_code": "92058", "country": "US", "state": "CA", "display_address": ["3753 MIssion Ave", "Ste 120", "Oceanside, CA 92058"]}, "phone": "+17607549999", "display_phone": "(760) 754-9999", "distance": 12058.96526393575}, {"id": "Bjb3E8L8qAcD6SKR2yyxHg", "alias": "chefs-pho-and-grill-san-marcos", "name": "Chef's Pho & Grill", "image_url": "https://s3-media3.fl.yelpcdn.com/bphoto/QOY8OreLPyUefjiQS1e7RQ/o.jpg", "is_closed": false, "url": "https://www.yelp.com/biz/chefs-pho-and-grill-san-marcos?adjust_creative=oncXGL2aPIKrtJdnWeFSnA&utm_campaign=yelp_api_v3&utm_medium=api_v3_business_search&utm_source=oncXGL2aPIKrtJdnWeFSnA", "review_count": 262, "categories": [{"alias": "vietnamese", "title": "Vietnamese"}, {"alias": "soup", "title": "Soup"}], "rating": 4.0, "coordinates": {"latitude": 33.1292519178723, "longitude": -117.165098078549}, "transactions": [], "price": "$", "location": {"address1": "324 S Twin Oaks Valley Rd", "address2": "Ste 130", "address3": null, "city": "San Marcos", "zip_code": "92078", "country": "US", "state": "CA", "display_address": ["324 S Twin Oaks Valley Rd", "Ste 130", "San Marcos, CA 92078"]}, "phone": "+17607446789", "display_phone": "(760) 744-6789", "distance": 11535.319775376585}, {"id": "hVw-g482Eze395Yb3Oie3w", "alias": "kims-vietnamese-encinitas-2", "name": "Kim's Vietnamese", "image_url": "https://s3-media3.fl.yelpcdn.com/bphoto/P35YuW3Ga92OYH32G0_24Q/o.jpg", "is_closed": false, "url": "https://www.yelp.com/biz/kims-vietnamese-encinitas-2?adjust_creative=oncXGL2aPIKrtJdnWeFSnA&utm_campaign=yelp_api_v3&utm_medium=api_v3_business_search&utm_source=oncXGL2aPIKrtJdnWeFSnA", "review_count": 136, "categories": [{"alias": "vietnamese", "title": "Vietnamese"}], "rating": 4.0, "coordinates": {"latitude": 33.0425995, "longitude": -117.2930807}, "transactions": [], "price": "$$", "location": {"address1": "745 S Coast Hwy 101", "address2": "", "address3": "Ste J 103", "city": "Encinitas", "zip_code": "92024", "country": "US", "state": "CA", "display_address": ["745 S Coast Hwy 101", "Ste J 103", "Encinitas, CA 92024"]}, "phone": "+17609424816", "display_phone": "(760) 942-4816", "distance": 8836.640953687911}, {"id": "YA9ZXK3bKU5ouA7tLRpAnQ", "alias": "yummy-pho-oceanside", "name": "Yummy Pho", "image_url": "https://s3-media2.fl.yelpcdn.com/bphoto/JJbawnSa63JOABZjeRiiHQ/o.jpg", "is_closed": false, "url": "https://www.yelp.com/biz/yummy-pho-oceanside?adjust_creative=oncXGL2aPIKrtJdnWeFSnA&utm_campaign=yelp_api_v3&utm_medium=api_v3_business_search&utm_source=oncXGL2aPIKrtJdnWeFSnA", "review_count": 301, "categories": [{"alias": "vietnamese", "title": "Vietnamese"}], "rating": 4.0, "coordinates": {"latitude": 33.207439, "longitude": -117.2833753}, "transactions": [], "price": "$", "location": {"address1": "4225 Oceanside Blvd", "address2": "Ste W", "address3": "", "city": "Oceanside", "zip_code": "92056", "country": "US", "state": "CA", "display_address": ["4225 Oceanside Blvd", "Ste W", "Oceanside, CA 92056"]}, "phone": "+17606311800", "display_phone": "(760) 631-1800", "distance": 9436.536410439716}, {"id": "WWjIcLS6-q5g9ceS_YRuvw", "alias": "tasty-pho-vista", "name": "Tasty Pho", "image_url": "https://s3-media1.fl.yelpcdn.com/bphoto/7EXGdqiUCsvg3XaNB01Avg/o.jpg", "is_closed": false, "url": "https://www.yelp.com/biz/tasty-pho-vista?adjust_creative=oncXGL2aPIKrtJdnWeFSnA&utm_campaign=yelp_api_v3&utm_medium=api_v3_business_search&utm_source=oncXGL2aPIKrtJdnWeFSnA", "review_count": 157, "categories": [{"alias": "vietnamese", "title": "Vietnamese"}, {"alias": "asianfusion", "title": "Asian Fusion"}], "rating": 4.5, "coordinates": {"latitude": 33.1866226196289, "longitude": -117.224250793457}, "transactions": [], "price": "$", "location": {"address1": "1250 S Santa Fe Ave", "address2": "Ste K", "address3": "", "city": "Vista", "zip_code": "92084", "country": "US", "state": "CA", "display_address": ["1250 S Santa Fe Ave", "Ste K", "Vista, CA 92084"]}, "phone": "+17606315900", "display_phone": "(760) 631-5900", "distance": 9379.574126582973}, {"id": "AhZR7jf8J3-NDuP4f1HupQ", "alias": "pho-san-marcos-san-marcos", "name": "Pho San Marcos", "image_url": "https://s3-media1.fl.yelpcdn.com/bphoto/ckxL-9slBDsWFNI2VRA_4g/o.jpg", "is_closed": false, "url": "https://www.yelp.com/biz/pho-san-marcos-san-marcos?adjust_creative=oncXGL2aPIKrtJdnWeFSnA&utm_campaign=yelp_api_v3&utm_medium=api_v3_business_search&utm_source=oncXGL2aPIKrtJdnWeFSnA", "review_count": 315, "categories": [{"alias": "vietnamese", "title": "Vietnamese"}], "rating": 3.5, "coordinates": {"latitude": 33.1328255311659, "longitude": -117.207877635956}, "transactions": [], "price": "$", "location": {"address1": "700 S Rancho Santa Fe Rd", "address2": "", "address3": "", "city": "San Marcos", "zip_code": "92078", "country": "US", "state": "CA", "display_address": ["700 S Rancho Santa Fe Rd", "San Marcos, CA 92078"]}, "phone": "+17605990973", "display_phone": "(760) 599-0973", "distance": 7619.053952593724}, {"id": "t6u3bXS9Vj8TmVTur6OblQ", "alias": "mr-pho-oceanside", "name": "Mr Pho", "image_url": "https://s3-media4.fl.yelpcdn.com/bphoto/PWB5tw5yqJapoI5HCUFAKw/o.jpg", "is_closed": false, "url": "https://www.yelp.com/biz/mr-pho-oceanside?adjust_creative=oncXGL2aPIKrtJdnWeFSnA&utm_campaign=yelp_api_v3&utm_medium=api_v3_business_search&utm_source=oncXGL2aPIKrtJdnWeFSnA", "review_count": 284, "categories": [{"alias": "vietnamese", "title": "Vietnamese"}], "rating": 4.0, "coordinates": {"latitude": 33.2167206, "longitude": -117.2717285}, "transactions": [], "price": "$", "location": {"address1": "4750 Oceanside Blvd", "address2": "", "address3": "", "city": "Oceanside", "zip_code": "92056", "country": "US", "state": "CA", "display_address": ["4750 Oceanside Blvd", "Oceanside, CA 92056"]}, "phone": "+17609401306", "display_phone": "(760) 940-1306", "distance": 10626.094259332694}, {"id": "-JYENhetvaP0bS0-4LmIyQ", "alias": "i-love-pho-oceanside", "name": "I Love Pho", "image_url": "https://s3-media2.fl.yelpcdn.com/bphoto/ZEUqiBxsdbNyMNTeCVoBiA/o.jpg", "is_closed": false, "url": "https://www.yelp.com/biz/i-love-pho-oceanside?adjust_creative=oncXGL2aPIKrtJdnWeFSnA&utm_campaign=yelp_api_v3&utm_medium=api_v3_business_search&utm_source=oncXGL2aPIKrtJdnWeFSnA", "review_count": 326, "categories": [{"alias": "vietnamese", "title": "Vietnamese"}], "rating": 3.5, "coordinates": {"latitude": 33.181416, "longitude": -117.293098}, "transactions": [], "price": "$", "location": {"address1": "3809 Plaza Dr", "address2": "", "address3": "", "city": "Oceanside", "zip_code": "92056", "country": "US", "state": "CA", "display_address": ["3809 Plaza Dr", "Oceanside, CA 92056"]}, "phone": "+17606308889", "display_phone": "(760) 630-8889", "distance": 6617.07094618534}, {"id": "wGJJi6enDpzj1WzVsmhrug", "alias": "pho-4-queen-san-marcos", "name": "Pho 4 Queen", "image_url": "https://s3-media2.fl.yelpcdn.com/bphoto/HxAIuDYYsYGTqmLcxFVnHg/o.jpg", "is_closed": false, "url": "https://www.yelp.com/biz/pho-4-queen-san-marcos?adjust_creative=oncXGL2aPIKrtJdnWeFSnA&utm_campaign=yelp_api_v3&utm_medium=api_v3_business_search&utm_source=oncXGL2aPIKrtJdnWeFSnA", "review_count": 182, "categories": [{"alias": "vietnamese", "title": "Vietnamese"}, {"alias": "chinese", "title": "Chinese"}, {"alias": "soup", "title": "Soup"}], "rating": 4.0, "coordinates": {"latitude": 33.1471976, "longitude": -117.1995141}, "transactions": ["pickup"], "price": "$", "location": {"address1": "159 S Rancho Santa Fe Rd", "address2": "", "address3": "", "city": "San Marcos", "zip_code": "92078", "country": "US", "state": "CA", "display_address": ["159 S Rancho Santa Fe Rd", "San Marcos, CA 92078"]}, "phone": "+17604712572", "display_phone": "(760) 471-2572", "distance": 8796.784869634403}, {"id": "1ZflRsr-3BuNgQel1GHCQQ", "alias": "pho-saigon-express-escondido", "name": "Pho Saigon Express", "image_url": "https://s3-media1.fl.yelpcdn.com/bphoto/gBLX--Q607TSLMtCef5Ong/o.jpg", "is_closed": false, "url": "https://www.yelp.com/biz/pho-saigon-express-escondido?adjust_creative=oncXGL2aPIKrtJdnWeFSnA&utm_campaign=yelp_api_v3&utm_medium=api_v3_business_search&utm_source=oncXGL2aPIKrtJdnWeFSnA", "review_count": 659, "categories": [{"alias": "vietnamese", "title": "Vietnamese"}, {"alias": "chinese", "title": "Chinese"}, {"alias": "vegetarian", "title": "Vegetarian"}], "rating": 4.5, "coordinates": {"latitude": 33.126807, "longitude": -117.084974}, "transactions": ["pickup"], "price": "$", "location": {"address1": "605 N Broadway", "address2": null, "address3": "", "city": "Escondido", "zip_code": "92025", "country": "US", "state": "CA", "display_address": ["605 N Broadway", "Escondido, CA 92025"]}, "phone": "+17607464669", "display_phone": "(760) 746-4669", "distance": 18976.192877410027}, {"id": "BofHtsi15Hmv6eu_nlApBQ", "alias": "andells-bakery-san-diego", "name": "Andell's Bakery", "image_url": "https://s3-media4.fl.yelpcdn.com/bphoto/FtdgazrIWJ_qlfSnT0NoGg/o.jpg", "is_closed": false, "url": "https://www.yelp.com/biz/andells-bakery-san-diego?adjust_creative=oncXGL2aPIKrtJdnWeFSnA&utm_campaign=yelp_api_v3&utm_medium=api_v3_business_search&utm_source=oncXGL2aPIKrtJdnWeFSnA", "review_count": 64, "categories": [{"alias": "bakeries", "title": "Bakeries"}, {"alias": "vietnamese", "title": "Vietnamese"}, {"alias": "filipino", "title": "Filipino"}], "rating": 4.5, "coordinates": {"latitude": 32.96147, "longitude": -117.114133}, "transactions": [], "price": "$", "location": {"address1": "9926 Carmel Mountain Rd", "address2": "Ste F", "address3": "", "city": "San Diego", "zip_code": "92129", "country": "US", "state": "CA", "display_address": ["9926 Carmel Mountain Rd", "Ste F", "San Diego, CA 92129"]}, "phone": "+18585388308", "display_phone": "(858) 538-8308", "distance": 24150.012675704023}, {"id": "5r6D9waKp7UhvWsa44kG6w", "alias": "pho-saigon-and-grill-san-diego", "name": "Pho Saigon & Grill", "image_url": "https://s3-media2.fl.yelpcdn.com/bphoto/Nh4N485gMSMUykIw-UX8bw/o.jpg", "is_closed": false, "url": "https://www.yelp.com/biz/pho-saigon-and-grill-san-diego?adjust_creative=oncXGL2aPIKrtJdnWeFSnA&utm_campaign=yelp_api_v3&utm_medium=api_v3_business_search&utm_source=oncXGL2aPIKrtJdnWeFSnA", "review_count": 372, "categories": [{"alias": "vietnamese", "title": "Vietnamese"}, {"alias": "gluten_free", "title": "Gluten-Free"}], "rating": 4.0, "coordinates": {"latitude": 32.96009, "longitude": -117.11187}, "transactions": [], "price": "$", "location": {"address1": "9975 Carmel Mountain Rd", "address2": "", "address3": "", "city": "San Diego", "zip_code": "92129", "country": "US", "state": "CA", "display_address": ["9975 Carmel Mountain Rd", "San Diego, CA 92129"]}, "phone": "+18585381000", "display_phone": "(858) 538-1000", "distance": 24381.681393727875}, {"id": "VmRgFAKK2O6-usofDrP1yw", "alias": "le-bambou-del-mar-2", "name": "Le Bambou", "image_url": "https://s3-media3.fl.yelpcdn.com/bphoto/5aOk9q7tgraxAkD13LbnSQ/o.jpg", "is_closed": false, "url": "https://www.yelp.com/biz/le-bambou-del-mar-2?adjust_creative=oncXGL2aPIKrtJdnWeFSnA&utm_campaign=yelp_api_v3&utm_medium=api_v3_business_search&utm_source=oncXGL2aPIKrtJdnWeFSnA", "review_count": 163, "categories": [{"alias": "vietnamese", "title": "Vietnamese"}, {"alias": "seafood", "title": "Seafood"}, {"alias": "beer_and_wine", "title": "Beer, Wine & Spirits"}], "rating": 4.0, "coordinates": {"latitude": 32.9511390334504, "longitude": -117.246069112845}, "transactions": [], "price": "$$", "location": {"address1": "2634 Del Mar Heights Rd", "address2": "", "address3": "", "city": "Del Mar", "zip_code": "92014", "country": "US", "state": "CA", "display_address": ["2634 Del Mar Heights Rd", "Del Mar, CA 92014"]}, "phone": "+18582598138", "display_phone": "(858) 259-8138", "distance": 19407.53468398418}], "total": 26, "region": {"center": {"longitude": -117.28866577148438, "latitude": 33.12198326621279}}}