{"businesses": [{"id": "10Te1gZLkYbtvkziweoICw", "alias": "baba-kabob-san-diego", "name": "Baba Kabob", "image_url": "https://s3-media4.fl.yelpcdn.com/bphoto/N_SFBPljVqbZnSdQIoC5kQ/o.jpg", "is_closed": false, "url": "https://www.yelp.com/biz/baba-kabob-san-diego?adjust_creative=oncXGL2aPIKrtJdnWeFSnA&utm_campaign=yelp_api_v3&utm_medium=api_v3_business_search&utm_source=oncXGL2aPIKrtJdnWeFSnA", "review_count": 30, "categories": [{"alias": "mediterranean", "title": "Mediterranean"}, {"alias": "afghani", "title": "Afghan"}, {"alias": "halal", "title": "Halal"}], "rating": 5.0, "coordinates": {"latitude": 32.89534, "longitude": -117.12413}, "transactions": [], "location": {"address1": "9474 Black Mountain Rd", "address2": "Ste A", "address3": "", "city": "San Diego", "zip_code": "92126", "country": "US", "state": "CA", "display_address": ["9474 Black Mountain Rd", "Ste A", "San Diego, CA 92126"]}, "phone": "+18588001258", "display_phone": "(858) 800-1258", "distance": 27786.47316943363}, {"id": "y_jcr4Z43DgO7E0844uHSw", "alias": "pamir-kabob-house-san-diego", "name": "Pamir Kabob House", "image_url": "https://s3-media2.fl.yelpcdn.com/bphoto/S1J6jgdkOYBfPvrwzgwM3g/o.jpg", "is_closed": false, "url": "https://www.yelp.com/biz/pamir-kabob-house-san-diego?adjust_creative=oncXGL2aPIKrtJdnWeFSnA&utm_campaign=yelp_api_v3&utm_medium=api_v3_business_search&utm_source=oncXGL2aPIKrtJdnWeFSnA", "review_count": 189, "categories": [{"alias": "afghani", "title": "Afghan"}, {"alias": "mideastern", "title": "Middle Eastern"}], "rating": 4.5, "coordinates": {"latitude": 33.0183258, "longitude": -117.0752802}, "transactions": [], "price": "$$", "location": {"address1": "16769 Bernardo Center Dr", "address2": "Ste K10", "address3": null, "city": "San Diego", "zip_code": "92128", "country": "US", "state": "CA", "display_address": ["16769 Bernardo Center Dr", "Ste K10", "San Diego, CA 92128"]}, "phone": "+18587985372", "display_phone": "(858) 798-5372", "distance": 16615.978982264714}, {"id": "K1-svr9d1nO-gL6hoKqwXw", "alias": "ariana-kabob-house-san-diego", "name": "Ariana Kabob House", "image_url": "https://s3-media1.fl.yelpcdn.com/bphoto/Utw4jdd7vZo0ny0_WrHHTg/o.jpg", "is_closed": false, "url": "https://www.yelp.com/biz/ariana-kabob-house-san-diego?adjust_creative=oncXGL2aPIKrtJdnWeFSnA&utm_campaign=yelp_api_v3&utm_medium=api_v3_business_search&utm_source=oncXGL2aPIKrtJdnWeFSnA", "review_count": 446, "categories": [{"alias": "afghani", "title": "Afghan"}, {"alias": "kebab", "title": "Kebab"}], "rating": 4.5, "coordinates": {"latitude": 32.91728, "longitude": -117.1125}, "transactions": ["pickup"], "price": "$$", "location": {"address1": "9910 Mira Mesa Blvd", "address2": "Ste A", "address3": "", "city": "San Diego", "zip_code": "92131", "country": "US", "state": "CA", "display_address": ["9910 Mira Mesa Blvd", "Ste A", "San Diego, CA 92131"]}, "phone": "+18585781468", "display_phone": "(858) 578-1468", "distance": 25581.78032415193}, {"id": "iP4l2z0sgy0UIoii-4iUmw", "alias": "ariana-cuisine-san-diego-2", "name": "Ariana Cuisine", "image_url": "https://s3-media1.fl.yelpcdn.com/bphoto/DFda5mfPMTSY8j7toiFp2A/o.jpg", "is_closed": false, "url": "https://www.yelp.com/biz/ariana-cuisine-san-diego-2?adjust_creative=oncXGL2aPIKrtJdnWeFSnA&utm_campaign=yelp_api_v3&utm_medium=api_v3_business_search&utm_source=oncXGL2aPIKrtJdnWeFSnA", "review_count": 165, "categories": [{"alias": "mediterranean", "title": "Mediterranean"}, {"alias": "afghani", "title": "Afghan"}, {"alias": "halal", "title": "Halal"}], "rating": 4.5, "coordinates": {"latitude": 32.9264427, "longitude": -117.1439003}, "transactions": ["delivery", "pickup"], "price": "$", "location": {"address1": "11261 Camino Ruiz", "address2": "Ste 3", "address3": "", "city": "San Diego", "zip_code": "92126", "country": "US", "state": "CA", "display_address": ["11261 Camino Ruiz", "Ste 3", "San Diego, CA 92126"]}, "phone": "+18585667700", "display_phone": "(858) 566-7700", "distance": 24073.591040035168}, {"id": "rQWzlDF53RZFEwiqpQFfrQ", "alias": "kabul-west-san-diego", "name": "Kabul West", "image_url": "https://s3-media1.fl.yelpcdn.com/bphoto/XDlUyelSup4jAkEmnu5lRA/o.jpg", "is_closed": false, "url": "https://www.yelp.com/biz/kabul-west-san-diego?adjust_creative=oncXGL2aPIKrtJdnWeFSnA&utm_campaign=yelp_api_v3&utm_medium=api_v3_business_search&utm_source=oncXGL2aPIKrtJdnWeFSnA", "review_count": 97, "categories": [{"alias": "afghani", "title": "Afghan"}], "rating": 4.0, "coordinates": {"latitude": 32.89348, "longitude": -117.203995}, "transactions": ["delivery", "pickup"], "price": "$", "location": {"address1": "9450 Scranton Rd", "address2": "Ste 114G", "address3": "", "city": "San Diego", "zip_code": "92121", "country": "US", "state": "CA", "display_address": ["9450 Scranton Rd", "Ste 114G", "San Diego, CA 92121"]}, "phone": "+18586229500", "display_phone": "(858) 622-9500", "distance": 27730.249137650222}, {"id": "2GXSaSS8OtQLuQGTan6rug", "alias": "lake-lindo-grill-jons-kabob-house-lakeside-2", "name": "Lake Lindo Grill Jons Kabob House", "image_url": "https://s3-media4.fl.yelpcdn.com/bphoto/Iu-_-Pi8uHWrX4R5fhIN8w/o.jpg", "is_closed": false, "url": "https://www.yelp.com/biz/lake-lindo-grill-jons-kabob-house-lakeside-2?adjust_creative=oncXGL2aPIKrtJdnWeFSnA&utm_campaign=yelp_api_v3&utm_medium=api_v3_business_search&utm_source=oncXGL2aPIKrtJdnWeFSnA", "review_count": 135, "categories": [{"alias": "mediterranean", "title": "Mediterranean"}, {"alias": "afghani", "title": "Afghan"}, {"alias": "breakfast_brunch", "title": "Breakfast & Brunch"}], "rating": 4.5, "coordinates": {"latitude": 32.8565313, "longitude": -116.9302321}, "transactions": ["delivery", "pickup"], "price": "$", "location": {"address1": "12128 Woodside Ave", "address2": null, "address3": "", "city": "Lakeside", "zip_code": "92040", "country": "US", "state": "CA", "display_address": ["12128 Woodside Ave", "Lakeside, CA 92040"]}, "phone": "+16194430366", "display_phone": "(619) 443-0366", "distance": 38963.67427258545}, {"id": "1anMOn5Rh9d-9qRxN0U6PQ", "alias": "skewers-of-temecula-temecula", "name": "Skewers of Temecula", "image_url": "https://s3-media2.fl.yelpcdn.com/bphoto/OGNqVvJsfKmo0BKih7GibA/o.jpg", "is_closed": false, "url": "https://www.yelp.com/biz/skewers-of-temecula-temecula?adjust_creative=oncXGL2aPIKrtJdnWeFSnA&utm_campaign=yelp_api_v3&utm_medium=api_v3_business_search&utm_source=oncXGL2aPIKrtJdnWeFSnA", "review_count": 285, "categories": [{"alias": "afghani", "title": "Afghan"}, {"alias": "halal", "title": "Halal"}], "rating": 4.5, "coordinates": {"latitude": 33.5203907, "longitude": -117.1514485}, "transactions": ["pickup"], "price": "$", "location": {"address1": "41653 Margarita Rd", "address2": null, "address3": "", "city": "Temecula", "zip_code": "92591", "country": "US", "state": "CA", "display_address": ["41653 Margarita Rd", "Temecula, CA 92591"]}, "phone": "+19517193237", "display_phone": "(951) 719-3237", "distance": 42175.87891624979}, {"id": "sS1NKQL9xtKLsBUMSAF1-w", "alias": "kabob-house-san-diego", "name": "Kabob House", "image_url": "https://s3-media1.fl.yelpcdn.com/bphoto/L09cddExB62KY2FfasKqoQ/o.jpg", "is_closed": false, "url": "https://www.yelp.com/biz/kabob-house-san-diego?adjust_creative=oncXGL2aPIKrtJdnWeFSnA&utm_campaign=yelp_api_v3&utm_medium=api_v3_business_search&utm_source=oncXGL2aPIKrtJdnWeFSnA", "review_count": 217, "categories": [{"alias": "mediterranean", "title": "Mediterranean"}, {"alias": "afghani", "title": "Afghan"}, {"alias": "greek", "title": "Greek"}], "rating": 4.0, "coordinates": {"latitude": 32.71552, "longitude": -117.14067}, "transactions": [], "price": "$", "location": {"address1": "2479 Broadway", "address2": null, "address3": "", "city": "San Diego", "zip_code": "92102", "country": "US", "state": "CA", "display_address": ["2479 Broadway", "San Diego, CA 92102"]}, "phone": "+16197957909", "display_phone": "(619) 795-7909", "distance": 47475.95352573416}, {"id": "M6S0p-ELZJg1SUvP-djgPw", "alias": "khyber-pass-san-diego", "name": "Khyber Pass", "image_url": "https://s3-media2.fl.yelpcdn.com/bphoto/vz6PbFy8w5wGM00wetq1UA/o.jpg", "is_closed": false, "url": "https://www.yelp.com/biz/khyber-pass-san-diego?adjust_creative=oncXGL2aPIKrtJdnWeFSnA&utm_campaign=yelp_api_v3&utm_medium=api_v3_business_search&utm_source=oncXGL2aPIKrtJdnWeFSnA", "review_count": 485, "categories": [{"alias": "afghani", "title": "Afghan"}, {"alias": "mediterranean", "title": "Mediterranean"}, {"alias": "kebab", "title": "Kebab"}], "rating": 4.0, "coordinates": {"latitude": 32.74804, "longitude": -117.15987}, "transactions": ["delivery", "pickup"], "price": "$$", "location": {"address1": "523 University Ave", "address2": "", "address3": "", "city": "San Diego", "zip_code": "92103", "country": "US", "state": "CA", "display_address": ["523 University Ave", "San Diego, CA 92103"]}, "phone": "+16192947579", "display_phone": "(619) 294-7579", "distance": 43765.92696232545}, {"id": "iIWl2HqTm54J2aiBVFs19g", "alias": "king-kabob-lake-elsinore", "name": "King Kabob", "image_url": "https://s3-media3.fl.yelpcdn.com/bphoto/mEv01YLxLvA0CBR7TZ5Cng/o.jpg", "is_closed": false, "url": "https://www.yelp.com/biz/king-kabob-lake-elsinore?adjust_creative=oncXGL2aPIKrtJdnWeFSnA&utm_campaign=yelp_api_v3&utm_medium=api_v3_business_search&utm_source=oncXGL2aPIKrtJdnWeFSnA", "review_count": 357, "categories": [{"alias": "persian", "title": "Persian/Iranian"}, {"alias": "mediterranean", "title": "Mediterranean"}, {"alias": "afghani", "title": "Afghan"}], "rating": 4.0, "coordinates": {"latitude": 33.65963, "longitude": -117.29765}, "transactions": ["pickup"], "price": "$$", "location": {"address1": "31712 Casino Dr", "address2": "", "address3": "", "city": "Lake Elsinore", "zip_code": "92530", "country": "US", "state": "CA", "display_address": ["31712 Casino Dr", "Lake Elsinore, CA 92530"]}, "phone": "+19512455999", "display_phone": "(951) 245-5999", "distance": 58783.2559406534}, {"id": "N8RN7zJXCXffPrQTIDnV-A", "alias": "chili-chutney-grill-lake-forest", "name": "Chili Chutney Grill", "image_url": "https://s3-media4.fl.yelpcdn.com/bphoto/r5hZtagvB7YL3fOL0GTKvA/o.jpg", "is_closed": false, "url": "https://www.yelp.com/biz/chili-chutney-grill-lake-forest?adjust_creative=oncXGL2aPIKrtJdnWeFSnA&utm_campaign=yelp_api_v3&utm_medium=api_v3_business_search&utm_source=oncXGL2aPIKrtJdnWeFSnA", "review_count": 556, "categories": [{"alias": "afghani", "title": "Afghan"}, {"alias": "buffets", "title": "Buffets"}], "rating": 4.0, "coordinates": {"latitude": 33.6295880743916, "longitude": -117.705471953409}, "transactions": ["pickup"], "price": "$$", "location": {"address1": "24301 Muirlands Blvd", "address2": "Ste A", "address3": "", "city": "Lake Forest", "zip_code": "92630", "country": "US", "state": "CA", "display_address": ["24301 Muirlands Blvd", "Ste A", "Lake Forest, CA 92630"]}, "phone": "+19498591778", "display_phone": "(949) 859-1778", "distance": 73391.92236736961}, {"id": "M8DdwKS61uP69elOYDOU-w", "alias": "allisons-kountry-kitchen-kafe-camp-pendleton", "name": "Allison's Kountry Kitchen Kafe", "image_url": "", "is_closed": false, "url": "https://www.yelp.com/biz/allisons-kountry-kitchen-kafe-camp-pendleton?adjust_creative=oncXGL2aPIKrtJdnWeFSnA&utm_campaign=yelp_api_v3&utm_medium=api_v3_business_search&utm_source=oncXGL2aPIKrtJdnWeFSnA", "review_count": 1, "categories": [{"alias": "afghani", "title": "Afghan"}], "rating": 1.0, "coordinates": {"latitude": 33.3161845079362, "longitude": -117.314758300781}, "transactions": [], "price": "$", "location": {"address1": "1775 Hwy 1", "address2": "", "address3": "", "city": "Camp Pendleton", "zip_code": "92055", "country": "US", "state": "CA", "display_address": ["1775 Hwy 1", "Camp Pendleton, CA 92055"]}, "phone": "+15558675309", "display_phone": "(555) 867-5309", "distance": 23457.27244594299}, {"id": "fMfikHYD9FbFe5LOfOoi1A", "alias": "gyro-n-kabob-tustin", "name": "Gyro N Kabob", "image_url": "https://s3-media1.fl.yelpcdn.com/bphoto/S1-vRMi2r7SsWG_Z2vZ0oA/o.jpg", "is_closed": false, "url": "https://www.yelp.com/biz/gyro-n-kabob-tustin?adjust_creative=oncXGL2aPIKrtJdnWeFSnA&utm_campaign=yelp_api_v3&utm_medium=api_v3_business_search&utm_source=oncXGL2aPIKrtJdnWeFSnA", "review_count": 358, "categories": [{"alias": "mideastern", "title": "Middle Eastern"}, {"alias": "desserts", "title": "Desserts"}, {"alias": "afghani", "title": "Afghan"}], "rating": 4.0, "coordinates": {"latitude": 33.7324955663655, "longitude": -117.817341626984}, "transactions": [], "price": "$", "location": {"address1": "14145 Red Hill Ave", "address2": "", "address3": "", "city": "Tustin", "zip_code": "92780", "country": "US", "state": "CA", "display_address": ["14145 Red Hill Ave", "Tustin, CA 92780"]}, "phone": "+17145050713", "display_phone": "(714) 505-0713", "distance": 88821.67553568154}], "total": 13, "region": {"center": {"longitude": -117.17330932617188, "latitude": 33.141533511091374}}}