{"businesses": [{"id": "c7PEqvKDBcoT2azcNbctFw", "alias": "oc-armenian-center-santa-ana", "name": "OC Armenian Center", "image_url": "", "is_closed": false, "url": "https://www.yelp.com/biz/oc-armenian-center-santa-ana?adjust_creative=oncXGL2aPIKrtJdnWeFSnA&utm_campaign=yelp_api_v3&utm_medium=api_v3_business_search&utm_source=oncXGL2aPIKrtJdnWeFSnA", "review_count": 2, "categories": [{"alias": "armenian", "title": "Armenian"}], "rating": 5.0, "coordinates": {"latitude": 33.73886, "longitude": -117.93802}, "transactions": [], "location": {"address1": "5305 W McFadden Ave", "address2": "", "address3": null, "city": "Santa Ana", "zip_code": "92704", "country": "US", "state": "CA", "display_address": ["5305 W McFadden Ave", "Santa Ana, CA 92704"]}, "phone": "+17148395858", "display_phone": "(714) 839-5858", "distance": 97173.10929880722}, {"id": "mpUUh-dak8d5hvRgjPVkFg", "alias": "zankou-chicken-anaheim", "name": "Zankou Chicken", "image_url": "https://s3-media1.fl.yelpcdn.com/bphoto/cMwRhI90kRg88buNvZOdVA/o.jpg", "is_closed": false, "url": "https://www.yelp.com/biz/zankou-chicken-anaheim?adjust_creative=oncXGL2aPIKrtJdnWeFSnA&utm_campaign=yelp_api_v3&utm_medium=api_v3_business_search&utm_source=oncXGL2aPIKrtJdnWeFSnA", "review_count": 1694, "categories": [{"alias": "mediterranean", "title": "Mediterranean"}, {"alias": "lebanese", "title": "Lebanese"}, {"alias": "armenian", "title": "Armenian"}], "rating": 4.0, "coordinates": {"latitude": 33.8172, "longitude": -117.96904}, "transactions": [], "price": "$", "location": {"address1": "2424 W Ball Rd", "address2": "", "address3": "", "city": "Anaheim", "zip_code": "92804", "country": "US", "state": "CA", "display_address": ["2424 W Ball Rd", "Anaheim, CA 92804"]}, "phone": "+17142292060", "display_phone": "(714) 229-2060", "distance": 105289.36510154865}], "total": 2, "region": {"center": {"longitude": -117.17330932617188, "latitude": 33.141533511091374}}}