{"businesses": [{"id": "AS--bXkiFStoRkwoLqkJEg", "alias": "buds-louisiana-cafe-san-diego", "name": "Bud's Louisiana Cafe", "image_url": "https://s3-media2.fl.yelpcdn.com/bphoto/a6wBub9epgwEksDWJAOsfA/o.jpg", "is_closed": false, "url": "https://www.yelp.com/biz/buds-louisiana-cafe-san-diego?adjust_creative=oncXGL2aPIKrtJdnWeFSnA&utm_campaign=yelp_api_v3&utm_medium=api_v3_business_search&utm_source=oncXGL2aPIKrtJdnWeFSnA", "review_count": 1952, "categories": [{"alias": "cajun", "title": "Cajun/Creole"}, {"alias": "breakfast_brunch", "title": "Breakfast & Brunch"}, {"alias": "wine_bars", "title": "Wine Bars"}], "rating": 4.5, "coordinates": {"latitude": 32.821062910211, "longitude": -117.124669642923}, "transactions": ["restaurant_reservation"], "price": "$$", "location": {"address1": "4320 Viewridge Ave", "address2": "Ste A", "address3": "", "city": "San Diego", "zip_code": "92123", "country": "US", "state": "CA", "display_address": ["4320 Viewridge Ave", "Ste A", "San Diego, CA 92123"]}, "phone": "+18585732837", "display_phone": "(858) 573-2837", "distance": 35922.314349571854}, {"id": "khdgeWgMWoagevaGmuxBVw", "alias": "crab-hut-san-diego-6", "name": "Crab Hut", "image_url": "https://s3-media1.fl.yelpcdn.com/bphoto/jlvbNNxKY1JKItanpY0qqg/o.jpg", "is_closed": false, "url": "https://www.yelp.com/biz/crab-hut-san-diego-6?adjust_creative=oncXGL2aPIKrtJdnWeFSnA&utm_campaign=yelp_api_v3&utm_medium=api_v3_business_search&utm_source=oncXGL2aPIKrtJdnWeFSnA", "review_count": 427, "categories": [{"alias": "cajun", "title": "Cajun/Creole"}, {"alias": "seafood", "title": "Seafood"}, {"alias": "cocktailbars", "title": "Cocktail Bars"}], "rating": 4.0, "coordinates": {"latitude": 32.914630505126, "longitude": -117.145804051706}, "transactions": ["delivery", "pickup"], "price": "$$", "location": {"address1": "8280 Mira Mesa Blvd", "address2": "Ste E", "address3": "", "city": "San Diego", "zip_code": "92126", "country": "US", "state": "CA", "display_address": ["8280 Mira Mesa Blvd", "Ste E", "San Diego, CA 92126"]}, "phone": "+18588605225", "display_phone": "(858) 860-5225", "distance": 25360.402386375117}, {"id": "q-i2Iuqin5gegJC19RU_3Q", "alias": "louziana-food-casual-dining-restaurant-san-diego", "name": "LouZiana Food Casual Dining Restaurant", "image_url": "https://s3-media2.fl.yelpcdn.com/bphoto/t2yAwPftfSilK64jtbPOnA/o.jpg", "is_closed": false, "url": "https://www.yelp.com/biz/louziana-food-casual-dining-restaurant-san-diego?adjust_creative=oncXGL2aPIKrtJdnWeFSnA&utm_campaign=yelp_api_v3&utm_medium=api_v3_business_search&utm_source=oncXGL2aPIKrtJdnWeFSnA", "review_count": 317, "categories": [{"alias": "cajun", "title": "Cajun/Creole"}, {"alias": "seafood", "title": "Seafood"}], "rating": 4.5, "coordinates": {"latitude": 32.8801284, "longitude": -117.1597169}, "transactions": [], "price": "$$", "location": {"address1": "7128 Miramar Rd", "address2": "Ste 1", "address3": "", "city": "San Diego", "zip_code": "92121", "country": "US", "state": "CA", "display_address": ["7128 Miramar Rd", "Ste 1", "San Diego, CA 92121"]}, "phone": "+18585666000", "display_phone": "(858) 566-6000", "distance": 29038.89985602774}, {"id": "zb0wEObD57_MrggU1i3u3w", "alias": "submarine-crab-san-diego", "name": "Submarine Crab", "image_url": "https://s3-media1.fl.yelpcdn.com/bphoto/jtbgjc70iGGZV5tGLtcoLQ/o.jpg", "is_closed": false, "url": "https://www.yelp.com/biz/submarine-crab-san-diego?adjust_creative=oncXGL2aPIKrtJdnWeFSnA&utm_campaign=yelp_api_v3&utm_medium=api_v3_business_search&utm_source=oncXGL2aPIKrtJdnWeFSnA", "review_count": 636, "categories": [{"alias": "cajun", "title": "Cajun/Creole"}, {"alias": "seafood", "title": "Seafood"}], "rating": 4.5, "coordinates": {"latitude": 32.82506, "longitude": -117.15453}, "transactions": [], "price": "$$", "location": {"address1": "4647 Convoy St", "address2": "Ste 101B", "address3": "", "city": "San Diego", "zip_code": "92111", "country": "US", "state": "CA", "display_address": ["4647 Convoy St", "Ste 101B", "San Diego, CA 92111"]}, "phone": "+18589870333", "display_phone": "(858) 987-0333", "distance": 35195.21341255905}, {"id": "hCg_s6EB24nb_ScO9WbsfA", "alias": "crab-town-san-diego", "name": "Crab Town", "image_url": "https://s3-media3.fl.yelpcdn.com/bphoto/tWO5hiB-syqZYkoZITe1SA/o.jpg", "is_closed": false, "url": "https://www.yelp.com/biz/crab-town-san-diego?adjust_creative=oncXGL2aPIKrtJdnWeFSnA&utm_campaign=yelp_api_v3&utm_medium=api_v3_business_search&utm_source=oncXGL2aPIKrtJdnWeFSnA", "review_count": 788, "categories": [{"alias": "seafood", "title": "Seafood"}, {"alias": "cajun", "title": "Cajun/Creole"}], "rating": 4.5, "coordinates": {"latitude": 32.83328, "longitude": -117.14958}, "transactions": [], "price": "$$", "location": {"address1": "8050 Clairemont Mesa Blvd", "address2": "", "address3": "", "city": "San Diego", "zip_code": "92111", "country": "US", "state": "CA", "display_address": ["8050 Clairemont Mesa Blvd", "San Diego, CA 92111"]}, "phone": "+18587374972", "display_phone": "(858) 737-4972", "distance": 34336.78303301433}, {"id": "7duSj017NK3oKSxj4a4Ixw", "alias": "the-dive-skc-san-diego-2", "name": "The Dive SKC", "image_url": "https://s3-media2.fl.yelpcdn.com/bphoto/sqznsd2B55CHSFqvwyYjUg/o.jpg", "is_closed": false, "url": "https://www.yelp.com/biz/the-dive-skc-san-diego-2?adjust_creative=oncXGL2aPIKrtJdnWeFSnA&utm_campaign=yelp_api_v3&utm_medium=api_v3_business_search&utm_source=oncXGL2aPIKrtJdnWeFSnA", "review_count": 213, "categories": [{"alias": "cajun", "title": "Cajun/Creole"}, {"alias": "seafood", "title": "Seafood"}, {"alias": "cocktailbars", "title": "Cocktail Bars"}], "rating": 4.0, "coordinates": {"latitude": 32.7092452, "longitude": -117.1596502}, "transactions": ["delivery", "pickup"], "price": "$$", "location": {"address1": "551 J St", "address2": null, "address3": "", "city": "San Diego", "zip_code": "92101", "country": "US", "state": "CA", "display_address": ["551 J St", "San Diego, CA 92101"]}, "phone": "+16195012845", "display_phone": "(619) 501-2845", "distance": 48085.48459245521}, {"id": "9TDCV-i6BOF8EyqQgMyX2w", "alias": "crab-hut-san-diego", "name": "Crab Hut", "image_url": "https://s3-media2.fl.yelpcdn.com/bphoto/yN8pvhzp5_zOtx5Tpa1kvg/o.jpg", "is_closed": false, "url": "https://www.yelp.com/biz/crab-hut-san-diego?adjust_creative=oncXGL2aPIKrtJdnWeFSnA&utm_campaign=yelp_api_v3&utm_medium=api_v3_business_search&utm_source=oncXGL2aPIKrtJdnWeFSnA", "review_count": 1773, "categories": [{"alias": "cajun", "title": "Cajun/Creole"}, {"alias": "seafood", "title": "Seafood"}], "rating": 4.0, "coordinates": {"latitude": 32.8246953888303, "longitude": -117.155846506406}, "transactions": ["delivery", "pickup"], "price": "$$", "location": {"address1": "4646 Convoy St", "address2": "Ste 106A", "address3": "", "city": "San Diego", "zip_code": "92111", "country": "US", "state": "CA", "display_address": ["4646 Convoy St", "Ste 106A", "San Diego, CA 92111"]}, "phone": "+18585651678", "display_phone": "(858) 565-1678", "distance": 35268.38495724974}, {"id": "lOAjl8Bzx0kDxUidsK87bg", "alias": "snow-and-crab-temecula-2", "name": "Snow & Crab", "image_url": "https://s3-media3.fl.yelpcdn.com/bphoto/CXFqMa_Gt0NYsNc4-DcgCQ/o.jpg", "is_closed": false, "url": "https://www.yelp.com/biz/snow-and-crab-temecula-2?adjust_creative=oncXGL2aPIKrtJdnWeFSnA&utm_campaign=yelp_api_v3&utm_medium=api_v3_business_search&utm_source=oncXGL2aPIKrtJdnWeFSnA", "review_count": 298, "categories": [{"alias": "shavedice", "title": "Shaved Ice"}, {"alias": "tea", "title": "Tea Rooms"}, {"alias": "cajun", "title": "Cajun/Creole"}], "rating": 4.5, "coordinates": {"latitude": 33.48508, "longitude": -117.08138}, "transactions": [], "price": "$$", "location": {"address1": "32965 Temecula Pkwy", "address2": "Ste 100", "address3": "", "city": "Temecula", "zip_code": "92592", "country": "US", "state": "CA", "display_address": ["32965 Temecula Pkwy", "Ste 100", "Temecula, CA 92592"]}, "phone": "+19517299114", "display_phone": "(951) 729-9114", "distance": 39157.97023357976}, {"id": "uGDz_w1Mp_VoPR6hwX7RMg", "alias": "hooked-on-crab-chula-vista", "name": "Hooked On Crab", "image_url": "https://s3-media1.fl.yelpcdn.com/bphoto/4p0m_ks2mEsjtLNxXQLJYA/o.jpg", "is_closed": false, "url": "https://www.yelp.com/biz/hooked-on-crab-chula-vista?adjust_creative=oncXGL2aPIKrtJdnWeFSnA&utm_campaign=yelp_api_v3&utm_medium=api_v3_business_search&utm_source=oncXGL2aPIKrtJdnWeFSnA", "review_count": 196, "categories": [{"alias": "cajun", "title": "Cajun/Creole"}, {"alias": "seafood", "title": "Seafood"}], "rating": 4.0, "coordinates": {"latitude": 32.6523781, "longitude": -116.9682432}, "transactions": [], "price": "$$", "location": {"address1": "872 Eastlake Pkwy", "address2": "Ste 510", "address3": "", "city": "Chula Vista", "zip_code": "91915", "country": "US", "state": "CA", "display_address": ["872 Eastlake Pkwy", "Ste 510", "Chula Vista, CA 91915"]}, "phone": "+16197379117", "display_phone": "(619) 737-9117", "distance": 57565.0712522249}, {"id": "VV9gt3phlr0JP4bloHUePA", "alias": "pamelas-kitchen-table-san-diego-san-diego-3", "name": "Pamela's Kitchen Table - San Diego", "image_url": "https://s3-media4.fl.yelpcdn.com/bphoto/AwXe0NFX4bh1o_LkJdPU7w/o.jpg", "is_closed": false, "url": "https://www.yelp.com/biz/pamelas-kitchen-table-san-diego-san-diego-3?adjust_creative=oncXGL2aPIKrtJdnWeFSnA&utm_campaign=yelp_api_v3&utm_medium=api_v3_business_search&utm_source=oncXGL2aPIKrtJdnWeFSnA", "review_count": 74, "categories": [{"alias": "cajun", "title": "Cajun/Creole"}, {"alias": "personalchefs", "title": "Personal Chefs"}, {"alias": "southern", "title": "Southern"}], "rating": 4.5, "coordinates": {"latitude": 32.7243609, "longitude": -117.1682927}, "transactions": [], "price": "$$", "location": {"address1": "621 W Fir St", "address2": null, "address3": "", "city": "San Diego", "zip_code": "92101", "country": "US", "state": "CA", "display_address": ["621 W Fir St", "San Diego, CA 92101"]}, "phone": "+18588807783", "display_phone": "(858) 880-7783", "distance": 46389.789032861234}, {"id": "XFu30WBODZB3-3Q98ooISQ", "alias": "bud-and-robs-new-orleans-bistro-san-diego", "name": "Bud & Rob's New Orleans Bistro", "image_url": "https://s3-media1.fl.yelpcdn.com/bphoto/gLpTdn4Cegswqh-w1pp-tw/o.jpg", "is_closed": false, "url": "https://www.yelp.com/biz/bud-and-robs-new-orleans-bistro-san-diego?adjust_creative=oncXGL2aPIKrtJdnWeFSnA&utm_campaign=yelp_api_v3&utm_medium=api_v3_business_search&utm_source=oncXGL2aPIKrtJdnWeFSnA", "review_count": 329, "categories": [{"alias": "cajun", "title": "Cajun/Creole"}, {"alias": "sandwiches", "title": "Sandwiches"}, {"alias": "desserts", "title": "Desserts"}], "rating": 5.0, "coordinates": {"latitude": 32.71346, "longitude": -117.15712}, "transactions": ["delivery", "pickup"], "price": "$$", "location": {"address1": "815 F St", "address2": null, "address3": "", "city": "San Diego", "zip_code": "92101", "country": "US", "state": "CA", "display_address": ["815 F St", "San Diego, CA 92101"]}, "phone": "+16195429002", "display_phone": "(619) 542-9002", "distance": 47623.5603395653}, {"id": "doKcYsGK1gw5kWUCwLkuug", "alias": "crab-fever-national-city", "name": "Crab Fever", "image_url": "https://s3-media3.fl.yelpcdn.com/bphoto/4Npst5veS8fC5YPgWJx1XA/o.jpg", "is_closed": false, "url": "https://www.yelp.com/biz/crab-fever-national-city?adjust_creative=oncXGL2aPIKrtJdnWeFSnA&utm_campaign=yelp_api_v3&utm_medium=api_v3_business_search&utm_source=oncXGL2aPIKrtJdnWeFSnA", "review_count": 695, "categories": [{"alias": "cajun", "title": "Cajun/Creole"}, {"alias": "seafood", "title": "Seafood"}, {"alias": "raw_food", "title": "Live/Raw Food"}], "rating": 4.5, "coordinates": {"latitude": 32.6751574007104, "longitude": -117.091473642153}, "transactions": ["delivery", "pickup"], "price": "$$", "location": {"address1": "1420 E Plaza Blvd", "address2": "Ste D2", "address3": null, "city": "National City", "zip_code": "91950", "country": "US", "state": "CA", "display_address": ["1420 E Plaza Blvd", "Ste D2", "National City, CA 91950"]}, "phone": "+16197737357", "display_phone": "(619) 773-7357", "distance": 52418.28591490109}, {"id": "MiDph5lHyWUREyptCwLT_g", "alias": "new-orleans-creole-cafe-san-diego-2", "name": "New Orleans Creole Cafe", "image_url": "https://s3-media2.fl.yelpcdn.com/bphoto/WStljzqqjJcrjhAQ13ls0w/o.jpg", "is_closed": false, "url": "https://www.yelp.com/biz/new-orleans-creole-cafe-san-diego-2?adjust_creative=oncXGL2aPIKrtJdnWeFSnA&utm_campaign=yelp_api_v3&utm_medium=api_v3_business_search&utm_source=oncXGL2aPIKrtJdnWeFSnA", "review_count": 398, "categories": [{"alias": "cajun", "title": "Cajun/Creole"}], "rating": 4.0, "coordinates": {"latitude": 32.7525523, "longitude": -117.194281}, "transactions": [], "price": "$$", "location": {"address1": "2476 San Diego Ave", "address2": "", "address3": "", "city": "San Diego", "zip_code": "92110", "country": "US", "state": "CA", "display_address": ["2476 San Diego Ave", "San Diego, CA 92110"]}, "phone": "+16195421698", "display_phone": "(619) 542-1698", "distance": 43271.088250674846}, {"id": "Wv3DWMzugeLab8znESX6Mw", "alias": "the-ace-crab-national-city", "name": "The Ace Crab", "image_url": "https://s3-media2.fl.yelpcdn.com/bphoto/l1ryC4vShD5bSPeLu8UXqA/o.jpg", "is_closed": false, "url": "https://www.yelp.com/biz/the-ace-crab-national-city?adjust_creative=oncXGL2aPIKrtJdnWeFSnA&utm_campaign=yelp_api_v3&utm_medium=api_v3_business_search&utm_source=oncXGL2aPIKrtJdnWeFSnA", "review_count": 174, "categories": [{"alias": "cajun", "title": "Cajun/Creole"}, {"alias": "seafood", "title": "Seafood"}], "rating": 4.5, "coordinates": {"latitude": 32.68463, "longitude": -117.07134}, "transactions": [], "price": "$$", "location": {"address1": "3403 E Plaza Blvd", "address2": "Ste E", "address3": null, "city": "National City", "zip_code": "91950", "country": "US", "state": "CA", "display_address": ["3403 E Plaza Blvd", "Ste E", "National City, CA 91950"]}, "phone": "+16192922659", "display_phone": "(619) 292-2659", "distance": 51688.22109951226}, {"id": "WWk-VguFg8NwR2avaqnh1A", "alias": "crab-hut-san-diego-7", "name": "Crab Hut", "image_url": "https://s3-media2.fl.yelpcdn.com/bphoto/suyUkL-DONDeppyjaMfiqg/o.jpg", "is_closed": false, "url": "https://www.yelp.com/biz/crab-hut-san-diego-7?adjust_creative=oncXGL2aPIKrtJdnWeFSnA&utm_campaign=yelp_api_v3&utm_medium=api_v3_business_search&utm_source=oncXGL2aPIKrtJdnWeFSnA", "review_count": 778, "categories": [{"alias": "seafood", "title": "Seafood"}, {"alias": "bars", "title": "Bars"}, {"alias": "cajun", "title": "Cajun/Creole"}], "rating": 4.0, "coordinates": {"latitude": 32.715964, "longitude": -117.160019}, "transactions": ["delivery", "pickup"], "price": "$$", "location": {"address1": "1007 Fifth Ave", "address2": "Ste 101", "address3": null, "city": "San Diego", "zip_code": "92101", "country": "US", "state": "CA", "display_address": ["1007 Fifth Ave", "Ste 101", "San Diego, CA 92101"]}, "phone": "+16192340628", "display_phone": "(619) 234-0628", "distance": 47337.3720552572}, {"id": "hHN-i7H9zgcQZ1iVxBpMXQ", "alias": "crab-pub-san-diego-2", "name": "Crab Pub", "image_url": "https://s3-media1.fl.yelpcdn.com/bphoto/DHMIViVYBVRa99iKvjpUZg/o.jpg", "is_closed": false, "url": "https://www.yelp.com/biz/crab-pub-san-diego-2?adjust_creative=oncXGL2aPIKrtJdnWeFSnA&utm_campaign=yelp_api_v3&utm_medium=api_v3_business_search&utm_source=oncXGL2aPIKrtJdnWeFSnA", "review_count": 234, "categories": [{"alias": "cajun", "title": "Cajun/Creole"}, {"alias": "seafood", "title": "Seafood"}], "rating": 4.0, "coordinates": {"latitude": 32.76052, "longitude": -117.068}, "transactions": [], "price": "$$", "location": {"address1": "6011 El Cajon Blvd", "address2": "", "address3": "", "city": "San Diego", "zip_code": "92115", "country": "US", "state": "CA", "display_address": ["6011 El Cajon Blvd", "San Diego, CA 92115"]}, "phone": "+16192296679", "display_phone": "(619) 229-6679", "distance": 43477.94444517199}, {"id": "mksjCa01tDaxzHwc6jtHrA", "alias": "iva-lees-san-clemente", "name": "Iva Lee's", "image_url": "https://s3-media4.fl.yelpcdn.com/bphoto/TyYkkLKjVYYHxDwfMRSO7w/o.jpg", "is_closed": false, "url": "https://www.yelp.com/biz/iva-lees-san-clemente?adjust_creative=oncXGL2aPIKrtJdnWeFSnA&utm_campaign=yelp_api_v3&utm_medium=api_v3_business_search&utm_source=oncXGL2aPIKrtJdnWeFSnA", "review_count": 310, "categories": [{"alias": "southern", "title": "Southern"}, {"alias": "cajun", "title": "Cajun/Creole"}, {"alias": "cocktailbars", "title": "Cocktail Bars"}], "rating": 4.0, "coordinates": {"latitude": 33.4300455, "longitude": -117.6164766}, "transactions": [], "price": "$$", "location": {"address1": "555 North El Camino Real", "address2": "Ste E", "address3": "", "city": "San Clemente", "zip_code": "92672", "country": "US", "state": "CA", "display_address": ["555 North El Camino Real", "Ste E", "San Clemente, CA 92672"]}, "phone": "+19493612855", "display_phone": "(949) 361-2855", "distance": 52219.65331262855}, {"id": "Ug4yQyHbijnIhoYIwSwx2A", "alias": "the-fish-hut-hemet", "name": "The Fish Hut", "image_url": "https://s3-media2.fl.yelpcdn.com/bphoto/crlAD1of7iS94FvKxRoINg/o.jpg", "is_closed": false, "url": "https://www.yelp.com/biz/the-fish-hut-hemet?adjust_creative=oncXGL2aPIKrtJdnWeFSnA&utm_campaign=yelp_api_v3&utm_medium=api_v3_business_search&utm_source=oncXGL2aPIKrtJdnWeFSnA", "review_count": 77, "categories": [{"alias": "seafood", "title": "Seafood"}, {"alias": "soulfood", "title": "Soul Food"}, {"alias": "cajun", "title": "Cajun/Creole"}], "rating": 4.0, "coordinates": {"latitude": 33.7473365, "longitude": -116.9822809}, "transactions": [], "price": "$", "location": {"address1": "1027 W Florida Ave", "address2": "", "address3": "", "city": "Hemet", "zip_code": "92543", "country": "US", "state": "CA", "display_address": ["1027 W Florida Ave", "Hemet, CA 92543"]}, "phone": "+19519251888", "display_phone": "(951) 925-1888", "distance": 69649.87682562404}, {"id": "jCYH7UWB1qIUKOncuE9k7g", "alias": "smittys-taste-of-the-bayou-chula-vista-3", "name": "Smitty's Taste Of The Bayou", "image_url": "https://s3-media2.fl.yelpcdn.com/bphoto/Gbg75ksoC5gQaLrxcp4AwA/o.jpg", "is_closed": false, "url": "https://www.yelp.com/biz/smittys-taste-of-the-bayou-chula-vista-3?adjust_creative=oncXGL2aPIKrtJdnWeFSnA&utm_campaign=yelp_api_v3&utm_medium=api_v3_business_search&utm_source=oncXGL2aPIKrtJdnWeFSnA", "review_count": 179, "categories": [{"alias": "cajun", "title": "Cajun/Creole"}, {"alias": "bbq", "title": "Barbeque"}], "rating": 4.5, "coordinates": {"latitude": 32.6519952215209, "longitude": -116.96102016626}, "transactions": ["delivery", "pickup"], "price": "$$", "location": {"address1": "901 Lane Ave", "address2": null, "address3": "Novo Brazil Brewing", "city": "Chula Vista", "zip_code": "91914", "country": "US", "state": "CA", "display_address": ["901 Lane Ave", "Novo Brazil Brewing", "Chula Vista, CA 91914"]}, "phone": "+16198312318", "display_phone": "(619) 831-2318", "distance": 57930.23998568068}, {"id": "RGIYPzlhMHXOZz4xSuj0Jw", "alias": "angry-crocodile-food-truck-san-diego", "name": "Angry Crocodile Food Truck", "image_url": "https://s3-media1.fl.yelpcdn.com/bphoto/x91f8CH8VEcN7t5mEH8woQ/o.jpg", "is_closed": false, "url": "https://www.yelp.com/biz/angry-crocodile-food-truck-san-diego?adjust_creative=oncXGL2aPIKrtJdnWeFSnA&utm_campaign=yelp_api_v3&utm_medium=api_v3_business_search&utm_source=oncXGL2aPIKrtJdnWeFSnA", "review_count": 3, "categories": [{"alias": "foodtrucks", "title": "Food Trucks"}, {"alias": "cajun", "title": "Cajun/Creole"}, {"alias": "catering", "title": "Caterers"}], "rating": 3.0, "coordinates": {"latitude": 32.7713899, "longitude": -117.15695}, "transactions": [], "location": {"address1": "7676 Hazard Center Dr", "address2": "Ste 1500", "address3": null, "city": "San Diego", "zip_code": "92108", "country": "US", "state": "CA", "display_address": ["7676 Hazard Center Dr", "Ste 1500", "San Diego, CA 92108"]}, "phone": "+18584562703", "display_phone": "(858) 456-2703", "distance": 41200.39510099864}, {"id": "uJx6k-NFAzDLflhxfU5CFQ", "alias": "nekko-sushi-and-cuisine-lake-elsinore-2", "name": "Nekko Sushi & Cuisine", "image_url": "https://s3-media2.fl.yelpcdn.com/bphoto/wO-qZtOKK6iB59x4m6N8Bg/o.jpg", "is_closed": false, "url": "https://www.yelp.com/biz/nekko-sushi-and-cuisine-lake-elsinore-2?adjust_creative=oncXGL2aPIKrtJdnWeFSnA&utm_campaign=yelp_api_v3&utm_medium=api_v3_business_search&utm_source=oncXGL2aPIKrtJdnWeFSnA", "review_count": 148, "categories": [{"alias": "sushi", "title": "Sushi Bars"}, {"alias": "japanese", "title": "Japanese"}, {"alias": "cajun", "title": "Cajun/Creole"}], "rating": 4.0, "coordinates": {"latitude": 33.65518, "longitude": -117.29789}, "transactions": [], "price": "$$", "location": {"address1": "32251 Mission Trl", "address2": "Ste G6", "address3": "", "city": "Lake Elsinore", "zip_code": "92530", "country": "US", "state": "CA", "display_address": ["32251 Mission Trl", "Ste G6", "Lake Elsinore, CA 92530"]}, "phone": "+19516745055", "display_phone": "(951) 674-5055", "distance": 58271.548234384405}, {"id": "hg-UdrWP1iqk_yltjgaujQ", "alias": "bayou-bar-and-grill-san-diego-2", "name": "Bayou Bar and Grill", "image_url": "", "is_closed": false, "url": "https://www.yelp.com/biz/bayou-bar-and-grill-san-diego-2?adjust_creative=oncXGL2aPIKrtJdnWeFSnA&utm_campaign=yelp_api_v3&utm_medium=api_v3_business_search&utm_source=oncXGL2aPIKrtJdnWeFSnA", "review_count": 2, "categories": [{"alias": "bars", "title": "Bars"}, {"alias": "cajun", "title": "Cajun/Creole"}], "rating": 4.5, "coordinates": {"latitude": 32.7112808, "longitude": -117.1613235}, "transactions": [], "location": {"address1": "329 Market St", "address2": "", "address3": "", "city": "San Diego", "zip_code": "92101", "country": "US", "state": "CA", "display_address": ["329 Market St", "San Diego, CA 92101"]}, "phone": "+16196968747", "display_phone": "(619) 696-8747", "distance": 47844.14831550267}, {"id": "fYJ03f1GdORHqsqNBI4Uiw", "alias": "roux-creole-cuisine-laguna-beach", "name": "Roux Creole Cuisine", "image_url": "https://s3-media2.fl.yelpcdn.com/bphoto/qDVasNZw4YoOyv2XobRYiw/o.jpg", "is_closed": false, "url": "https://www.yelp.com/biz/roux-creole-cuisine-laguna-beach?adjust_creative=oncXGL2aPIKrtJdnWeFSnA&utm_campaign=yelp_api_v3&utm_medium=api_v3_business_search&utm_source=oncXGL2aPIKrtJdnWeFSnA", "review_count": 130, "categories": [{"alias": "cajun", "title": "Cajun/Creole"}, {"alias": "seafood", "title": "Seafood"}, {"alias": "french", "title": "French"}], "rating": 5.0, "coordinates": {"latitude": 33.5369699, "longitude": -117.77734}, "transactions": [], "price": "$$", "location": {"address1": "860 Glenneyre St", "address2": "", "address3": null, "city": "Laguna Beach", "zip_code": "92651", "country": "US", "state": "CA", "display_address": ["860 Glenneyre St", "Laguna Beach, CA 92651"]}, "phone": "+19497153707", "display_phone": "(949) 715-3707", "distance": 71293.01940399526}, {"id": "Fh-nPs4RMv_-t1utA8BCyw", "alias": "pearsons-louisiana-cajun-san-diego", "name": "Pearson's Louisiana Cajun", "image_url": "https://s3-media4.fl.yelpcdn.com/bphoto/P5UHZVDZOOlzTYlqynpaCg/o.jpg", "is_closed": false, "url": "https://www.yelp.com/biz/pearsons-louisiana-cajun-san-diego?adjust_creative=oncXGL2aPIKrtJdnWeFSnA&utm_campaign=yelp_api_v3&utm_medium=api_v3_business_search&utm_source=oncXGL2aPIKrtJdnWeFSnA", "review_count": 23, "categories": [{"alias": "cajun", "title": "Cajun/Creole"}, {"alias": "foodtrucks", "title": "Food Trucks"}], "rating": 2.0, "coordinates": {"latitude": 32.9155617908913, "longitude": -117.146474417261}, "transactions": [], "price": "$$", "location": {"address1": "", "address2": "", "address3": "", "city": "San Diego", "zip_code": "", "country": "US", "state": "CA", "display_address": ["San Diego, CA"]}, "phone": "+19515525005", "display_phone": "(951) 552-5005", "distance": 25251.11161651345}, {"id": "1B07P84MbYs3uVXKQ0vsRg", "alias": "la-crab-irvine-5", "name": "La Crab", "image_url": "https://s3-media1.fl.yelpcdn.com/bphoto/IEwFBtH-T9sr9OWAVCSQQQ/o.jpg", "is_closed": false, "url": "https://www.yelp.com/biz/la-crab-irvine-5?adjust_creative=oncXGL2aPIKrtJdnWeFSnA&utm_campaign=yelp_api_v3&utm_medium=api_v3_business_search&utm_source=oncXGL2aPIKrtJdnWeFSnA", "review_count": 10, "categories": [{"alias": "cajun", "title": "Cajun/Creole"}, {"alias": "seafood", "title": "Seafood"}], "rating": 5.0, "coordinates": {"latitude": 33.71223, "longitude": -117.76073}, "transactions": [], "location": {"address1": "4800 Irvine Blvd", "address2": null, "address3": "", "city": "Irvine", "zip_code": "92620", "country": "US", "state": "CA", "display_address": ["4800 Irvine Blvd", "Irvine, CA 92620"]}, "phone": "+17143897777", "display_phone": "(714) 389-7777", "distance": 83655.64690305217}, {"id": "e0tGOqzd9IMeqtCXNt20xw", "alias": "new-orleans-cuisine-and-catering-san-diego-2", "name": "New Orleans Cuisine & Catering", "image_url": "https://s3-media2.fl.yelpcdn.com/bphoto/w3xBJnLrPzNqmpAjvQXtLg/o.jpg", "is_closed": false, "url": "https://www.yelp.com/biz/new-orleans-cuisine-and-catering-san-diego-2?adjust_creative=oncXGL2aPIKrtJdnWeFSnA&utm_campaign=yelp_api_v3&utm_medium=api_v3_business_search&utm_source=oncXGL2aPIKrtJdnWeFSnA", "review_count": 185, "categories": [{"alias": "foodtrucks", "title": "Food Trucks"}, {"alias": "cajun", "title": "Cajun/Creole"}, {"alias": "tacos", "title": "Tacos"}], "rating": 4.0, "coordinates": {"latitude": 32.7176361083984, "longitude": -117.162132263184}, "transactions": [], "price": "$$", "location": {"address1": "", "address2": "", "address3": "", "city": "San diego", "zip_code": "92101", "country": "US", "state": "CA", "display_address": ["San diego, CA 92101"]}, "phone": "+18583367418", "display_phone": "(858) 336-7418", "distance": 46104.63899396342}, {"id": "0Je3o0o5eiO6OOX2DhPBeQ", "alias": "voodoo-stus-tijuana", "name": "Voodoo Stu's", "image_url": "https://s3-media3.fl.yelpcdn.com/bphoto/zQyuzzJdvRmwuVecWmvWiw/o.jpg", "is_closed": false, "url": "https://www.yelp.com/biz/voodoo-stus-tijuana?adjust_creative=oncXGL2aPIKrtJdnWeFSnA&utm_campaign=yelp_api_v3&utm_medium=api_v3_business_search&utm_source=oncXGL2aPIKrtJdnWeFSnA", "review_count": 2, "categories": [{"alias": "cajun", "title": "Cajun/Creole"}], "rating": 4.5, "coordinates": {"latitude": 32.533745, "longitude": -117.037641}, "transactions": [], "location": {"address1": "Av. Constituci\u00f3n S/N", "address2": "Col. Centro", "address3": "", "city": "Tijuana", "zip_code": "22000", "country": "MX", "state": "BCN", "display_address": ["Av. Constituci\u00f3n S/N", "Col. Centro", "22000 Tijuana, Baja California", "Mexico"]}, "phone": "", "display_phone": "", "distance": 68761.22552116188}, {"id": "dKRRBQQrBfUO6KUmXwOpQQ", "alias": "caribbean-pleasures-bonita", "name": "Caribbean Pleasures", "image_url": "https://s3-media3.fl.yelpcdn.com/bphoto/fVvltdJlqSKpTYMHEwMoxw/o.jpg", "is_closed": false, "url": "https://www.yelp.com/biz/caribbean-pleasures-bonita?adjust_creative=oncXGL2aPIKrtJdnWeFSnA&utm_campaign=yelp_api_v3&utm_medium=api_v3_business_search&utm_source=oncXGL2aPIKrtJdnWeFSnA", "review_count": 88, "categories": [{"alias": "cajun", "title": "Cajun/Creole"}, {"alias": "haitian", "title": "Haitian"}, {"alias": "bars", "title": "Bars"}], "rating": 3.0, "coordinates": {"latitude": 32.65806, "longitude": -117.0401}, "transactions": [], "price": "$$", "location": {"address1": "4014 Bonita Rd", "address2": null, "address3": "", "city": "Bonita", "zip_code": "91902", "country": "US", "state": "CA", "display_address": ["4014 Bonita Rd", "Bonita, CA 91902"]}, "phone": "+16194349252", "display_phone": "(619) 434-9252", "distance": 55182.49190097595}, {"id": "MUtzxRCLtkaY5EVlSr7xFw", "alias": "the-bucket-crab-and-crawfish-corona-2", "name": "The Bucket Crab & Crawfish", "image_url": "https://s3-media3.fl.yelpcdn.com/bphoto/zfLc7nLehT6en2qacdTffQ/o.jpg", "is_closed": false, "url": "https://www.yelp.com/biz/the-bucket-crab-and-crawfish-corona-2?adjust_creative=oncXGL2aPIKrtJdnWeFSnA&utm_campaign=yelp_api_v3&utm_medium=api_v3_business_search&utm_source=oncXGL2aPIKrtJdnWeFSnA", "review_count": 248, "categories": [{"alias": "seafood", "title": "Seafood"}, {"alias": "cajun", "title": "Cajun/Creole"}], "rating": 3.5, "coordinates": {"latitude": 33.822272, "longitude": -117.522261}, "transactions": [], "price": "$$", "location": {"address1": "2279 Eagle Glen Pkwy", "address2": "", "address3": "Ste D 101", "city": "Corona", "zip_code": "92883", "country": "US", "state": "CA", "display_address": ["2279 Eagle Glen Pkwy", "Ste D 101", "Corona, CA 92883"]}, "phone": "+19515499700", "display_phone": "(951) 549-9700", "distance": 82346.47322197728}, {"id": "q7HDZ_et7352pRtU5Ii_Bw", "alias": "kettlebar-steam-cooking-tustin", "name": "Kettlebar Steam Cooking", "image_url": "https://s3-media2.fl.yelpcdn.com/bphoto/cR2lLP2Il32IXAkg4U-mIA/o.jpg", "is_closed": false, "url": "https://www.yelp.com/biz/kettlebar-steam-cooking-tustin?adjust_creative=oncXGL2aPIKrtJdnWeFSnA&utm_campaign=yelp_api_v3&utm_medium=api_v3_business_search&utm_source=oncXGL2aPIKrtJdnWeFSnA", "review_count": 613, "categories": [{"alias": "bars", "title": "Bars"}, {"alias": "cajun", "title": "Cajun/Creole"}, {"alias": "seafood", "title": "Seafood"}], "rating": 4.0, "coordinates": {"latitude": 33.6979244135154, "longitude": -117.827610385803}, "transactions": [], "price": "$$", "location": {"address1": "2493 Park Ave", "address2": "Ste 41", "address3": "", "city": "Tustin", "zip_code": "92782", "country": "US", "state": "CA", "display_address": ["2493 Park Ave", "Ste 41", "Tustin, CA 92782"]}, "phone": "+17142588160", "display_phone": "(714) 258-8160", "distance": 86689.81664844089}, {"id": "3Ddf_vVI4DvBa3X-BQN53A", "alias": "campus-jax-newport-beach", "name": "Campus JAX", "image_url": "https://s3-media3.fl.yelpcdn.com/bphoto/DSNQMCUKqDGfPv_pxRldPA/o.jpg", "is_closed": false, "url": "https://www.yelp.com/biz/campus-jax-newport-beach?adjust_creative=oncXGL2aPIKrtJdnWeFSnA&utm_campaign=yelp_api_v3&utm_medium=api_v3_business_search&utm_source=oncXGL2aPIKrtJdnWeFSnA", "review_count": 204, "categories": [{"alias": "bars", "title": "Bars"}, {"alias": "cajun", "title": "Cajun/Creole"}, {"alias": "musicvenues", "title": "Music Venues"}], "rating": 4.5, "coordinates": {"latitude": 33.664983701676, "longitude": -117.871841040907}, "transactions": ["pickup"], "price": "$$", "location": {"address1": "3950 Campus Dr", "address2": "", "address3": "", "city": "Newport Beach", "zip_code": "92660", "country": "US", "state": "CA", "display_address": ["3950 Campus Dr", "Newport Beach, CA 92660"]}, "phone": "+19492616270", "display_phone": "(949) 261-6270", "distance": 87133.91407569783}, {"id": "cj0fQaVy6Ua2EJgbpEjh4A", "alias": "the-kickin-crab-irvine-2", "name": "The Kickin' Crab", "image_url": "https://s3-media3.fl.yelpcdn.com/bphoto/7iuXDGNhdX7XjQBa5SSu4A/o.jpg", "is_closed": false, "url": "https://www.yelp.com/biz/the-kickin-crab-irvine-2?adjust_creative=oncXGL2aPIKrtJdnWeFSnA&utm_campaign=yelp_api_v3&utm_medium=api_v3_business_search&utm_source=oncXGL2aPIKrtJdnWeFSnA", "review_count": 831, "categories": [{"alias": "cajun", "title": "Cajun/Creole"}, {"alias": "seafood", "title": "Seafood"}], "rating": 3.5, "coordinates": {"latitude": 33.6885217828545, "longitude": -117.832746842142}, "transactions": [], "price": "$$", "location": {"address1": "2740 Alton Pkwy", "address2": "", "address3": "Diamond Jamboree Center", "city": "Irvine", "zip_code": "92606", "country": "US", "state": "CA", "display_address": ["2740 Alton Pkwy", "Diamond Jamboree Center", "Irvine, CA 92606"]}, "phone": "+19498518889", "display_phone": "(949) 851-8889", "distance": 86286.61478076276}, {"id": "m2YZXJSghrzckdNPz5mmaA", "alias": "ritters-steam-kettle-cooking-santa-ana", "name": "Ritter's Steam Kettle Cooking", "image_url": "https://s3-media2.fl.yelpcdn.com/bphoto/-moWa214a9qPopOWrdGZAw/o.jpg", "is_closed": false, "url": "https://www.yelp.com/biz/ritters-steam-kettle-cooking-santa-ana?adjust_creative=oncXGL2aPIKrtJdnWeFSnA&utm_campaign=yelp_api_v3&utm_medium=api_v3_business_search&utm_source=oncXGL2aPIKrtJdnWeFSnA", "review_count": 2294, "categories": [{"alias": "cajun", "title": "Cajun/Creole"}, {"alias": "seafood", "title": "Seafood"}, {"alias": "soulfood", "title": "Soul Food"}], "rating": 4.0, "coordinates": {"latitude": 33.7004579124968, "longitude": -117.887710465881}, "transactions": ["delivery", "pickup"], "price": "$$", "location": {"address1": "1421 W MacArthur Blvd", "address2": "Ste G", "address3": "", "city": "Santa Ana", "zip_code": "92704", "country": "US", "state": "CA", "display_address": ["1421 W MacArthur Blvd", "Ste G", "Santa Ana, CA 92704"]}, "phone": "+17148501380", "display_phone": "(714) 850-1380", "distance": 90876.09316976595}, {"id": "HfhceZnP4BZ0Mrn-lFyPjQ", "alias": "the-kickin-crab-santa-ana", "name": "The Kickin Crab", "image_url": "https://s3-media2.fl.yelpcdn.com/bphoto/DGQsNLF_m8kSui2qtACtIg/o.jpg", "is_closed": false, "url": "https://www.yelp.com/biz/the-kickin-crab-santa-ana?adjust_creative=oncXGL2aPIKrtJdnWeFSnA&utm_campaign=yelp_api_v3&utm_medium=api_v3_business_search&utm_source=oncXGL2aPIKrtJdnWeFSnA", "review_count": 847, "categories": [{"alias": "cajun", "title": "Cajun/Creole"}, {"alias": "seafood", "title": "Seafood"}], "rating": 4.0, "coordinates": {"latitude": 33.698993354007, "longitude": -117.88487223924}, "transactions": [], "price": "$$", "location": {"address1": "3611 S Bristol St", "address2": "Ste C", "address3": "", "city": "Santa Ana", "zip_code": "92704", "country": "US", "state": "CA", "display_address": ["3611 S Bristol St", "Ste C", "Santa Ana, CA 92704"]}, "phone": "+17147548888", "display_phone": "(714) 754-8888", "distance": 90572.97232594028}, {"id": "1dJjV_e8X89BYRcHtX7BKg", "alias": "the-boiling-crab-santa-ana", "name": "The Boiling Crab", "image_url": "https://s3-media3.fl.yelpcdn.com/bphoto/xa84pLsgigv50gOVH4RDJg/o.jpg", "is_closed": false, "url": "https://www.yelp.com/biz/the-boiling-crab-santa-ana?adjust_creative=oncXGL2aPIKrtJdnWeFSnA&utm_campaign=yelp_api_v3&utm_medium=api_v3_business_search&utm_source=oncXGL2aPIKrtJdnWeFSnA", "review_count": 953, "categories": [{"alias": "seafood", "title": "Seafood"}, {"alias": "newamerican", "title": "American (New)"}, {"alias": "cajun", "title": "Cajun/Creole"}], "rating": 4.0, "coordinates": {"latitude": 33.699671, "longitude": -117.888417}, "transactions": [], "price": "$$", "location": {"address1": "1500 W Macarthur Blvd", "address2": "", "address3": "", "city": "Santa Ana", "zip_code": "92704", "country": "US", "state": "CA", "display_address": ["1500 W Macarthur Blvd", "Santa Ana, CA 92704"]}, "phone": "+17149792722", "display_phone": "(714) 979-2722", "distance": 90864.37773994057}, {"id": "3SZfyc9Nd3t6vYCkDiQ3rQ", "alias": "the-kickin-crab-costa-mesa", "name": "The Kickin' Crab", "image_url": "https://s3-media3.fl.yelpcdn.com/bphoto/Zu0AvtaZYVO8L8PR9PwrZA/o.jpg", "is_closed": false, "url": "https://www.yelp.com/biz/the-kickin-crab-costa-mesa?adjust_creative=oncXGL2aPIKrtJdnWeFSnA&utm_campaign=yelp_api_v3&utm_medium=api_v3_business_search&utm_source=oncXGL2aPIKrtJdnWeFSnA", "review_count": 260, "categories": [{"alias": "cajun", "title": "Cajun/Creole"}, {"alias": "seafood", "title": "Seafood"}], "rating": 3.5, "coordinates": {"latitude": 33.67375, "longitude": -117.92094}, "transactions": [], "price": "$$", "location": {"address1": "1534 Adams Ave", "address2": "Ste D", "address3": "", "city": "Costa Mesa", "zip_code": "92626", "country": "US", "state": "CA", "display_address": ["1534 Adams Ave", "Ste D", "Costa Mesa, CA 92626"]}, "phone": "+17147604909", "display_phone": "(714) 760-4909", "distance": 91203.40205416316}, {"id": "xDvhRU5Cg1VVEqu2l3H2UQ", "alias": "hot-n-juicy-crawfish-fountain-valley", "name": "Hot N Juicy Crawfish", "image_url": "https://s3-media1.fl.yelpcdn.com/bphoto/-zKMOPUFJpQvzj41HcUrfQ/o.jpg", "is_closed": false, "url": "https://www.yelp.com/biz/hot-n-juicy-crawfish-fountain-valley?adjust_creative=oncXGL2aPIKrtJdnWeFSnA&utm_campaign=yelp_api_v3&utm_medium=api_v3_business_search&utm_source=oncXGL2aPIKrtJdnWeFSnA", "review_count": 496, "categories": [{"alias": "cajun", "title": "Cajun/Creole"}, {"alias": "seafood", "title": "Seafood"}], "rating": 4.0, "coordinates": {"latitude": 33.73128, "longitude": -117.93685}, "transactions": [], "price": "$$", "location": {"address1": "15972 Euclid St", "address2": "Ste D", "address3": "", "city": "Fountain Valley", "zip_code": "92704", "country": "US", "state": "CA", "display_address": ["15972 Euclid St", "Ste D", "Fountain Valley, CA 92704"]}, "phone": "+17147754465", "display_phone": "(714) 775-4465", "distance": 96540.17688737508}, {"id": "QGww9oHLXE7XulDDpxe63g", "alias": "the-boiling-crab-garden-grove", "name": "The Boiling Crab", "image_url": "https://s3-media1.fl.yelpcdn.com/bphoto/Q8VwfTNQGIxqilDhijbgvg/o.jpg", "is_closed": false, "url": "https://www.yelp.com/biz/the-boiling-crab-garden-grove?adjust_creative=oncXGL2aPIKrtJdnWeFSnA&utm_campaign=yelp_api_v3&utm_medium=api_v3_business_search&utm_source=oncXGL2aPIKrtJdnWeFSnA", "review_count": 1030, "categories": [{"alias": "cajun", "title": "Cajun/Creole"}, {"alias": "seafood", "title": "Seafood"}], "rating": 4.0, "coordinates": {"latitude": 33.7557798556071, "longitude": -117.938328981399}, "transactions": [], "price": "$$", "location": {"address1": "14241 Euclid St", "address2": "Ste C116", "address3": "", "city": "Garden Grove", "zip_code": "92842", "country": "US", "state": "CA", "display_address": ["14241 Euclid St", "Ste C116", "Garden Grove, CA 92842"]}, "phone": "+17142652722", "display_phone": "(714) 265-2722", "distance": 98502.3119373697}, {"id": "YBX8FKZ91rKww8_Xj4TTFg", "alias": "cajun-islands-westminster-3", "name": "Cajun Islands", "image_url": "https://s3-media3.fl.yelpcdn.com/bphoto/bxqNtYMrEwl1ucP7n1Br6w/o.jpg", "is_closed": false, "url": "https://www.yelp.com/biz/cajun-islands-westminster-3?adjust_creative=oncXGL2aPIKrtJdnWeFSnA&utm_campaign=yelp_api_v3&utm_medium=api_v3_business_search&utm_source=oncXGL2aPIKrtJdnWeFSnA", "review_count": 489, "categories": [{"alias": "cajun", "title": "Cajun/Creole"}, {"alias": "seafood", "title": "Seafood"}, {"alias": "asianfusion", "title": "Asian Fusion"}], "rating": 3.5, "coordinates": {"latitude": 33.7381667, "longitude": -117.9546349}, "transactions": ["delivery", "pickup"], "price": "$$", "location": {"address1": "15430 Brookhurst St", "address2": "", "address3": "", "city": "Westminster", "zip_code": "92683", "country": "US", "state": "CA", "display_address": ["15430 Brookhurst St", "Westminster, CA 92683"]}, "phone": "+17147757435", "display_phone": "(714) 775-7435", "distance": 98270.63922916379}, {"id": "rf3AKd4sJuIXWa6fl01_mQ", "alias": "the-wharf-garden-grove", "name": "The Wharf", "image_url": "https://s3-media3.fl.yelpcdn.com/bphoto/w71KpUGD0nQHsK-vqQ5fGQ/o.jpg", "is_closed": false, "url": "https://www.yelp.com/biz/the-wharf-garden-grove?adjust_creative=oncXGL2aPIKrtJdnWeFSnA&utm_campaign=yelp_api_v3&utm_medium=api_v3_business_search&utm_source=oncXGL2aPIKrtJdnWeFSnA", "review_count": 308, "categories": [{"alias": "cajun", "title": "Cajun/Creole"}, {"alias": "seafood", "title": "Seafood"}, {"alias": "asianfusion", "title": "Asian Fusion"}], "rating": 4.0, "coordinates": {"latitude": 33.774749112505, "longitude": -117.941311284653}, "transactions": ["pickup"], "price": "$$", "location": {"address1": "12941 Main St", "address2": null, "address3": "", "city": "Garden Grove", "zip_code": "92840", "country": "US", "state": "CA", "display_address": ["12941 Main St", "Garden Grove, CA 92840"]}, "phone": "+17145301388", "display_phone": "(714) 530-1388", "distance": 100167.47335721676}, {"id": "dc0ozqU8UsWJ3ZodmU0XZA", "alias": "oc-cajun-food-and-music-celebration-fountain-valley", "name": "OC Cajun Food & Music Celebration", "image_url": "https://s3-media2.fl.yelpcdn.com/bphoto/OikddYgNJcjGRm0EzhO8pg/o.jpg", "is_closed": false, "url": "https://www.yelp.com/biz/oc-cajun-food-and-music-celebration-fountain-valley?adjust_creative=oncXGL2aPIKrtJdnWeFSnA&utm_campaign=yelp_api_v3&utm_medium=api_v3_business_search&utm_source=oncXGL2aPIKrtJdnWeFSnA", "review_count": 2, "categories": [{"alias": "festivals", "title": "Festivals"}, {"alias": "cajun", "title": "Cajun/Creole"}], "rating": 3.5, "coordinates": {"latitude": 33.725875, "longitude": -117.9543951}, "transactions": [], "price": "$$$", "location": {"address1": "16400 Brookhurst St", "address2": "", "address3": null, "city": "Fountain Valley", "zip_code": "92708", "country": "US", "state": "CA", "display_address": ["16400 Brookhurst St", "Fountain Valley, CA 92708"]}, "phone": "", "display_phone": "", "distance": 97219.1085509233}, {"id": "S6iIaSn0d5GveETTtBZmXA", "alias": "submarine-crab-garden-grove", "name": "Submarine Crab", "image_url": "https://s3-media3.fl.yelpcdn.com/bphoto/1hM1UXZUoGbKPx5oAdo27Q/o.jpg", "is_closed": false, "url": "https://www.yelp.com/biz/submarine-crab-garden-grove?adjust_creative=oncXGL2aPIKrtJdnWeFSnA&utm_campaign=yelp_api_v3&utm_medium=api_v3_business_search&utm_source=oncXGL2aPIKrtJdnWeFSnA", "review_count": 763, "categories": [{"alias": "cajun", "title": "Cajun/Creole"}, {"alias": "seafood", "title": "Seafood"}], "rating": 4.5, "coordinates": {"latitude": 33.773258, "longitude": -117.956507}, "transactions": [], "price": "$$", "location": {"address1": "10130 Garden Grove Blvd", "address2": "Ste 129", "address3": "", "city": "Garden Grove", "zip_code": "92844", "country": "US", "state": "CA", "display_address": ["10130 Garden Grove Blvd", "Ste 129", "Garden Grove, CA 92844"]}, "phone": "+17145349888", "display_phone": "(714) 534-9888", "distance": 101060.09915253875}, {"id": "dk83GvJEfie_NFmYvDsNWQ", "alias": "cafe-artist-restaurant-garden-grove", "name": "Cafe Artist Restaurant", "image_url": "https://s3-media2.fl.yelpcdn.com/bphoto/qTNnbjqbWRB6Di_meJx9iw/o.jpg", "is_closed": false, "url": "https://www.yelp.com/biz/cafe-artist-restaurant-garden-grove?adjust_creative=oncXGL2aPIKrtJdnWeFSnA&utm_campaign=yelp_api_v3&utm_medium=api_v3_business_search&utm_source=oncXGL2aPIKrtJdnWeFSnA", "review_count": 242, "categories": [{"alias": "seafood", "title": "Seafood"}, {"alias": "cajun", "title": "Cajun/Creole"}], "rating": 4.0, "coordinates": {"latitude": 33.75505, "longitude": -117.95537}, "transactions": [], "price": "$$", "location": {"address1": "14281 Brookhurst St", "address2": "", "address3": "", "city": "Garden Grove", "zip_code": "92843", "country": "US", "state": "CA", "display_address": ["14281 Brookhurst St", "Garden Grove, CA 92843"]}, "phone": "+17148392200", "display_phone": "(714) 839-2200", "distance": 99587.7335294576}, {"id": "7K2-H8JZf5QEHTFSxpYF1Q", "alias": "blue-bayou-restaurant-anaheim-3", "name": "Blue Bayou Restaurant", "image_url": "https://s3-media4.fl.yelpcdn.com/bphoto/qo_f8tAa5iuGcvwWhv7VDQ/o.jpg", "is_closed": false, "url": "https://www.yelp.com/biz/blue-bayou-restaurant-anaheim-3?adjust_creative=oncXGL2aPIKrtJdnWeFSnA&utm_campaign=yelp_api_v3&utm_medium=api_v3_business_search&utm_source=oncXGL2aPIKrtJdnWeFSnA", "review_count": 3163, "categories": [{"alias": "cajun", "title": "Cajun/Creole"}, {"alias": "tradamerican", "title": "American (Traditional)"}], "rating": 4.0, "coordinates": {"latitude": 33.8109846857641, "longitude": -117.921163944775}, "transactions": [], "price": "$$$", "location": {"address1": "1313 S Harbor Blvd", "address2": "", "address3": "", "city": "Anaheim", "zip_code": "92802", "country": "US", "state": "CA", "display_address": ["1313 S Harbor Blvd", "Anaheim, CA 92802"]}, "phone": "+17147813463", "display_phone": "(714) 781-3463", "distance": 101746.27324571938}, {"id": "8LGT_iTo68PFiPTEYlHiNg", "alias": "the-kickin-crab-westminster", "name": "The Kickin' Crab", "image_url": "https://s3-media4.fl.yelpcdn.com/bphoto/fiEMdiFKpaoCZZasZ8KZuA/o.jpg", "is_closed": false, "url": "https://www.yelp.com/biz/the-kickin-crab-westminster?adjust_creative=oncXGL2aPIKrtJdnWeFSnA&utm_campaign=yelp_api_v3&utm_medium=api_v3_business_search&utm_source=oncXGL2aPIKrtJdnWeFSnA", "review_count": 503, "categories": [{"alias": "cajun", "title": "Cajun/Creole"}, {"alias": "seafood", "title": "Seafood"}], "rating": 3.5, "coordinates": {"latitude": 33.73793, "longitude": -117.97174}, "transactions": [], "price": "$$", "location": {"address1": "15496 Magnolia St", "address2": "Ste 101", "address3": "", "city": "Westminster", "zip_code": "92683", "country": "US", "state": "CA", "display_address": ["15496 Magnolia St", "Ste 101", "Westminster, CA 92683"]}, "phone": "+17148929888", "display_phone": "(714) 892-9888", "distance": 99434.31698364475}, {"id": "gq_QfmZXY4imEGPY5BmO6g", "alias": "ralph-brennans-jazz-kitchen-anaheim", "name": "Ralph Brennan's Jazz Kitchen", "image_url": "https://s3-media2.fl.yelpcdn.com/bphoto/TVew1OpG71p_uVsVi0Bh4Q/o.jpg", "is_closed": false, "url": "https://www.yelp.com/biz/ralph-brennans-jazz-kitchen-anaheim?adjust_creative=oncXGL2aPIKrtJdnWeFSnA&utm_campaign=yelp_api_v3&utm_medium=api_v3_business_search&utm_source=oncXGL2aPIKrtJdnWeFSnA", "review_count": 2287, "categories": [{"alias": "newamerican", "title": "American (New)"}, {"alias": "cajun", "title": "Cajun/Creole"}], "rating": 3.5, "coordinates": {"latitude": 33.8090064231233, "longitude": -117.923667879127}, "transactions": [], "price": "$$", "location": {"address1": "1590 S Disneyland Dr", "address2": "", "address3": "Downtown Disney District", "city": "Anaheim", "zip_code": "92802", "country": "US", "state": "CA", "display_address": ["1590 S Disneyland Dr", "Downtown Disney District", "Anaheim, CA 92802"]}, "phone": "+17147765200", "display_phone": "(714) 776-5200", "distance": 101744.70385458683}, {"id": "caiviKNSWYCkY9dirjYJNw", "alias": "the-crawfish-house-garden-grove", "name": "The Crawfish House", "image_url": "https://s3-media3.fl.yelpcdn.com/bphoto/ojZi6M41Q1SbnQ-btlbpTQ/o.jpg", "is_closed": false, "url": "https://www.yelp.com/biz/the-crawfish-house-garden-grove?adjust_creative=oncXGL2aPIKrtJdnWeFSnA&utm_campaign=yelp_api_v3&utm_medium=api_v3_business_search&utm_source=oncXGL2aPIKrtJdnWeFSnA", "review_count": 334, "categories": [{"alias": "cajun", "title": "Cajun/Creole"}, {"alias": "seafood", "title": "Seafood"}], "rating": 3.5, "coordinates": {"latitude": 33.75921, "longitude": -117.95303}, "transactions": [], "price": "$$", "location": {"address1": "10112 Westminster Ave", "address2": null, "address3": "", "city": "Garden Grove", "zip_code": "92843", "country": "US", "state": "CA", "display_address": ["10112 Westminster Ave", "Garden Grove, CA 92843"]}, "phone": "+17145393297", "display_phone": "(714) 539-3297", "distance": 99745.17660457741}, {"id": "p3dRFkjnxZbOwwEH-3RPLg", "alias": "claws-garden-grove", "name": "Claws", "image_url": "https://s3-media1.fl.yelpcdn.com/bphoto/7yEj8QFWsziV-O4R9JLsMg/o.jpg", "is_closed": false, "url": "https://www.yelp.com/biz/claws-garden-grove?adjust_creative=oncXGL2aPIKrtJdnWeFSnA&utm_campaign=yelp_api_v3&utm_medium=api_v3_business_search&utm_source=oncXGL2aPIKrtJdnWeFSnA", "review_count": 1364, "categories": [{"alias": "cajun", "title": "Cajun/Creole"}, {"alias": "seafood", "title": "Seafood"}, {"alias": "chicken_wings", "title": "Chicken Wings"}], "rating": 4.0, "coordinates": {"latitude": 33.786495, "longitude": -117.959823}, "transactions": [], "price": "$$", "location": {"address1": "12125 Brookhurst St", "address2": "", "address3": "", "city": "Garden Grove", "zip_code": "92840", "country": "US", "state": "CA", "display_address": ["12125 Brookhurst St", "Garden Grove, CA 92840"]}, "phone": "+17145901295", "display_phone": "(714) 590-1295", "distance": 102254.7154364305}, {"id": "bQzxA9EuHgQ-DqFFY155Vw", "alias": "the-wild-crab-garden-grove", "name": "The Wild Crab", "image_url": "https://s3-media2.fl.yelpcdn.com/bphoto/b4g7ul0ALK-TZPn3jdxNeQ/o.jpg", "is_closed": false, "url": "https://www.yelp.com/biz/the-wild-crab-garden-grove?adjust_creative=oncXGL2aPIKrtJdnWeFSnA&utm_campaign=yelp_api_v3&utm_medium=api_v3_business_search&utm_source=oncXGL2aPIKrtJdnWeFSnA", "review_count": 582, "categories": [{"alias": "cajun", "title": "Cajun/Creole"}, {"alias": "seafood", "title": "Seafood"}], "rating": 4.0, "coordinates": {"latitude": 33.7736538718162, "longitude": -117.962822914124}, "transactions": [], "price": "$$", "location": {"address1": "9730 Garden Grove Blvd", "address2": "", "address3": "", "city": "Garden Grove", "zip_code": "92844", "country": "US", "state": "CA", "display_address": ["9730 Garden Grove Blvd", "Garden Grove, CA 92844"]}, "phone": "+17145308877", "display_phone": "(714) 530-8877", "distance": 101512.50260650384}, {"id": "jdsTeVSF6gEo9k_5Ui02Yg", "alias": "cafe-orleans-anaheim", "name": "Cafe Orleans", "image_url": "https://s3-media2.fl.yelpcdn.com/bphoto/Sv71y4EPIuNm-rvvRzMrow/o.jpg", "is_closed": false, "url": "https://www.yelp.com/biz/cafe-orleans-anaheim?adjust_creative=oncXGL2aPIKrtJdnWeFSnA&utm_campaign=yelp_api_v3&utm_medium=api_v3_business_search&utm_source=oncXGL2aPIKrtJdnWeFSnA", "review_count": 1538, "categories": [{"alias": "cajun", "title": "Cajun/Creole"}, {"alias": "newamerican", "title": "American (New)"}], "rating": 3.5, "coordinates": {"latitude": 33.8111719141341, "longitude": -117.921239906746}, "transactions": [], "price": "$$", "location": {"address1": "1313 S Harbor Blvd", "address2": "", "address3": "", "city": "Anaheim", "zip_code": "92802", "country": "US", "state": "CA", "display_address": ["1313 S Harbor Blvd", "Anaheim, CA 92802"]}, "phone": "+17147813463", "display_phone": "(714) 781-3463", "distance": 101766.25650924366}], "total": 60, "region": {"center": {"longitude": -117.17330932617188, "latitude": 33.141533511091374}}}