{"businesses": [{"id": "kE90EEmscN5FPma9GlD0og", "alias": "panda-garden-san-marcos", "name": "Panda Garden", "image_url": "https://s3-media3.fl.yelpcdn.com/bphoto/Y-47TAyg584YFYkIDC65xA/o.jpg", "is_closed": false, "url": "https://www.yelp.com/biz/panda-garden-san-marcos?adjust_creative=oncXGL2aPIKrtJdnWeFSnA&utm_campaign=yelp_api_v3&utm_medium=api_v3_business_search&utm_source=oncXGL2aPIKrtJdnWeFSnA", "review_count": 388, "categories": [{"alias": "chinese", "title": "Chinese"}], "rating": 4.0, "coordinates": {"latitude": 33.132276, "longitude": -117.209051}, "transactions": [], "price": "$$", "location": {"address1": "742 Rancho Santa Fe Rd", "address2": null, "address3": "", "city": "San Marcos", "zip_code": "92078", "country": "US", "state": "CA", "display_address": ["742 Rancho Santa Fe Rd", "San Marcos, CA 92078"]}, "phone": "+17607272322", "display_phone": "(760) 727-2322", "distance": 3483.504443693484}, {"id": "CE_6L0_txHkGcZVBRvv_3A", "alias": "china-wokery-san-marcos", "name": "China Wokery", "image_url": "https://s3-media1.fl.yelpcdn.com/bphoto/UoENjc8rvQo2ZglRU--mnQ/o.jpg", "is_closed": false, "url": "https://www.yelp.com/biz/china-wokery-san-marcos?adjust_creative=oncXGL2aPIKrtJdnWeFSnA&utm_campaign=yelp_api_v3&utm_medium=api_v3_business_search&utm_source=oncXGL2aPIKrtJdnWeFSnA", "review_count": 194, "categories": [{"alias": "chinese", "title": "Chinese"}], "rating": 3.5, "coordinates": {"latitude": 33.13535, "longitude": -117.18991}, "transactions": [], "price": "$$", "location": {"address1": "1020 W San Marcos Blvd", "address2": "Ste 142", "address3": "", "city": "San Marcos", "zip_code": "92078", "country": "US", "state": "CA", "display_address": ["1020 W San Marcos Blvd", "Ste 142", "San Marcos, CA 92078"]}, "phone": "+17604716066", "display_phone": "(760) 471-6066", "distance": 1782.5217423336705}, {"id": "R0Zgcp0PZfOaXh-PEa9Mng", "alias": "pho-truc-xanh-escondido", "name": "Pho Truc Xanh", "image_url": "https://s3-media4.fl.yelpcdn.com/bphoto/71Z4dwkLY1ZEA7WELil1dA/o.jpg", "is_closed": false, "url": "https://www.yelp.com/biz/pho-truc-xanh-escondido?adjust_creative=oncXGL2aPIKrtJdnWeFSnA&utm_campaign=yelp_api_v3&utm_medium=api_v3_business_search&utm_source=oncXGL2aPIKrtJdnWeFSnA", "review_count": 940, "categories": [{"alias": "vietnamese", "title": "Vietnamese"}, {"alias": "chinese", "title": "Chinese"}], "rating": 4.5, "coordinates": {"latitude": 33.127895, "longitude": -117.091797}, "transactions": [], "price": "$", "location": {"address1": "503 W Mission Ave", "address2": "", "address3": "", "city": "Escondido", "zip_code": "92025", "country": "US", "state": "CA", "display_address": ["503 W Mission Ave", "Escondido, CA 92025"]}, "phone": "+17604898201", "display_phone": "(760) 489-8201", "distance": 7739.235973864949}, {"id": "wGJJi6enDpzj1WzVsmhrug", "alias": "pho-4-queen-san-marcos", "name": "Pho 4 Queen", "image_url": "https://s3-media2.fl.yelpcdn.com/bphoto/HxAIuDYYsYGTqmLcxFVnHg/o.jpg", "is_closed": false, "url": "https://www.yelp.com/biz/pho-4-queen-san-marcos?adjust_creative=oncXGL2aPIKrtJdnWeFSnA&utm_campaign=yelp_api_v3&utm_medium=api_v3_business_search&utm_source=oncXGL2aPIKrtJdnWeFSnA", "review_count": 182, "categories": [{"alias": "vietnamese", "title": "Vietnamese"}, {"alias": "chinese", "title": "Chinese"}, {"alias": "soup", "title": "Soup"}], "rating": 4.0, "coordinates": {"latitude": 33.1471976, "longitude": -117.1995141}, "transactions": ["pickup"], "price": "$", "location": {"address1": "159 S Rancho Santa Fe Rd", "address2": "", "address3": "", "city": "San Marcos", "zip_code": "92078", "country": "US", "state": "CA", "display_address": ["159 S Rancho Santa Fe Rd", "San Marcos, CA 92078"]}, "phone": "+17604712572", "display_phone": "(760) 471-2572", "distance": 2457.419279691506}, {"id": "Z22lzt8mfZQNsCipm5Msng", "alias": "wonderwok-san-marcos", "name": "Wonderwok", "image_url": "https://s3-media2.fl.yelpcdn.com/bphoto/UWpqQLMTTLWqb-63YNw42g/o.jpg", "is_closed": false, "url": "https://www.yelp.com/biz/wonderwok-san-marcos?adjust_creative=oncXGL2aPIKrtJdnWeFSnA&utm_campaign=yelp_api_v3&utm_medium=api_v3_business_search&utm_source=oncXGL2aPIKrtJdnWeFSnA", "review_count": 3, "categories": [{"alias": "fooddeliveryservices", "title": "Food Delivery Services"}, {"alias": "chinese", "title": "Chinese"}], "rating": 3.5, "coordinates": {"latitude": 33.1415416, "longitude": -117.1854618}, "transactions": ["pickup", "delivery"], "location": {"address1": "980 Los Vallecitos Blvd", "address2": "unit B & C", "address3": "", "city": "San Marcos", "zip_code": "92069", "country": "US", "state": "CA", "display_address": ["980 Los Vallecitos Blvd", "unit B & C", "San Marcos, CA 92069"]}, "phone": "+16194908558", "display_phone": "(619) 490-8558", "distance": 1120.3865280851421}, {"id": "4HfQK96r00AYox18BcekAg", "alias": "pick-up-stix-san-marcos", "name": "Pick up Stix", "image_url": "https://s3-media1.fl.yelpcdn.com/bphoto/LzGLOqcKFnvkp9jMPYljSw/o.jpg", "is_closed": false, "url": "https://www.yelp.com/biz/pick-up-stix-san-marcos?adjust_creative=oncXGL2aPIKrtJdnWeFSnA&utm_campaign=yelp_api_v3&utm_medium=api_v3_business_search&utm_source=oncXGL2aPIKrtJdnWeFSnA", "review_count": 40, "categories": [{"alias": "asianfusion", "title": "Asian Fusion"}, {"alias": "chinese", "title": "Chinese"}], "rating": 3.5, "coordinates": {"latitude": 33.1363380760568, "longitude": -117.17829991132}, "transactions": ["pickup", "delivery"], "price": "$", "location": {"address1": "595 Grand Ave", "address2": "", "address3": null, "city": "San Marcos", "zip_code": "92078", "country": "US", "state": "CA", "display_address": ["595 Grand Ave", "San Marcos, CA 92078"]}, "phone": "+17607368821", "display_phone": "(760) 736-8821", "distance": 741.3897344326865}, {"id": "YckPmm8RWebdKXf-k1lFhw", "alias": "chef-tang-vista", "name": "Chef Tang", "image_url": "https://s3-media3.fl.yelpcdn.com/bphoto/0Xi6xa4jKrB1s2eH0AlMxQ/o.jpg", "is_closed": false, "url": "https://www.yelp.com/biz/chef-tang-vista?adjust_creative=oncXGL2aPIKrtJdnWeFSnA&utm_campaign=yelp_api_v3&utm_medium=api_v3_business_search&utm_source=oncXGL2aPIKrtJdnWeFSnA", "review_count": 116, "categories": [{"alias": "chinese", "title": "Chinese"}], "rating": 4.0, "coordinates": {"latitude": 33.16782, "longitude": -117.24717}, "transactions": [], "price": "$$", "location": {"address1": "1580 S Melrose Dr", "address2": "Ste 106", "address3": "", "city": "Vista", "zip_code": "92081", "country": "US", "state": "CA", "display_address": ["1580 S Melrose Dr", "Ste 106", "Vista, CA 92081"]}, "phone": "+17605979900", "display_phone": "(760) 597-9900", "distance": 7496.209146782757}, {"id": "Os8pkvG4WvTNthL9rfcOfA", "alias": "dragon-express-escondido", "name": "Dragon Express", "image_url": "https://s3-media2.fl.yelpcdn.com/bphoto/ZD7J_7Bl4kcq-Zc3b9DGBQ/o.jpg", "is_closed": false, "url": "https://www.yelp.com/biz/dragon-express-escondido?adjust_creative=oncXGL2aPIKrtJdnWeFSnA&utm_campaign=yelp_api_v3&utm_medium=api_v3_business_search&utm_source=oncXGL2aPIKrtJdnWeFSnA", "review_count": 110, "categories": [{"alias": "chinese", "title": "Chinese"}], "rating": 4.5, "coordinates": {"latitude": 33.134615, "longitude": -117.058094}, "transactions": [], "price": "$", "location": {"address1": "1652 E Valley Pkwy", "address2": null, "address3": "", "city": "Escondido", "zip_code": "92027", "country": "US", "state": "CA", "display_address": ["1652 E Valley Pkwy", "Escondido, CA 92027"]}, "phone": "+17607433580", "display_phone": "(760) 743-3580", "distance": 10755.200600804426}, {"id": "1ZflRsr-3BuNgQel1GHCQQ", "alias": "pho-saigon-express-escondido", "name": "Pho Saigon Express", "image_url": "https://s3-media1.fl.yelpcdn.com/bphoto/gBLX--Q607TSLMtCef5Ong/o.jpg", "is_closed": false, "url": "https://www.yelp.com/biz/pho-saigon-express-escondido?adjust_creative=oncXGL2aPIKrtJdnWeFSnA&utm_campaign=yelp_api_v3&utm_medium=api_v3_business_search&utm_source=oncXGL2aPIKrtJdnWeFSnA", "review_count": 659, "categories": [{"alias": "vietnamese", "title": "Vietnamese"}, {"alias": "chinese", "title": "Chinese"}, {"alias": "vegetarian", "title": "Vegetarian"}], "rating": 4.5, "coordinates": {"latitude": 33.126807, "longitude": -117.084974}, "transactions": ["pickup"], "price": "$", "location": {"address1": "605 N Broadway", "address2": null, "address3": "", "city": "Escondido", "zip_code": "92025", "country": "US", "state": "CA", "display_address": ["605 N Broadway", "Escondido, CA 92025"]}, "phone": "+17607464669", "display_phone": "(760) 746-4669", "distance": 8386.649246655747}, {"id": "TATaA36Q92ZZzcIDl2uewQ", "alias": "panda-express-san-marcos-3", "name": "Panda Express", "image_url": "https://s3-media2.fl.yelpcdn.com/bphoto/MAyOu0GQk295RpKa7JzX2w/o.jpg", "is_closed": false, "url": "https://www.yelp.com/biz/panda-express-san-marcos-3?adjust_creative=oncXGL2aPIKrtJdnWeFSnA&utm_campaign=yelp_api_v3&utm_medium=api_v3_business_search&utm_source=oncXGL2aPIKrtJdnWeFSnA", "review_count": 68, "categories": [{"alias": "chinese", "title": "Chinese"}, {"alias": "hotdogs", "title": "Fast Food"}], "rating": 3.0, "coordinates": {"latitude": 33.137946, "longitude": -117.178043}, "transactions": [], "price": "$", "location": {"address1": "670 W San Marcos Blvd", "address2": "", "address3": "", "city": "San Marcos", "zip_code": "92069", "country": "US", "state": "CA", "display_address": ["670 W San Marcos Blvd", "San Marcos, CA 92069"]}, "phone": "+17605910392", "display_phone": "(760) 591-0392", "distance": 594.4618103425471}, {"id": "-eSkO5VA2s82TND9y7z2Ug", "alias": "golden-dragon-vista", "name": "Golden Dragon", "image_url": "https://s3-media2.fl.yelpcdn.com/bphoto/N4pC7KZL9rWAGofjuf0M5w/o.jpg", "is_closed": false, "url": "https://www.yelp.com/biz/golden-dragon-vista?adjust_creative=oncXGL2aPIKrtJdnWeFSnA&utm_campaign=yelp_api_v3&utm_medium=api_v3_business_search&utm_source=oncXGL2aPIKrtJdnWeFSnA", "review_count": 143, "categories": [{"alias": "chinese", "title": "Chinese"}], "rating": 4.0, "coordinates": {"latitude": 33.2192043, "longitude": -117.2262549}, "transactions": [], "price": "$$", "location": {"address1": "1350 E Vista Way", "address2": "Ste 10", "address3": "", "city": "Vista", "zip_code": "92084", "country": "US", "state": "CA", "display_address": ["1350 E Vista Way", "Ste 10", "Vista, CA 92084"]}, "phone": "+17607264246", "display_phone": "(760) 726-4246", "distance": 9937.681506924228}, {"id": "Qt4fUndy7VFCFraOPrrnGA", "alias": "luxe-buffet-carlsbad", "name": "Luxe Buffet", "image_url": "https://s3-media4.fl.yelpcdn.com/bphoto/6WcqFbz0oCpSQC8VDvfrTg/o.jpg", "is_closed": false, "url": "https://www.yelp.com/biz/luxe-buffet-carlsbad?adjust_creative=oncXGL2aPIKrtJdnWeFSnA&utm_campaign=yelp_api_v3&utm_medium=api_v3_business_search&utm_source=oncXGL2aPIKrtJdnWeFSnA", "review_count": 458, "categories": [{"alias": "buffets", "title": "Buffets"}, {"alias": "seafood", "title": "Seafood"}, {"alias": "chinese", "title": "Chinese"}], "rating": 3.5, "coordinates": {"latitude": 33.1798820495605, "longitude": -117.327186584473}, "transactions": [], "price": "$$", "location": {"address1": "2515 El Camino Real", "address2": "", "address3": "", "city": "Carlsbad", "zip_code": "92008", "country": "US", "state": "CA", "display_address": ["2515 El Camino Real", "Carlsbad, CA 92008"]}, "phone": "+17607293888", "display_phone": "(760) 729-3888", "distance": 14945.713489951824}, {"id": "etbd6jMgSW2zz1vN8qBOcw", "alias": "chins-szechwan-cuisine-vista-vista", "name": "Chin's Szechwan Cuisine - Vista", "image_url": "https://s3-media2.fl.yelpcdn.com/bphoto/vQ-p-pje9BgwHqSHIcfqPQ/o.jpg", "is_closed": false, "url": "https://www.yelp.com/biz/chins-szechwan-cuisine-vista-vista?adjust_creative=oncXGL2aPIKrtJdnWeFSnA&utm_campaign=yelp_api_v3&utm_medium=api_v3_business_search&utm_source=oncXGL2aPIKrtJdnWeFSnA", "review_count": 175, "categories": [{"alias": "chinese", "title": "Chinese"}, {"alias": "asianfusion", "title": "Asian Fusion"}, {"alias": "soup", "title": "Soup"}], "rating": 4.0, "coordinates": {"latitude": 33.205905, "longitude": -117.237127}, "transactions": ["pickup", "delivery"], "price": "$$", "location": {"address1": "600 E Vista Way", "address2": "", "address3": "", "city": "Vista", "zip_code": "92084", "country": "US", "state": "CA", "display_address": ["600 E Vista Way", "Vista, CA 92084"]}, "phone": "+17607323880", "display_phone": "(760) 732-3880", "distance": 9301.22889336902}, {"id": "Os1Wcv3vxXaXOSFPDokW_w", "alias": "panda-express-san-marcos-6", "name": "Panda Express", "image_url": "https://s3-media1.fl.yelpcdn.com/bphoto/1E63JhHBZyjw58xXhRSCBg/o.jpg", "is_closed": false, "url": "https://www.yelp.com/biz/panda-express-san-marcos-6?adjust_creative=oncXGL2aPIKrtJdnWeFSnA&utm_campaign=yelp_api_v3&utm_medium=api_v3_business_search&utm_source=oncXGL2aPIKrtJdnWeFSnA", "review_count": 4, "categories": [{"alias": "chinese", "title": "Chinese"}, {"alias": "hotdogs", "title": "Fast Food"}], "rating": 3.0, "coordinates": {"latitude": 33.1274736, "longitude": -117.165052}, "transactions": [], "price": "$", "location": {"address1": "333 S Twin Oaks Valley Rd", "address2": "", "address3": "", "city": "San Marcos", "zip_code": "92096", "country": "US", "state": "CA", "display_address": ["333 S Twin Oaks Valley Rd", "San Marcos, CA 92096"]}, "phone": "+17605103824", "display_phone": "(760) 510-3824", "distance": 1876.003936020722}, {"id": "vgoXE_XgWjE8hzzj3ag3iA", "alias": "spicy-king-vista-12", "name": "Spicy King", "image_url": "https://s3-media2.fl.yelpcdn.com/bphoto/dQnvhdtYOo8AW1t-zJlhJQ/o.jpg", "is_closed": false, "url": "https://www.yelp.com/biz/spicy-king-vista-12?adjust_creative=oncXGL2aPIKrtJdnWeFSnA&utm_campaign=yelp_api_v3&utm_medium=api_v3_business_search&utm_source=oncXGL2aPIKrtJdnWeFSnA", "review_count": 306, "categories": [{"alias": "szechuan", "title": "Szechuan"}], "rating": 3.5, "coordinates": {"latitude": 33.218775, "longitude": -117.2259751}, "transactions": [], "price": "$$", "location": {"address1": "1233 E Vista Way", "address2": null, "address3": "", "city": "Vista", "zip_code": "92084", "country": "US", "state": "CA", "display_address": ["1233 E Vista Way", "Vista, CA 92084"]}, "phone": "+17606391888", "display_phone": "(760) 639-1888", "distance": 9713.781372901547}, {"id": "-ZwjF70WAbgieD_QQvETww", "alias": "china-fusion-oceanside", "name": "China Fusion", "image_url": "https://s3-media4.fl.yelpcdn.com/bphoto/qoHlx2aEX7aXoEplULKIpg/o.jpg", "is_closed": false, "url": "https://www.yelp.com/biz/china-fusion-oceanside?adjust_creative=oncXGL2aPIKrtJdnWeFSnA&utm_campaign=yelp_api_v3&utm_medium=api_v3_business_search&utm_source=oncXGL2aPIKrtJdnWeFSnA", "review_count": 206, "categories": [{"alias": "chinese", "title": "Chinese"}], "rating": 4.5, "coordinates": {"latitude": 33.2064214924819, "longitude": -117.28414903418}, "transactions": [], "price": "$$", "location": {"address1": "4225 Oceanside Blvd", "address2": "Ste B", "address3": null, "city": "Oceanside", "zip_code": "92056", "country": "US", "state": "CA", "display_address": ["4225 Oceanside Blvd", "Ste B", "Oceanside, CA 92056"]}, "phone": "+17607268888", "display_phone": "(760) 726-8888", "distance": 12588.858620288855}, {"id": "PhuXj7OEcxMTxIsvCgf17g", "alias": "peking-wok-bonsall-3", "name": "Peking Wok", "image_url": "https://s3-media3.fl.yelpcdn.com/bphoto/bXdC8gwl7eHSAjqyQBa-TQ/o.jpg", "is_closed": false, "url": "https://www.yelp.com/biz/peking-wok-bonsall-3?adjust_creative=oncXGL2aPIKrtJdnWeFSnA&utm_campaign=yelp_api_v3&utm_medium=api_v3_business_search&utm_source=oncXGL2aPIKrtJdnWeFSnA", "review_count": 190, "categories": [{"alias": "chinese", "title": "Chinese"}], "rating": 4.0, "coordinates": {"latitude": 33.296565, "longitude": -117.221636}, "transactions": [], "price": "$$", "location": {"address1": "5256 S Mission Rd", "address2": "Ste 303", "address3": "", "city": "Bonsall", "zip_code": "92003", "country": "US", "state": "CA", "display_address": ["5256 S Mission Rd", "Ste 303", "Bonsall, CA 92003"]}, "phone": "+17607248078", "display_phone": "(760) 724-8078", "distance": 17815.227108002036}, {"id": "T9ohRl4o32Lnk_7RJMSO_A", "alias": "star-house-chinese-restaurant-escondido-2", "name": "Star House Chinese Restaurant", "image_url": "https://s3-media1.fl.yelpcdn.com/bphoto/rcgYTtTH3AVCHD8wZCyQgg/o.jpg", "is_closed": false, "url": "https://www.yelp.com/biz/star-house-chinese-restaurant-escondido-2?adjust_creative=oncXGL2aPIKrtJdnWeFSnA&utm_campaign=yelp_api_v3&utm_medium=api_v3_business_search&utm_source=oncXGL2aPIKrtJdnWeFSnA", "review_count": 102, "categories": [{"alias": "szechuan", "title": "Szechuan"}], "rating": 4.0, "coordinates": {"latitude": 33.1326689336543, "longitude": -117.060287904149}, "transactions": [], "price": "$$", "location": {"address1": "1507 E Valley Pkwy", "address2": "", "address3": "", "city": "Escondido", "zip_code": "92027", "country": "US", "state": "CA", "display_address": ["1507 E Valley Pkwy", "Escondido, CA 92027"]}, "phone": "+17604896223", "display_phone": "(760) 489-6223", "distance": 10569.557289525688}, {"id": "s6scKVmZ-PWs77o7yUNsuQ", "alias": "p-f-changs-carlsbad", "name": "P.F. Chang's", "image_url": "https://s3-media2.fl.yelpcdn.com/bphoto/uqbj13Dt3uIB5GVd_Cpldw/o.jpg", "is_closed": false, "url": "https://www.yelp.com/biz/p-f-changs-carlsbad?adjust_creative=oncXGL2aPIKrtJdnWeFSnA&utm_campaign=yelp_api_v3&utm_medium=api_v3_business_search&utm_source=oncXGL2aPIKrtJdnWeFSnA", "review_count": 441, "categories": [{"alias": "chinese", "title": "Chinese"}, {"alias": "asianfusion", "title": "Asian Fusion"}, {"alias": "gluten_free", "title": "Gluten-Free"}], "rating": 3.0, "coordinates": {"latitude": 33.1251713786098, "longitude": -117.322928294477}, "transactions": ["pickup", "delivery"], "price": "$$", "location": {"address1": "5621 Paseo Del Norte", "address2": "", "address3": "", "city": "Carlsbad", "zip_code": "92008", "country": "US", "state": "CA", "display_address": ["5621 Paseo Del Norte", "Carlsbad, CA 92008"]}, "phone": "+17607950595", "display_phone": "(760) 795-0595", "distance": 14050.006928107148}, {"id": "0iBk3YcAPtjH_TIrmYbsww", "alias": "panda-express-vista", "name": "Panda Express", "image_url": "https://s3-media2.fl.yelpcdn.com/bphoto/YZSLxgSTc5wCOlGPTSrNow/o.jpg", "is_closed": false, "url": "https://www.yelp.com/biz/panda-express-vista?adjust_creative=oncXGL2aPIKrtJdnWeFSnA&utm_campaign=yelp_api_v3&utm_medium=api_v3_business_search&utm_source=oncXGL2aPIKrtJdnWeFSnA", "review_count": 65, "categories": [{"alias": "chinese", "title": "Chinese"}, {"alias": "hotdogs", "title": "Fast Food"}], "rating": 3.0, "coordinates": {"latitude": 33.1692223752012, "longitude": -117.212557182884}, "transactions": [], "price": "$", "location": {"address1": "316 Sycamore Ave", "address2": "", "address3": "", "city": "Vista", "zip_code": "92083", "country": "US", "state": "CA", "display_address": ["316 Sycamore Ave", "Vista, CA 92083"]}, "phone": "+17609459887", "display_phone": "(760) 945-9887", "distance": 4777.906121057918}, {"id": "kSRLVc86XstN0Pq2vm-52A", "alias": "panda-wok-oceanside", "name": "Panda Wok", "image_url": "https://s3-media3.fl.yelpcdn.com/bphoto/as4a5ZufsP2Zg7XSw3u4hQ/o.jpg", "is_closed": false, "url": "https://www.yelp.com/biz/panda-wok-oceanside?adjust_creative=oncXGL2aPIKrtJdnWeFSnA&utm_campaign=yelp_api_v3&utm_medium=api_v3_business_search&utm_source=oncXGL2aPIKrtJdnWeFSnA", "review_count": 6, "categories": [{"alias": "chinese", "title": "Chinese"}], "rating": 4.5, "coordinates": {"latitude": 33.19373, "longitude": -117.35885}, "transactions": [], "location": {"address1": "1836 Oceanside Blvd", "address2": null, "address3": null, "city": "Oceanside", "zip_code": "92054", "country": "US", "state": "CA", "display_address": ["1836 Oceanside Blvd", "Oceanside, CA 92054"]}, "phone": "+17609673956", "display_phone": "(760) 967-3956", "distance": 18092.096192664354}, {"id": "0wN1Iz1pGQ5IBEGeAtWCEA", "alias": "pei-wei-encinitas", "name": "Pei Wei", "image_url": "https://s3-media1.fl.yelpcdn.com/bphoto/38yDUxDqsRsOqTDZkTsGFw/o.jpg", "is_closed": false, "url": "https://www.yelp.com/biz/pei-wei-encinitas?adjust_creative=oncXGL2aPIKrtJdnWeFSnA&utm_campaign=yelp_api_v3&utm_medium=api_v3_business_search&utm_source=oncXGL2aPIKrtJdnWeFSnA", "review_count": 162, "categories": [{"alias": "chinese", "title": "Chinese"}, {"alias": "gluten_free", "title": "Gluten-Free"}, {"alias": "asianfusion", "title": "Asian Fusion"}], "rating": 3.0, "coordinates": {"latitude": 33.068531036377, "longitude": -117.265289306641}, "transactions": [], "price": "$", "location": {"address1": "1560-A Leucadia Blvd", "address2": "", "address3": "", "city": "Encinitas", "zip_code": "92024", "country": "US", "state": "CA", "display_address": ["1560-A Leucadia Blvd", "Encinitas, CA 92024"]}, "phone": "+17606352888", "display_phone": "(760) 635-2888", "distance": 11814.331010444135}, {"id": "lPrvUs4oSFpJolgA1917Iw", "alias": "pearl-chinese-cuisine-san-diego", "name": "Pearl Chinese Cuisine", "image_url": "https://s3-media2.fl.yelpcdn.com/bphoto/vYVu4-OpeFlHQ4rgncmlEQ/o.jpg", "is_closed": false, "url": "https://www.yelp.com/biz/pearl-chinese-cuisine-san-diego?adjust_creative=oncXGL2aPIKrtJdnWeFSnA&utm_campaign=yelp_api_v3&utm_medium=api_v3_business_search&utm_source=oncXGL2aPIKrtJdnWeFSnA", "review_count": 791, "categories": [{"alias": "dimsum", "title": "Dim Sum"}, {"alias": "cantonese", "title": "Cantonese"}, {"alias": "noodles", "title": "Noodles"}], "rating": 3.0, "coordinates": {"latitude": 33.0173, "longitude": -117.07715}, "transactions": [], "price": "$$", "location": {"address1": "11666 Avena Pl", "address2": null, "address3": "", "city": "San Diego", "zip_code": "92128", "country": "US", "state": "CA", "display_address": ["11666 Avena Pl", "San Diego, CA 92128"]}, "phone": "+18584873388", "display_phone": "(858) 487-3388", "distance": 16456.971722210452}, {"id": "3BqTG3V52AL4WpLwehFr8g", "alias": "yummy-express-escondido", "name": "Yummy Express", "image_url": "https://s3-media2.fl.yelpcdn.com/bphoto/ntbc8BIuZetiWWKuk_Lmqg/o.jpg", "is_closed": false, "url": "https://www.yelp.com/biz/yummy-express-escondido?adjust_creative=oncXGL2aPIKrtJdnWeFSnA&utm_campaign=yelp_api_v3&utm_medium=api_v3_business_search&utm_source=oncXGL2aPIKrtJdnWeFSnA", "review_count": 169, "categories": [{"alias": "chinese", "title": "Chinese"}], "rating": 4.0, "coordinates": {"latitude": 33.1403579, "longitude": -117.0452576}, "transactions": [], "price": "$", "location": {"address1": "2335 E Valley Pkwy", "address2": "Ste E", "address3": "", "city": "Escondido", "zip_code": "92027", "country": "US", "state": "CA", "display_address": ["2335 E Valley Pkwy", "Ste E", "Escondido, CA 92027"]}, "phone": "+17607438622", "display_phone": "(760) 743-8622", "distance": 11938.007960057128}, {"id": "oc2_rhnSN6835fS09iu8vQ", "alias": "chins-szechwan-cuisine-oceanside-oceanside-2", "name": "Chin's Szechwan Cuisine - Oceanside", "image_url": "https://s3-media2.fl.yelpcdn.com/bphoto/vLTp7Cmh0x75gvJA4IyAnw/o.jpg", "is_closed": false, "url": "https://www.yelp.com/biz/chins-szechwan-cuisine-oceanside-oceanside-2?adjust_creative=oncXGL2aPIKrtJdnWeFSnA&utm_campaign=yelp_api_v3&utm_medium=api_v3_business_search&utm_source=oncXGL2aPIKrtJdnWeFSnA", "review_count": 258, "categories": [{"alias": "chinese", "title": "Chinese"}, {"alias": "asianfusion", "title": "Asian Fusion"}, {"alias": "soup", "title": "Soup"}], "rating": 4.0, "coordinates": {"latitude": 33.207614, "longitude": -117.287945}, "transactions": ["pickup", "delivery"], "price": "$$", "location": {"address1": "4140 Oceanside Blvd", "address2": "", "address3": "", "city": "Oceanside", "zip_code": "92056", "country": "US", "state": "CA", "display_address": ["4140 Oceanside Blvd", "Oceanside, CA 92056"]}, "phone": "+17606314808", "display_phone": "(760) 631-4808", "distance": 12954.648190349779}, {"id": "PdXsZI28IR_htRDqEeGxlA", "alias": "bamboo-house-chinese-restaurant-escondido", "name": "Bamboo House Chinese Restaurant", "image_url": "https://s3-media3.fl.yelpcdn.com/bphoto/l2N0wGSIWJblfnLl_XLO-A/o.jpg", "is_closed": false, "url": "https://www.yelp.com/biz/bamboo-house-chinese-restaurant-escondido?adjust_creative=oncXGL2aPIKrtJdnWeFSnA&utm_campaign=yelp_api_v3&utm_medium=api_v3_business_search&utm_source=oncXGL2aPIKrtJdnWeFSnA", "review_count": 164, "categories": [{"alias": "chinese", "title": "Chinese"}], "rating": 3.5, "coordinates": {"latitude": 33.1365, "longitude": -117.05074}, "transactions": [], "price": "$$", "location": {"address1": "320 N Midway Dr", "address2": "Ste B", "address3": "", "city": "Escondido", "zip_code": "92027", "country": "US", "state": "CA", "display_address": ["320 N Midway Dr", "Ste B", "Escondido, CA 92027"]}, "phone": "+17604809550", "display_phone": "(760) 480-9550", "distance": 11431.653292743118}, {"id": "NZsIIH5zFa9DbBH2gyiwxA", "alias": "panda-wok-oceanside-2", "name": "Panda Wok", "image_url": "https://s3-media4.fl.yelpcdn.com/bphoto/Q6rjHYiSpaiMKlwaJDz5oA/o.jpg", "is_closed": false, "url": "https://www.yelp.com/biz/panda-wok-oceanside-2?adjust_creative=oncXGL2aPIKrtJdnWeFSnA&utm_campaign=yelp_api_v3&utm_medium=api_v3_business_search&utm_source=oncXGL2aPIKrtJdnWeFSnA", "review_count": 1, "categories": [{"alias": "chinese", "title": "Chinese"}], "rating": 4.0, "coordinates": {"latitude": 33.1931156690619, "longitude": -117.357905609654}, "transactions": [], "location": {"address1": "1836 Oceanside Blvd", "address2": "Ste 101", "address3": null, "city": "Oceanside", "zip_code": "92054", "country": "US", "state": "CA", "display_address": ["1836 Oceanside Blvd", "Ste 101", "Oceanside, CA 92054"]}, "phone": "+17609673956", "display_phone": "(760) 967-3956", "distance": 18114.00918168487}, {"id": "TgfNh-MxKZI5ieRnd9jFMQ", "alias": "gourmet-wok-escondido", "name": "Gourmet Wok", "image_url": "https://s3-media4.fl.yelpcdn.com/bphoto/0nlOUYoAPEVeS8X8zxlSQw/o.jpg", "is_closed": false, "url": "https://www.yelp.com/biz/gourmet-wok-escondido?adjust_creative=oncXGL2aPIKrtJdnWeFSnA&utm_campaign=yelp_api_v3&utm_medium=api_v3_business_search&utm_source=oncXGL2aPIKrtJdnWeFSnA", "review_count": 78, "categories": [{"alias": "chinese", "title": "Chinese"}], "rating": 3.0, "coordinates": {"latitude": 33.1432978, "longitude": -117.0957911}, "transactions": [], "price": "$", "location": {"address1": "358 W El Norte Pkwy", "address2": "Ste E", "address3": "", "city": "Escondido", "zip_code": "92026", "country": "US", "state": "CA", "display_address": ["358 W El Norte Pkwy", "Ste E", "Escondido, CA 92026"]}, "phone": "+17604808243", "display_phone": "(760) 480-8243", "distance": 7229.574723026444}, {"id": "kgxmvKa-THNtkpj51jw1EQ", "alias": "great-wok-of-china-oceanside", "name": "Great Wok of China", "image_url": "https://s3-media2.fl.yelpcdn.com/bphoto/2-7B4VZC89bkLZov5SpX3A/o.jpg", "is_closed": false, "url": "https://www.yelp.com/biz/great-wok-of-china-oceanside?adjust_creative=oncXGL2aPIKrtJdnWeFSnA&utm_campaign=yelp_api_v3&utm_medium=api_v3_business_search&utm_source=oncXGL2aPIKrtJdnWeFSnA", "review_count": 393, "categories": [{"alias": "chinese", "title": "Chinese"}, {"alias": "seafood", "title": "Seafood"}, {"alias": "chickenshop", "title": "Chicken Shop"}], "rating": 4.0, "coordinates": {"latitude": 33.23736, "longitude": -117.29712}, "transactions": [], "price": "$", "location": {"address1": "4635 Frazee Rd", "address2": "Ste D", "address3": "", "city": "Oceanside", "zip_code": "92057", "country": "US", "state": "CA", "display_address": ["4635 Frazee Rd", "Ste D", "Oceanside, CA 92057"]}, "phone": "+17604398939", "display_phone": "(760) 439-8939", "distance": 15706.021214607235}, {"id": "AWQB--GdK2KHNwej0-F2bA", "alias": "sun-hing-buffet-vista", "name": "Sun Hing Buffet", "image_url": "https://s3-media3.fl.yelpcdn.com/bphoto/ZWWg3o2sl180SSMWlHJK9A/o.jpg", "is_closed": false, "url": "https://www.yelp.com/biz/sun-hing-buffet-vista?adjust_creative=oncXGL2aPIKrtJdnWeFSnA&utm_campaign=yelp_api_v3&utm_medium=api_v3_business_search&utm_source=oncXGL2aPIKrtJdnWeFSnA", "review_count": 166, "categories": [{"alias": "buffets", "title": "Buffets"}, {"alias": "chinese", "title": "Chinese"}], "rating": 3.0, "coordinates": {"latitude": 33.1846508919716, "longitude": -117.282936562427}, "transactions": [], "price": "$$", "location": {"address1": "1960 Hacienda Dr", "address2": "", "address3": "", "city": "Vista", "zip_code": "92081", "country": "US", "state": "CA", "display_address": ["1960 Hacienda Dr", "Vista, CA 92081"]}, "phone": "+17608063586", "display_phone": "(760) 806-3586", "distance": 11274.62010465468}, {"id": "-pGud-5Qbq2awWdwMygHBg", "alias": "chins-szechwan-escondido", "name": "Chin's Szechwan", "image_url": "https://s3-media1.fl.yelpcdn.com/bphoto/uKAroBoFot312ACKzOoUbg/o.jpg", "is_closed": false, "url": "https://www.yelp.com/biz/chins-szechwan-escondido?adjust_creative=oncXGL2aPIKrtJdnWeFSnA&utm_campaign=yelp_api_v3&utm_medium=api_v3_business_search&utm_source=oncXGL2aPIKrtJdnWeFSnA", "review_count": 148, "categories": [{"alias": "chinese", "title": "Chinese"}, {"alias": "asianfusion", "title": "Asian Fusion"}], "rating": 3.5, "coordinates": {"latitude": 33.12382, "longitude": -117.08705}, "transactions": ["pickup"], "price": "$$", "location": {"address1": "445 N Escondido Blvd", "address2": "", "address3": "", "city": "Escondido", "zip_code": "92025", "country": "US", "state": "CA", "display_address": ["445 N Escondido Blvd", "Escondido, CA 92025"]}, "phone": "+17604804115", "display_phone": "(760) 480-4115", "distance": 8274.87028890307}, {"id": "npgs0iISJkkOxVbjjXR9CQ", "alias": "nice-food-restaurant-escondido", "name": "Nice Food Restaurant", "image_url": "https://s3-media1.fl.yelpcdn.com/bphoto/_8yWMaa61wtapr0MeuseYQ/o.jpg", "is_closed": false, "url": "https://www.yelp.com/biz/nice-food-restaurant-escondido?adjust_creative=oncXGL2aPIKrtJdnWeFSnA&utm_campaign=yelp_api_v3&utm_medium=api_v3_business_search&utm_source=oncXGL2aPIKrtJdnWeFSnA", "review_count": 64, "categories": [{"alias": "chinese", "title": "Chinese"}], "rating": 3.5, "coordinates": {"latitude": 33.126808311466, "longitude": -117.084095366299}, "transactions": [], "price": "$", "location": {"address1": "609 N Broadway", "address2": "", "address3": "Ste E&F", "city": "Escondido", "zip_code": "92025", "country": "US", "state": "CA", "display_address": ["609 N Broadway", "Ste E&F", "Escondido, CA 92025"]}, "phone": "+17602332988", "display_phone": "(760) 233-2988", "distance": 8466.874265549357}, {"id": "znRXyyWrU_W0FkSDhPKg-g", "alias": "panda-express-san-marcos-4", "name": "Panda Express", "image_url": "https://s3-media1.fl.yelpcdn.com/bphoto/M3WhT97cBqplCi8CJQnwBg/o.jpg", "is_closed": false, "url": "https://www.yelp.com/biz/panda-express-san-marcos-4?adjust_creative=oncXGL2aPIKrtJdnWeFSnA&utm_campaign=yelp_api_v3&utm_medium=api_v3_business_search&utm_source=oncXGL2aPIKrtJdnWeFSnA", "review_count": 25, "categories": [{"alias": "chinese", "title": "Chinese"}, {"alias": "hotdogs", "title": "Fast Food"}], "rating": 2.5, "coordinates": {"latitude": 33.13365, "longitude": -117.12221}, "transactions": [], "price": "$", "location": {"address1": "708 Center Dr", "address2": null, "address3": null, "city": "San Marcos", "zip_code": "92069", "country": "US", "state": "CA", "display_address": ["708 Center Dr", "San Marcos, CA 92069"]}, "phone": "+17607398978", "display_phone": "(760) 739-8978", "distance": 4838.851959252839}, {"id": "nW4dlm1kYr1AcK5pxpt24g", "alias": "panda-wok-vista-4", "name": "Panda Wok", "image_url": "https://s3-media2.fl.yelpcdn.com/bphoto/KoZOCJzmAJMUwuanTM5Gqg/o.jpg", "is_closed": false, "url": "https://www.yelp.com/biz/panda-wok-vista-4?adjust_creative=oncXGL2aPIKrtJdnWeFSnA&utm_campaign=yelp_api_v3&utm_medium=api_v3_business_search&utm_source=oncXGL2aPIKrtJdnWeFSnA", "review_count": 48, "categories": [{"alias": "hotdogs", "title": "Fast Food"}, {"alias": "chinese", "title": "Chinese"}], "rating": 3.0, "coordinates": {"latitude": 33.1659035, "longitude": -117.2467837}, "transactions": ["pickup", "delivery"], "price": "$", "location": {"address1": "1611 S Melrose Dr", "address2": "Ste O", "address3": null, "city": "Vista", "zip_code": "92081", "country": "US", "state": "CA", "display_address": ["1611 S Melrose Dr", "Ste O", "Vista, CA 92081"]}, "phone": "+14422045700", "display_phone": "(442) 204-5700", "distance": 7482.227684438513}, {"id": "wABs0V1sTZd4IEzZfWk8GA", "alias": "pick-up-stix-escondido-2", "name": "Pick Up Stix", "image_url": "https://s3-media2.fl.yelpcdn.com/bphoto/2idJuG_mHRHtefdo8Olt-w/o.jpg", "is_closed": false, "url": "https://www.yelp.com/biz/pick-up-stix-escondido-2?adjust_creative=oncXGL2aPIKrtJdnWeFSnA&utm_campaign=yelp_api_v3&utm_medium=api_v3_business_search&utm_source=oncXGL2aPIKrtJdnWeFSnA", "review_count": 86, "categories": [{"alias": "asianfusion", "title": "Asian Fusion"}, {"alias": "chinese", "title": "Chinese"}], "rating": 3.0, "coordinates": {"latitude": 33.1130428658725, "longitude": -117.101114479064}, "transactions": ["pickup", "delivery"], "price": "$", "location": {"address1": "1284 Auto Pkwy", "address2": "Ste E", "address3": "", "city": "Escondido", "zip_code": "92029", "country": "US", "state": "CA", "display_address": ["1284 Auto Pkwy", "Ste E", "Escondido, CA 92029"]}, "phone": "+17604898533", "display_phone": "(760) 489-8533", "distance": 7431.899304397451}, {"id": "bqQBGt1XmJT6249aXlVXDw", "alias": "panda-wok-vista-2", "name": "Panda Wok", "image_url": "https://s3-media3.fl.yelpcdn.com/bphoto/pxlvWnkCX9HnrBVN8D3WSg/o.jpg", "is_closed": false, "url": "https://www.yelp.com/biz/panda-wok-vista-2?adjust_creative=oncXGL2aPIKrtJdnWeFSnA&utm_campaign=yelp_api_v3&utm_medium=api_v3_business_search&utm_source=oncXGL2aPIKrtJdnWeFSnA", "review_count": 57, "categories": [{"alias": "food", "title": "Food"}, {"alias": "chinese", "title": "Chinese"}, {"alias": "hotdogs", "title": "Fast Food"}], "rating": 3.5, "coordinates": {"latitude": 33.1943007998128, "longitude": -117.233854558456}, "transactions": [], "price": "$", "location": {"address1": "904 S Santa Fe Ave", "address2": "", "address3": null, "city": "Vista", "zip_code": "92084", "country": "US", "state": "CA", "display_address": ["904 S Santa Fe Ave", "Vista, CA 92084"]}, "phone": "+14422247378", "display_phone": "(442) 224-7378", "distance": 8135.41343004476}, {"id": "mspwZETSQkWbx01SkcLV2g", "alias": "chins-szechwan-cuisine-encinitas-encinitas", "name": "Chin's Szechwan Cuisine - Encinitas", "image_url": "https://s3-media2.fl.yelpcdn.com/bphoto/pUndntoAEanLjdhH9v5DMg/o.jpg", "is_closed": false, "url": "https://www.yelp.com/biz/chins-szechwan-cuisine-encinitas-encinitas?adjust_creative=oncXGL2aPIKrtJdnWeFSnA&utm_campaign=yelp_api_v3&utm_medium=api_v3_business_search&utm_source=oncXGL2aPIKrtJdnWeFSnA", "review_count": 312, "categories": [{"alias": "chinese", "title": "Chinese"}, {"alias": "asianfusion", "title": "Asian Fusion"}, {"alias": "soup", "title": "Soup"}], "rating": 4.0, "coordinates": {"latitude": 33.047369, "longitude": -117.278725}, "transactions": ["pickup", "delivery"], "price": "$$", "location": {"address1": "625 Encinitas Blvd", "address2": "", "address3": "", "city": "Encinitas", "zip_code": "92024", "country": "US", "state": "CA", "display_address": ["625 Encinitas Blvd", "Encinitas, CA 92024"]}, "phone": "+17607533903", "display_phone": "(760) 753-3903", "distance": 14355.054712417841}, {"id": "Cj0HSg9eLUpUaDijuQh19g", "alias": "chinatown-restaurant-encinitas-2", "name": "Chinatown Restaurant", "image_url": "https://s3-media2.fl.yelpcdn.com/bphoto/PDUegLO53CDirf-txIO9fQ/o.jpg", "is_closed": false, "url": "https://www.yelp.com/biz/chinatown-restaurant-encinitas-2?adjust_creative=oncXGL2aPIKrtJdnWeFSnA&utm_campaign=yelp_api_v3&utm_medium=api_v3_business_search&utm_source=oncXGL2aPIKrtJdnWeFSnA", "review_count": 154, "categories": [{"alias": "chinese", "title": "Chinese"}, {"alias": "italian", "title": "Italian"}], "rating": 4.0, "coordinates": {"latitude": 33.064755, "longitude": -117.300905}, "transactions": ["pickup", "delivery"], "price": "$", "location": {"address1": "118 Leucadia Blvd", "address2": "", "address3": "", "city": "Encinitas", "zip_code": "92024", "country": "US", "state": "CA", "display_address": ["118 Leucadia Blvd", "Encinitas, CA 92024"]}, "phone": "+17607530565", "display_phone": "(760) 753-0565", "distance": 14638.939778609176}, {"id": "6FL9seyNKnpMsugRBkMNEQ", "alias": "chinatown-express-oceanside", "name": "Chinatown Express", "image_url": "https://s3-media4.fl.yelpcdn.com/bphoto/6RvMCJ_vvFoInDQq_K48PQ/o.jpg", "is_closed": false, "url": "https://www.yelp.com/biz/chinatown-express-oceanside?adjust_creative=oncXGL2aPIKrtJdnWeFSnA&utm_campaign=yelp_api_v3&utm_medium=api_v3_business_search&utm_source=oncXGL2aPIKrtJdnWeFSnA", "review_count": 61, "categories": [{"alias": "chinese", "title": "Chinese"}], "rating": 3.0, "coordinates": {"latitude": 33.1844825744629, "longitude": -117.29369354248}, "transactions": [], "price": "$", "location": {"address1": "3910 Vista Way", "address2": "Ste 109", "address3": "", "city": "Oceanside", "zip_code": "92056", "country": "US", "state": "CA", "display_address": ["3910 Vista Way", "Ste 109", "Oceanside, CA 92056"]}, "phone": "+17608066567", "display_phone": "(760) 806-6567", "distance": 12163.441990461115}, {"id": "TwxxZav5ix_GUE2V0BP3YQ", "alias": "chins-gourmet-carlsbad", "name": "Chins Gourmet", "image_url": "https://s3-media2.fl.yelpcdn.com/bphoto/L1KI7gcSNz9bVcBg7NZiOw/o.jpg", "is_closed": false, "url": "https://www.yelp.com/biz/chins-gourmet-carlsbad?adjust_creative=oncXGL2aPIKrtJdnWeFSnA&utm_campaign=yelp_api_v3&utm_medium=api_v3_business_search&utm_source=oncXGL2aPIKrtJdnWeFSnA", "review_count": 35, "categories": [{"alias": "chinese", "title": "Chinese"}], "rating": 3.0, "coordinates": {"latitude": 33.1042138301478, "longitude": -117.266007228243}, "transactions": ["pickup", "delivery"], "price": "$$", "location": {"address1": "6990 El Camino Real", "address2": "", "address3": null, "city": "Carlsbad", "zip_code": "92009", "country": "US", "state": "CA", "display_address": ["6990 El Camino Real", "Carlsbad, CA 92009"]}, "phone": "+17604387886", "display_phone": "(760) 438-7886", "distance": 9578.179486634332}, {"id": "TXaU8fcElFrOYIt0nP7w5A", "alias": "overseas-restaurant-carlsbad-2", "name": "Overseas Restaurant", "image_url": "https://s3-media1.fl.yelpcdn.com/bphoto/ik35nbDskUfexstOJoOi4Q/o.jpg", "is_closed": false, "url": "https://www.yelp.com/biz/overseas-restaurant-carlsbad-2?adjust_creative=oncXGL2aPIKrtJdnWeFSnA&utm_campaign=yelp_api_v3&utm_medium=api_v3_business_search&utm_source=oncXGL2aPIKrtJdnWeFSnA", "review_count": 219, "categories": [{"alias": "chinese", "title": "Chinese"}], "rating": 3.5, "coordinates": {"latitude": 33.1621017, "longitude": -117.3490593}, "transactions": [], "price": "$$", "location": {"address1": "2820 Roosevelt St", "address2": "", "address3": "", "city": "Carlsbad", "zip_code": "92008", "country": "US", "state": "CA", "display_address": ["2820 Roosevelt St", "Carlsbad, CA 92008"]}, "phone": "+17607290348", "display_phone": "(760) 729-0348", "distance": 16529.162109988236}, {"id": "QTaGvtkForEnB7vFNwegQw", "alias": "hunan-chinese-restaurant-san-diego", "name": "Hunan Chinese Restaurant", "image_url": "https://s3-media3.fl.yelpcdn.com/bphoto/n7A1UOjmmOBilDLdPbbOnw/o.jpg", "is_closed": false, "url": "https://www.yelp.com/biz/hunan-chinese-restaurant-san-diego?adjust_creative=oncXGL2aPIKrtJdnWeFSnA&utm_campaign=yelp_api_v3&utm_medium=api_v3_business_search&utm_source=oncXGL2aPIKrtJdnWeFSnA", "review_count": 174, "categories": [{"alias": "chinese", "title": "Chinese"}], "rating": 3.5, "coordinates": {"latitude": 33.017385, "longitude": -117.074932}, "transactions": ["pickup", "delivery"], "price": "$$", "location": {"address1": "16719 Bernardo Center Dr", "address2": "", "address3": "", "city": "San Diego", "zip_code": "92128", "country": "US", "state": "CA", "display_address": ["16719 Bernardo Center Dr", "San Diego, CA 92128"]}, "phone": "+18584878131", "display_phone": "(858) 487-8131", "distance": 16570.579625488113}, {"id": "ubSQzFIeoyVJuU6i8u_pYw", "alias": "panda-express-escondido-3", "name": "Panda Express", "image_url": "https://s3-media2.fl.yelpcdn.com/bphoto/SSW4-a_wBJkEF4QKQcdlxA/o.jpg", "is_closed": false, "url": "https://www.yelp.com/biz/panda-express-escondido-3?adjust_creative=oncXGL2aPIKrtJdnWeFSnA&utm_campaign=yelp_api_v3&utm_medium=api_v3_business_search&utm_source=oncXGL2aPIKrtJdnWeFSnA", "review_count": 63, "categories": [{"alias": "chinese", "title": "Chinese"}, {"alias": "hotdogs", "title": "Fast Food"}], "rating": 3.5, "coordinates": {"latitude": 33.127927, "longitude": -117.093869}, "transactions": [], "price": "$", "location": {"address1": "600 W Mission Ave", "address2": "", "address3": "", "city": "Escondido", "zip_code": "92025", "country": "US", "state": "CA", "display_address": ["600 W Mission Ave", "Escondido, CA 92025"]}, "phone": "+17607815117", "display_phone": "(760) 781-5117", "distance": 7550.084978004273}, {"id": "1C7uSqIAgMO7p2cFzZvfGA", "alias": "chopsticks-chinese-cuisine-poway", "name": "Chopsticks Chinese Cuisine", "image_url": "https://s3-media1.fl.yelpcdn.com/bphoto/YDW8jxzzbgMCEc4av-1JrA/o.jpg", "is_closed": false, "url": "https://www.yelp.com/biz/chopsticks-chinese-cuisine-poway?adjust_creative=oncXGL2aPIKrtJdnWeFSnA&utm_campaign=yelp_api_v3&utm_medium=api_v3_business_search&utm_source=oncXGL2aPIKrtJdnWeFSnA", "review_count": 224, "categories": [{"alias": "chinese", "title": "Chinese"}], "rating": 4.0, "coordinates": {"latitude": 32.9822686, "longitude": -117.0620243}, "transactions": [], "price": "$", "location": {"address1": "14885 Pomerado Rd", "address2": "", "address3": "", "city": "Poway", "zip_code": "92064", "country": "US", "state": "CA", "display_address": ["14885 Pomerado Rd", "Poway, CA 92064"]}, "phone": "+18587482488", "display_phone": "(858) 748-2488", "distance": 20583.50580336695}, {"id": "DXRYScpMT3uzD_sA5OfTIA", "alias": "the-mandarin-oceanside", "name": "The Mandarin", "image_url": "https://s3-media2.fl.yelpcdn.com/bphoto/-DiMbAL30nVwquB8SI46TA/o.jpg", "is_closed": false, "url": "https://www.yelp.com/biz/the-mandarin-oceanside?adjust_creative=oncXGL2aPIKrtJdnWeFSnA&utm_campaign=yelp_api_v3&utm_medium=api_v3_business_search&utm_source=oncXGL2aPIKrtJdnWeFSnA", "review_count": 240, "categories": [{"alias": "chinese", "title": "Chinese"}], "rating": 3.5, "coordinates": {"latitude": 33.1999772279184, "longitude": -117.374549718524}, "transactions": [], "price": "$", "location": {"address1": "1058 Mission Ave", "address2": "", "address3": "", "city": "Oceanside", "zip_code": "92054", "country": "US", "state": "CA", "display_address": ["1058 Mission Ave", "Oceanside, CA 92054"]}, "phone": "+17604390288", "display_phone": "(760) 439-0288", "distance": 19825.770138882206}, {"id": "bwu_8ScPI7H9EW89-C1NLA", "alias": "pick-up-stix-carlsbad-4", "name": "Pick Up Stix", "image_url": "https://s3-media3.fl.yelpcdn.com/bphoto/Xkl0gzPtIxojJ0vkalFiQw/o.jpg", "is_closed": false, "url": "https://www.yelp.com/biz/pick-up-stix-carlsbad-4?adjust_creative=oncXGL2aPIKrtJdnWeFSnA&utm_campaign=yelp_api_v3&utm_medium=api_v3_business_search&utm_source=oncXGL2aPIKrtJdnWeFSnA", "review_count": 69, "categories": [{"alias": "asianfusion", "title": "Asian Fusion"}, {"alias": "chinese", "title": "Chinese"}], "rating": 3.5, "coordinates": {"latitude": 33.12669, "longitude": -117.25386}, "transactions": ["pickup", "delivery"], "price": "$", "location": {"address1": "2641 Gateway Rd", "address2": "Ste 101", "address3": "", "city": "Carlsbad", "zip_code": "92009", "country": "US", "state": "CA", "display_address": ["2641 Gateway Rd", "Ste 101", "Carlsbad, CA 92009"]}, "phone": "+17608041301", "display_phone": "(760) 804-1301", "distance": 7701.245419761458}, {"id": "uaSgyTtZvFSidP-kO1RWZA", "alias": "pick-up-stix-vista", "name": "Pick Up Stix", "image_url": "https://s3-media3.fl.yelpcdn.com/bphoto/vEY_Psjh9myx8DrsN3cUFQ/o.jpg", "is_closed": false, "url": "https://www.yelp.com/biz/pick-up-stix-vista?adjust_creative=oncXGL2aPIKrtJdnWeFSnA&utm_campaign=yelp_api_v3&utm_medium=api_v3_business_search&utm_source=oncXGL2aPIKrtJdnWeFSnA", "review_count": 72, "categories": [{"alias": "chinese", "title": "Chinese"}, {"alias": "asianfusion", "title": "Asian Fusion"}], "rating": 3.0, "coordinates": {"latitude": 33.1925087, "longitude": -117.2537253}, "transactions": ["pickup", "delivery"], "price": "$", "location": {"address1": "251 South Melrose Dr", "address2": "Ste 303", "address3": "", "city": "Vista", "zip_code": "92081", "country": "US", "state": "CA", "display_address": ["251 South Melrose Dr", "Ste 303", "Vista, CA 92081"]}, "phone": "+17607589808", "display_phone": "(760) 758-9808", "distance": 9391.715772521193}, {"id": "VrKJLtTWIOUVUualtbJ_sQ", "alias": "quik-wok-oceanside-oceanside", "name": "Quik Wok - Oceanside", "image_url": "https://s3-media2.fl.yelpcdn.com/bphoto/D3clNYBd91x3qwpVpHvZFw/o.jpg", "is_closed": false, "url": "https://www.yelp.com/biz/quik-wok-oceanside-oceanside?adjust_creative=oncXGL2aPIKrtJdnWeFSnA&utm_campaign=yelp_api_v3&utm_medium=api_v3_business_search&utm_source=oncXGL2aPIKrtJdnWeFSnA", "review_count": 206, "categories": [{"alias": "chinese", "title": "Chinese"}], "rating": 3.5, "coordinates": {"latitude": 33.1830715830375, "longitude": -117.341621920268}, "transactions": [], "price": "$", "location": {"address1": "2184 Vista Way", "address2": "", "address3": "", "city": "Oceanside", "zip_code": "92054", "country": "US", "state": "CA", "display_address": ["2184 Vista Way", "Oceanside, CA 92054"]}, "phone": "+17604392228", "display_phone": "(760) 439-2228", "distance": 16333.837147688819}, {"id": "Nqse1g2Pa2I02iPYLJcNmQ", "alias": "dragon-chinese-restaurant-san-diego-2", "name": "Dragon Chinese Restaurant", "image_url": "https://s3-media2.fl.yelpcdn.com/bphoto/ueHQrRp-fOrnEXJRJeer2w/o.jpg", "is_closed": false, "url": "https://www.yelp.com/biz/dragon-chinese-restaurant-san-diego-2?adjust_creative=oncXGL2aPIKrtJdnWeFSnA&utm_campaign=yelp_api_v3&utm_medium=api_v3_business_search&utm_source=oncXGL2aPIKrtJdnWeFSnA", "review_count": 123, "categories": [{"alias": "chinese", "title": "Chinese"}], "rating": 3.5, "coordinates": {"latitude": 32.98415, "longitude": -117.07487}, "transactions": ["pickup", "delivery"], "price": "$", "location": {"address1": "12075 Carmel Mountain Rd", "address2": "Ste 211", "address3": "", "city": "San Diego", "zip_code": "92128", "country": "US", "state": "CA", "display_address": ["12075 Carmel Mountain Rd", "Ste 211", "San Diego, CA 92128"]}, "phone": "+18585929898", "display_phone": "(858) 592-9898", "distance": 19914.297138236085}, {"id": "uOmzq7DCdfHo638KoGEh2w", "alias": "pick-up-stix-encinitas-2", "name": "Pick Up Stix", "image_url": "https://s3-media2.fl.yelpcdn.com/bphoto/6CnwwkTL7Y6PunQ0yyqrCg/o.jpg", "is_closed": false, "url": "https://www.yelp.com/biz/pick-up-stix-encinitas-2?adjust_creative=oncXGL2aPIKrtJdnWeFSnA&utm_campaign=yelp_api_v3&utm_medium=api_v3_business_search&utm_source=oncXGL2aPIKrtJdnWeFSnA", "review_count": 20, "categories": [{"alias": "asianfusion", "title": "Asian Fusion"}, {"alias": "chinese", "title": "Chinese"}], "rating": 4.0, "coordinates": {"latitude": 33.0465057439054, "longitude": -117.257539889047}, "transactions": [], "price": "$", "location": {"address1": "1460 Encinitas Blvd", "address2": "", "address3": null, "city": "Encinitas", "zip_code": "92024", "country": "US", "state": "CA", "display_address": ["1460 Encinitas Blvd", "Encinitas, CA 92024"]}, "phone": "+17606326678", "display_phone": "(760) 632-6678", "distance": 13161.387800612818}], "total": 73, "region": {"center": {"longitude": -117.17330932617188, "latitude": 33.141533511091374}}}