{"businesses": [{"id": "GateaPPRSQAEmlO03I2Ovg", "alias": "tinas-deli-san-marcos", "name": "Tina's Deli", "image_url": "https://s3-media1.fl.yelpcdn.com/bphoto/UBb_JIGMzgVoeFYsJq4eTA/o.jpg", "is_closed": false, "url": "https://www.yelp.com/biz/tinas-deli-san-marcos?adjust_creative=oncXGL2aPIKrtJdnWeFSnA&utm_campaign=yelp_api_v3&utm_medium=api_v3_business_search&utm_source=oncXGL2aPIKrtJdnWeFSnA", "review_count": 207, "categories": [{"alias": "sandwiches", "title": "Sandwiches"}, {"alias": "delis", "title": "Delis"}], "rating": 4.5, "coordinates": {"latitude": 33.1519447, "longitude": -117.1617649}, "transactions": [], "price": "$", "location": {"address1": "760 N Twin Oaks Valley Rd", "address2": "Ste D", "address3": "", "city": "San Marcos", "zip_code": "92069", "country": "US", "state": "CA", "display_address": ["760 N Twin Oaks Valley Rd", "Ste D", "San Marcos, CA 92069"]}, "phone": "+17604714808", "display_phone": "(760) 471-4808", "distance": 1572.6285912047392}, {"id": "67Ka_iWECfjXxuBs_lc6Jg", "alias": "patron-meat-market-and-deli-san-marcos", "name": "Patron Meat Market & Deli", "image_url": "https://s3-media3.fl.yelpcdn.com/bphoto/-c1Lp7jOh6OmmVfSpyKxlg/o.jpg", "is_closed": false, "url": "https://www.yelp.com/biz/patron-meat-market-and-deli-san-marcos?adjust_creative=oncXGL2aPIKrtJdnWeFSnA&utm_campaign=yelp_api_v3&utm_medium=api_v3_business_search&utm_source=oncXGL2aPIKrtJdnWeFSnA", "review_count": 20, "categories": [{"alias": "grocery", "title": "Grocery"}, {"alias": "meats", "title": "Meat Shops"}, {"alias": "delis", "title": "Delis"}], "rating": 4.5, "coordinates": {"latitude": 33.14114, "longitude": -117.16572}, "transactions": [], "price": "$", "location": {"address1": "204 W San Marcos Blvd", "address2": "Ste 101", "address3": "", "city": "San Marcos", "zip_code": "92069", "country": "US", "state": "CA", "display_address": ["204 W San Marcos Blvd", "Ste 101", "San Marcos, CA 92069"]}, "phone": "+17607360086", "display_phone": "(760) 736-0086", "distance": 722.748522372052}, {"id": "TtCzoOxZn5NW1OxXDwd29Q", "alias": "san-marcos-deli-san-marcos", "name": "San Marcos Deli", "image_url": "https://s3-media1.fl.yelpcdn.com/bphoto/yArb8sSCWs1kvV6B6qc78w/o.jpg", "is_closed": false, "url": "https://www.yelp.com/biz/san-marcos-deli-san-marcos?adjust_creative=oncXGL2aPIKrtJdnWeFSnA&utm_campaign=yelp_api_v3&utm_medium=api_v3_business_search&utm_source=oncXGL2aPIKrtJdnWeFSnA", "review_count": 58, "categories": [{"alias": "delis", "title": "Delis"}, {"alias": "cafes", "title": "Cafes"}, {"alias": "sandwiches", "title": "Sandwiches"}], "rating": 4.5, "coordinates": {"latitude": 33.1406173706055, "longitude": -117.180389404297}, "transactions": ["delivery", "pickup"], "price": "$", "location": {"address1": "125 Vallecitos De Oro", "address2": "Ste K", "address3": "", "city": "San Marcos", "zip_code": "92069", "country": "US", "state": "CA", "display_address": ["125 Vallecitos De Oro", "Ste K", "San Marcos, CA 92069"]}, "phone": "+17607529844", "display_phone": "(760) 752-9844", "distance": 693.0183398996052}, {"id": "X9o5yDQvuMicYH50Lrvr8g", "alias": "tip-top-meats-and-european-delicatessen-carlsbad", "name": "Tip Top Meats & European Delicatessen", "image_url": "https://s3-media3.fl.yelpcdn.com/bphoto/w0tz89Qs5mwmXSGy_IYrjg/o.jpg", "is_closed": false, "url": "https://www.yelp.com/biz/tip-top-meats-and-european-delicatessen-carlsbad?adjust_creative=oncXGL2aPIKrtJdnWeFSnA&utm_campaign=yelp_api_v3&utm_medium=api_v3_business_search&utm_source=oncXGL2aPIKrtJdnWeFSnA", "review_count": 1514, "categories": [{"alias": "meats", "title": "Meat Shops"}, {"alias": "delis", "title": "Delis"}], "rating": 4.0, "coordinates": {"latitude": 33.1197299, "longitude": -117.31853}, "transactions": [], "price": "$", "location": {"address1": "6118 Paseo Del Norte", "address2": "", "address3": "", "city": "Carlsbad", "zip_code": "92011", "country": "US", "state": "CA", "display_address": ["6118 Paseo Del Norte", "Carlsbad, CA 92011"]}, "phone": "+17604382620", "display_phone": "(760) 438-2620", "distance": 13737.904908442113}, {"id": "ICzXLXsx5L1VAoCm3su0ow", "alias": "boba-hut-and-deli-vista", "name": "Boba Hut And Deli", "image_url": "https://s3-media2.fl.yelpcdn.com/bphoto/s6QShhZJQhWb5ZxauxUI9A/o.jpg", "is_closed": false, "url": "https://www.yelp.com/biz/boba-hut-and-deli-vista?adjust_creative=oncXGL2aPIKrtJdnWeFSnA&utm_campaign=yelp_api_v3&utm_medium=api_v3_business_search&utm_source=oncXGL2aPIKrtJdnWeFSnA", "review_count": 115, "categories": [{"alias": "juicebars", "title": "Juice Bars & Smoothies"}, {"alias": "bubbletea", "title": "Bubble Tea"}, {"alias": "delis", "title": "Delis"}], "rating": 4.0, "coordinates": {"latitude": 33.16585, "longitude": -117.24543}, "transactions": [], "price": "$", "location": {"address1": "1680 S Melrose Dr", "address2": "Ste 101", "address3": "", "city": "Vista", "zip_code": "92081", "country": "US", "state": "CA", "display_address": ["1680 S Melrose Dr", "Ste 101", "Vista, CA 92081"]}, "phone": "+17602245848", "display_phone": "(760) 224-5848", "distance": 7281.99643794095}, {"id": "3uB95QdjNeKLqgacUi5zZA", "alias": "hungry-bear-deli-vista-3", "name": "Hungry Bear Deli", "image_url": "https://s3-media4.fl.yelpcdn.com/bphoto/D-Zx1rFya6pEneGjl0tQpw/o.jpg", "is_closed": false, "url": "https://www.yelp.com/biz/hungry-bear-deli-vista-3?adjust_creative=oncXGL2aPIKrtJdnWeFSnA&utm_campaign=yelp_api_v3&utm_medium=api_v3_business_search&utm_source=oncXGL2aPIKrtJdnWeFSnA", "review_count": 578, "categories": [{"alias": "delis", "title": "Delis"}, {"alias": "sandwiches", "title": "Sandwiches"}, {"alias": "salad", "title": "Salad"}], "rating": 4.5, "coordinates": {"latitude": 33.14637, "longitude": -117.24163}, "transactions": [], "price": "$", "location": {"address1": "2205 S Melrose Dr", "address2": "Ste 103", "address3": "", "city": "Vista", "zip_code": "92081", "country": "US", "state": "CA", "display_address": ["2205 S Melrose Dr", "Ste 103", "Vista, CA 92081"]}, "phone": "+17602952295", "display_phone": "(760) 295-2295", "distance": 6380.464752128336}, {"id": "Kq3ZmMu-fY4bvKnqvyAXAw", "alias": "tropical-juices-and-deli-vista", "name": "Tropical Juices & Deli", "image_url": "https://s3-media1.fl.yelpcdn.com/bphoto/66XThM4WCVg5pJwWo0kAww/o.jpg", "is_closed": false, "url": "https://www.yelp.com/biz/tropical-juices-and-deli-vista?adjust_creative=oncXGL2aPIKrtJdnWeFSnA&utm_campaign=yelp_api_v3&utm_medium=api_v3_business_search&utm_source=oncXGL2aPIKrtJdnWeFSnA", "review_count": 192, "categories": [{"alias": "juicebars", "title": "Juice Bars & Smoothies"}, {"alias": "delis", "title": "Delis"}, {"alias": "sandwiches", "title": "Sandwiches"}], "rating": 4.5, "coordinates": {"latitude": 33.1564714, "longitude": -117.2237797}, "transactions": ["pickup"], "price": "$", "location": {"address1": "1116 Sycamore Ave", "address2": "", "address3": "", "city": "Vista", "zip_code": "92081", "country": "US", "state": "CA", "display_address": ["1116 Sycamore Ave", "Vista, CA 92081"]}, "phone": "+17605987039", "display_phone": "(760) 598-7039", "distance": 4929.436395505483}, {"id": "lPFKybOVx2gRLClTzIujdg", "alias": "bologna-gourmet-carlsbad", "name": "Bologna Gourmet", "image_url": "https://s3-media3.fl.yelpcdn.com/bphoto/MdIdPh2bo_Dme675CPztRw/o.jpg", "is_closed": false, "url": "https://www.yelp.com/biz/bologna-gourmet-carlsbad?adjust_creative=oncXGL2aPIKrtJdnWeFSnA&utm_campaign=yelp_api_v3&utm_medium=api_v3_business_search&utm_source=oncXGL2aPIKrtJdnWeFSnA", "review_count": 150, "categories": [{"alias": "delis", "title": "Delis"}, {"alias": "italian", "title": "Italian"}, {"alias": "pastashops", "title": "Pasta Shops"}], "rating": 4.5, "coordinates": {"latitude": 33.12392, "longitude": -117.27351}, "transactions": ["pickup"], "price": "$", "location": {"address1": "6150 Yarrow Dr", "address2": null, "address3": "", "city": "Carlsbad", "zip_code": "92011", "country": "US", "state": "CA", "display_address": ["6150 Yarrow Dr", "Carlsbad, CA 92011"]}, "phone": "+17609290877", "display_phone": "(760) 929-0877", "distance": 9541.487840826912}, {"id": "lENUpZIYiGYyj3MQz66yXw", "alias": "ranch-market-vista-2", "name": "Ranch Market", "image_url": "", "is_closed": false, "url": "https://www.yelp.com/biz/ranch-market-vista-2?adjust_creative=oncXGL2aPIKrtJdnWeFSnA&utm_campaign=yelp_api_v3&utm_medium=api_v3_business_search&utm_source=oncXGL2aPIKrtJdnWeFSnA", "review_count": 1, "categories": [{"alias": "delis", "title": "Delis"}, {"alias": "grocery", "title": "Grocery"}, {"alias": "juicebars", "title": "Juice Bars & Smoothies"}], "rating": 4.0, "coordinates": {"latitude": 33.13312, "longitude": -117.22957}, "transactions": [], "location": {"address1": "3225 Business Park Dr", "address2": "", "address3": null, "city": "Vista", "zip_code": "92081", "country": "US", "state": "CA", "display_address": ["3225 Business Park Dr", "Vista, CA 92081"]}, "phone": "+17605997043", "display_phone": "(760) 599-7043", "distance": 5324.830967053029}, {"id": "-7sl6bSICSFzNFqmlqdDrQ", "alias": "the-pointed-roof-delicatessen-escondido", "name": "The Pointed Roof Delicatessen", "image_url": "https://s3-media1.fl.yelpcdn.com/bphoto/1-vD3woH6n3d65MLkD466w/o.jpg", "is_closed": false, "url": "https://www.yelp.com/biz/the-pointed-roof-delicatessen-escondido?adjust_creative=oncXGL2aPIKrtJdnWeFSnA&utm_campaign=yelp_api_v3&utm_medium=api_v3_business_search&utm_source=oncXGL2aPIKrtJdnWeFSnA", "review_count": 175, "categories": [{"alias": "delis", "title": "Delis"}, {"alias": "sandwiches", "title": "Sandwiches"}, {"alias": "breakfast_brunch", "title": "Breakfast & Brunch"}], "rating": 4.5, "coordinates": {"latitude": 33.249429, "longitude": -117.1463397}, "transactions": [], "price": "$", "location": {"address1": "8751 Old Castle Rd", "address2": "Ste C", "address3": "", "city": "Escondido", "zip_code": "92026", "country": "US", "state": "CA", "display_address": ["8751 Old Castle Rd", "Ste C", "Escondido, CA 92026"]}, "phone": "+17607499866", "display_phone": "(760) 749-9866", "distance": 12257.061322546064}, {"id": "UI4Ly-jMvfTSqcrtht8PAg", "alias": "feliccias-italian-restaurant-deli-and-catering-vista", "name": "Feliccia's Italian Restaurant, Deli & Catering", "image_url": "https://s3-media3.fl.yelpcdn.com/bphoto/VQ-18Am3LRTNW9fStBY22g/o.jpg", "is_closed": false, "url": "https://www.yelp.com/biz/feliccias-italian-restaurant-deli-and-catering-vista?adjust_creative=oncXGL2aPIKrtJdnWeFSnA&utm_campaign=yelp_api_v3&utm_medium=api_v3_business_search&utm_source=oncXGL2aPIKrtJdnWeFSnA", "review_count": 104, "categories": [{"alias": "delis", "title": "Delis"}, {"alias": "italian", "title": "Italian"}], "rating": 4.5, "coordinates": {"latitude": 33.1920623779297, "longitude": -117.230804443359}, "transactions": ["delivery", "pickup"], "price": "$$", "location": {"address1": "1011 S Santa Fe Ave", "address2": "Ste C", "address3": "", "city": "Vista", "zip_code": "92083", "country": "US", "state": "CA", "display_address": ["1011 S Santa Fe Ave", "Ste C", "Vista, CA 92083"]}, "phone": "+17607589167", "display_phone": "(760) 758-9167", "distance": 7752.564345388817}, {"id": "XdqSjNSl02JUydM7MzYFCg", "alias": "twin-oaks-market-and-deli-san-marcos", "name": "Twin Oaks Market & Deli", "image_url": "https://s3-media2.fl.yelpcdn.com/bphoto/YEl_4OZHMoQHj-hJdqIklA/o.jpg", "is_closed": false, "url": "https://www.yelp.com/biz/twin-oaks-market-and-deli-san-marcos?adjust_creative=oncXGL2aPIKrtJdnWeFSnA&utm_campaign=yelp_api_v3&utm_medium=api_v3_business_search&utm_source=oncXGL2aPIKrtJdnWeFSnA", "review_count": 9, "categories": [{"alias": "grocery", "title": "Grocery"}, {"alias": "delis", "title": "Delis"}], "rating": 4.5, "coordinates": {"latitude": 33.1826361, "longitude": -117.1560743}, "transactions": [], "price": "$", "location": {"address1": "2148 N Twin Oaks Valley Rd", "address2": "", "address3": "", "city": "San Marcos", "zip_code": "92069", "country": "US", "state": "CA", "display_address": ["2148 N Twin Oaks Valley Rd", "San Marcos, CA 92069"]}, "phone": "+17607449457", "display_phone": "(760) 744-9457", "distance": 4802.663017039351}, {"id": "NQ4QOOTbYW9MfseqwRFZcQ", "alias": "2051-cafe-carlsbad", "name": "2051 Cafe", "image_url": "https://s3-media3.fl.yelpcdn.com/bphoto/2FSNyrghNITP3L21VkbrPw/o.jpg", "is_closed": false, "url": "https://www.yelp.com/biz/2051-cafe-carlsbad?adjust_creative=oncXGL2aPIKrtJdnWeFSnA&utm_campaign=yelp_api_v3&utm_medium=api_v3_business_search&utm_source=oncXGL2aPIKrtJdnWeFSnA", "review_count": 82, "categories": [{"alias": "cafes", "title": "Cafes"}, {"alias": "delis", "title": "Delis"}, {"alias": "italian", "title": "Italian"}], "rating": 5.0, "coordinates": {"latitude": 33.1224971661327, "longitude": -117.276416666667}, "transactions": [], "price": "$$", "location": {"address1": "2051 Palomar Airport Rd", "address2": "Ste 175", "address3": null, "city": "Carlsbad", "zip_code": "92011", "country": "US", "state": "CA", "display_address": ["2051 Palomar Airport Rd", "Ste 175", "Carlsbad, CA 92011"]}, "phone": "+17608142831", "display_phone": "(760) 814-2831", "distance": 9831.517865947755}, {"id": "-9Dl_yQTDNYKK503bHkWqw", "alias": "jersey-mikes-subs-san-marcos-3", "name": "Jersey Mike's Subs", "image_url": "https://s3-media2.fl.yelpcdn.com/bphoto/cAJqsdotNbKBBPOWM1fXmA/o.jpg", "is_closed": false, "url": "https://www.yelp.com/biz/jersey-mikes-subs-san-marcos-3?adjust_creative=oncXGL2aPIKrtJdnWeFSnA&utm_campaign=yelp_api_v3&utm_medium=api_v3_business_search&utm_source=oncXGL2aPIKrtJdnWeFSnA", "review_count": 144, "categories": [{"alias": "sandwiches", "title": "Sandwiches"}, {"alias": "delis", "title": "Delis"}, {"alias": "hotdogs", "title": "Fast Food"}], "rating": 3.5, "coordinates": {"latitude": 33.1359141203368, "longitude": -117.178163414471}, "transactions": [], "price": "$", "location": {"address1": "595 Grand Ave", "address2": "", "address3": "F103", "city": "San Marcos", "zip_code": "92078", "country": "US", "state": "CA", "display_address": ["595 Grand Ave", "F103", "San Marcos, CA 92078"]}, "phone": "+17604712211", "display_phone": "(760) 471-2211", "distance": 771.1683593888023}, {"id": "7i-PPdA1TPfs4DSz-fmw3Q", "alias": "hello-deli-vista", "name": "Hello Deli", "image_url": "https://s3-media4.fl.yelpcdn.com/bphoto/8vXC_DipoXMNwYKKDMpQJA/o.jpg", "is_closed": false, "url": "https://www.yelp.com/biz/hello-deli-vista?adjust_creative=oncXGL2aPIKrtJdnWeFSnA&utm_campaign=yelp_api_v3&utm_medium=api_v3_business_search&utm_source=oncXGL2aPIKrtJdnWeFSnA", "review_count": 86, "categories": [{"alias": "delis", "title": "Delis"}, {"alias": "sandwiches", "title": "Sandwiches"}], "rating": 4.5, "coordinates": {"latitude": 33.147847, "longitude": -117.216487}, "transactions": ["delivery", "pickup"], "price": "$", "location": {"address1": "2820 La Mirada Dr", "address2": "Ste A", "address3": "", "city": "Vista", "zip_code": "92081", "country": "US", "state": "CA", "display_address": ["2820 La Mirada Dr", "Ste A", "Vista, CA 92081"]}, "phone": "+17605981055", "display_phone": "(760) 598-1055", "distance": 4080.791725140779}, {"id": "ksDLZ3KeR5NeyZh6tAKJ2A", "alias": "the-yellow-deli-valley-center", "name": "The Yellow Deli", "image_url": "https://s3-media2.fl.yelpcdn.com/bphoto/d3hqdJ-QcOKyEmriAhusSw/o.jpg", "is_closed": false, "url": "https://www.yelp.com/biz/the-yellow-deli-valley-center?adjust_creative=oncXGL2aPIKrtJdnWeFSnA&utm_campaign=yelp_api_v3&utm_medium=api_v3_business_search&utm_source=oncXGL2aPIKrtJdnWeFSnA", "review_count": 216, "categories": [{"alias": "delis", "title": "Delis"}, {"alias": "coffee", "title": "Coffee & Tea"}, {"alias": "sandwiches", "title": "Sandwiches"}], "rating": 4.5, "coordinates": {"latitude": 33.2883211575229, "longitude": -117.082933131198}, "transactions": [], "price": "$", "location": {"address1": "32011 Lilac Rd", "address2": null, "address3": "", "city": "Valley Center", "zip_code": "92082", "country": "US", "state": "CA", "display_address": ["32011 Lilac Rd", "Valley Center, CA 92082"]}, "phone": "+17607422064", "display_phone": "(760) 742-2064", "distance": 18360.137787985135}, {"id": "xr-G2HBUXlX0kigca9kCKw", "alias": "friends-yogurt-and-deli-san-marcos", "name": "Friends Yogurt & Deli", "image_url": "https://s3-media1.fl.yelpcdn.com/bphoto/HmHLShBjztVwgXUwhuM1Mw/o.jpg", "is_closed": false, "url": "https://www.yelp.com/biz/friends-yogurt-and-deli-san-marcos?adjust_creative=oncXGL2aPIKrtJdnWeFSnA&utm_campaign=yelp_api_v3&utm_medium=api_v3_business_search&utm_source=oncXGL2aPIKrtJdnWeFSnA", "review_count": 48, "categories": [{"alias": "icecream", "title": "Ice Cream & Frozen Yogurt"}, {"alias": "juicebars", "title": "Juice Bars & Smoothies"}, {"alias": "delis", "title": "Delis"}], "rating": 4.0, "coordinates": {"latitude": 33.1564466, "longitude": -117.1293066}, "transactions": [], "price": "$", "location": {"address1": "983 Woodland Pkwy", "address2": "", "address3": "", "city": "San Marcos", "zip_code": "92069", "country": "US", "state": "CA", "display_address": ["983 Woodland Pkwy", "San Marcos, CA 92069"]}, "phone": "+17607405109", "display_phone": "(760) 740-5109", "distance": 4405.849593535974}, {"id": "T7clD90oNlDnp9qlvziAOw", "alias": "on-a-roll-carlsbad", "name": "On A Roll", "image_url": "https://s3-media2.fl.yelpcdn.com/bphoto/hfliA0C0D5yL6SCzJG4wUA/o.jpg", "is_closed": false, "url": "https://www.yelp.com/biz/on-a-roll-carlsbad?adjust_creative=oncXGL2aPIKrtJdnWeFSnA&utm_campaign=yelp_api_v3&utm_medium=api_v3_business_search&utm_source=oncXGL2aPIKrtJdnWeFSnA", "review_count": 78, "categories": [{"alias": "sandwiches", "title": "Sandwiches"}, {"alias": "delis", "title": "Delis"}], "rating": 4.5, "coordinates": {"latitude": 33.131852, "longitude": -117.253401}, "transactions": [], "price": "$", "location": {"address1": "2794 Loker Ave W", "address2": "Ste 110", "address3": "", "city": "Carlsbad", "zip_code": "92008", "country": "US", "state": "CA", "display_address": ["2794 Loker Ave W", "Ste 110", "Carlsbad, CA 92008"]}, "phone": "+17604318148", "display_phone": "(760) 431-8148", "distance": 7534.72265695287}, {"id": "TSSfmgrpOfGomSz9fTQUmA", "alias": "yoshino-japanese-deli-carlsbad", "name": "Yoshino Japanese Deli", "image_url": "https://s3-media1.fl.yelpcdn.com/bphoto/8P632tFx8oym5M-7pqfemA/o.jpg", "is_closed": false, "url": "https://www.yelp.com/biz/yoshino-japanese-deli-carlsbad?adjust_creative=oncXGL2aPIKrtJdnWeFSnA&utm_campaign=yelp_api_v3&utm_medium=api_v3_business_search&utm_source=oncXGL2aPIKrtJdnWeFSnA", "review_count": 726, "categories": [{"alias": "japanese", "title": "Japanese"}, {"alias": "sushi", "title": "Sushi Bars"}, {"alias": "delis", "title": "Delis"}], "rating": 4.5, "coordinates": {"latitude": 33.1603163, "longitude": -117.3495182}, "transactions": [], "price": "$", "location": {"address1": "2913 State St", "address2": "", "address3": "", "city": "Carlsbad", "zip_code": "92008", "country": "US", "state": "CA", "display_address": ["2913 State St", "Carlsbad, CA 92008"]}, "phone": "+17608890309", "display_phone": "(760) 889-0309", "distance": 16547.933874478837}, {"id": "iET8sxPypa37sY8vQ7mUiw", "alias": "meadows-deli-market-escondido", "name": "Meadows Deli Market", "image_url": "https://s3-media1.fl.yelpcdn.com/bphoto/87ySYytIdQWREC9Pgwnohg/o.jpg", "is_closed": false, "url": "https://www.yelp.com/biz/meadows-deli-market-escondido?adjust_creative=oncXGL2aPIKrtJdnWeFSnA&utm_campaign=yelp_api_v3&utm_medium=api_v3_business_search&utm_source=oncXGL2aPIKrtJdnWeFSnA", "review_count": 45, "categories": [{"alias": "grocery", "title": "Grocery"}, {"alias": "delis", "title": "Delis"}], "rating": 4.5, "coordinates": {"latitude": 33.218065003759, "longitude": -117.10911209642}, "transactions": [], "price": "$", "location": {"address1": "27980 Oak Ranch Rd", "address2": "", "address3": "", "city": "Escondido", "zip_code": "92026", "country": "US", "state": "CA", "display_address": ["27980 Oak Ranch Rd", "Escondido, CA 92026"]}, "phone": "+17607491022", "display_phone": "(760) 749-1022", "distance": 10397.765265400842}, {"id": "IRVEm2zqsnDq5EelhdUGSQ", "alias": "jimbos-naturally-escondido-2", "name": "Jimbo's...Naturally!", "image_url": "https://s3-media4.fl.yelpcdn.com/bphoto/0ovv584T-vorCYl7HN6IJw/o.jpg", "is_closed": false, "url": "https://www.yelp.com/biz/jimbos-naturally-escondido-2?adjust_creative=oncXGL2aPIKrtJdnWeFSnA&utm_campaign=yelp_api_v3&utm_medium=api_v3_business_search&utm_source=oncXGL2aPIKrtJdnWeFSnA", "review_count": 138, "categories": [{"alias": "delis", "title": "Delis"}, {"alias": "grocery", "title": "Grocery"}, {"alias": "organic_stores", "title": "Organic Stores"}], "rating": 4.0, "coordinates": {"latitude": 33.1040294947754, "longitude": -117.077572904527}, "transactions": [], "price": "$$", "location": {"address1": "1633 S Centre City Pkwy", "address2": "", "address3": "", "city": "Escondido", "zip_code": "92025", "country": "US", "state": "CA", "display_address": ["1633 S Centre City Pkwy", "Escondido, CA 92025"]}, "phone": "+17604897755", "display_phone": "(760) 489-7755", "distance": 9842.647270026511}, {"id": "0fO2vVSaxAcsFSQeogQMnA", "alias": "bella-crema-espresso-bar-san-marcos", "name": "Bella Crema Espresso Bar", "image_url": "https://s3-media2.fl.yelpcdn.com/bphoto/XE6b8m01P1wNQqoalip2iw/o.jpg", "is_closed": false, "url": "https://www.yelp.com/biz/bella-crema-espresso-bar-san-marcos?adjust_creative=oncXGL2aPIKrtJdnWeFSnA&utm_campaign=yelp_api_v3&utm_medium=api_v3_business_search&utm_source=oncXGL2aPIKrtJdnWeFSnA", "review_count": 5, "categories": [{"alias": "delis", "title": "Delis"}, {"alias": "coffee", "title": "Coffee & Tea"}, {"alias": "juicebars", "title": "Juice Bars & Smoothies"}], "rating": 4.0, "coordinates": {"latitude": 33.1286606035752, "longitude": -117.170650197548}, "transactions": [], "price": "$", "location": {"address1": "400 W Craven", "address2": "Inside Kaiser Permanente Bldg 3", "address3": "", "city": "San Marcos", "zip_code": "92078", "country": "US", "state": "CA", "display_address": ["400 W Craven", "Inside Kaiser Permanente Bldg 3", "San Marcos, CA 92078"]}, "phone": "", "display_phone": "", "distance": 1452.656986365838}, {"id": "vNiijPbS2EX77YXgdwdMDA", "alias": "garden-state-bagels-carlsbad-5", "name": "Garden State Bagels", "image_url": "https://s3-media1.fl.yelpcdn.com/bphoto/-l5C6qen71OpD3jU9rpkyQ/o.jpg", "is_closed": false, "url": "https://www.yelp.com/biz/garden-state-bagels-carlsbad-5?adjust_creative=oncXGL2aPIKrtJdnWeFSnA&utm_campaign=yelp_api_v3&utm_medium=api_v3_business_search&utm_source=oncXGL2aPIKrtJdnWeFSnA", "review_count": 2, "categories": [{"alias": "bagels", "title": "Bagels"}, {"alias": "sandwiches", "title": "Sandwiches"}, {"alias": "delis", "title": "Delis"}], "rating": 5.0, "coordinates": {"latitude": 33.12129, "longitude": -117.31881}, "transactions": [], "location": {"address1": "6020 Paseo Del Norte", "address2": "", "address3": null, "city": "Carlsbad", "zip_code": "92011", "country": "US", "state": "CA", "display_address": ["6020 Paseo Del Norte", "Carlsbad, CA 92011"]}, "phone": "+17604761000", "display_phone": "(760) 476-1000", "distance": 13726.26477050278}, {"id": "Tf5Bs1iL7zWVKBblGPyvlA", "alias": "vistas-icebox-vista", "name": "Vista's Icebox", "image_url": "https://s3-media3.fl.yelpcdn.com/bphoto/HQUs0cv-e6Gya3HSIK2j-g/o.jpg", "is_closed": false, "url": "https://www.yelp.com/biz/vistas-icebox-vista?adjust_creative=oncXGL2aPIKrtJdnWeFSnA&utm_campaign=yelp_api_v3&utm_medium=api_v3_business_search&utm_source=oncXGL2aPIKrtJdnWeFSnA", "review_count": 180, "categories": [{"alias": "delis", "title": "Delis"}, {"alias": "sandwiches", "title": "Sandwiches"}, {"alias": "coffee", "title": "Coffee & Tea"}], "rating": 4.5, "coordinates": {"latitude": 33.1398968, "longitude": -117.2410642}, "transactions": ["pickup", "delivery"], "price": "$", "location": {"address1": "2260 Oak Ridge Way", "address2": "Ste B", "address3": "", "city": "Vista", "zip_code": "92081", "country": "US", "state": "CA", "display_address": ["2260 Oak Ridge Way", "Ste B", "Vista, CA 92081"]}, "phone": "+17605998874", "display_phone": "(760) 599-8874", "distance": 6311.0635708421505}, {"id": "9mF7DltVsFwnG4z-OhyWdQ", "alias": "north-park-produce-vista", "name": "North Park Produce", "image_url": "https://s3-media4.fl.yelpcdn.com/bphoto/dLuy_fdOhsdS9iCrba1v3w/o.jpg", "is_closed": false, "url": "https://www.yelp.com/biz/north-park-produce-vista?adjust_creative=oncXGL2aPIKrtJdnWeFSnA&utm_campaign=yelp_api_v3&utm_medium=api_v3_business_search&utm_source=oncXGL2aPIKrtJdnWeFSnA", "review_count": 135, "categories": [{"alias": "grocery", "title": "Grocery"}, {"alias": "bakeries", "title": "Bakeries"}, {"alias": "delis", "title": "Delis"}], "rating": 3.5, "coordinates": {"latitude": 33.184873, "longitude": -117.282498}, "transactions": ["pickup", "delivery"], "price": "$", "location": {"address1": "1952 Hacienda Dr", "address2": "", "address3": "", "city": "Vista", "zip_code": "92081", "country": "US", "state": "CA", "display_address": ["1952 Hacienda Dr", "Vista, CA 92081"]}, "phone": "+17606318434", "display_phone": "(760) 631-8434", "distance": 11248.233018268453}, {"id": "icZPyv__2fxc9NvQFFI_hg", "alias": "i-love-bagels-oceanside", "name": "I Love Bagels", "image_url": "https://s3-media3.fl.yelpcdn.com/bphoto/Iz6Agez9hEAw18U2BStdxw/o.jpg", "is_closed": false, "url": "https://www.yelp.com/biz/i-love-bagels-oceanside?adjust_creative=oncXGL2aPIKrtJdnWeFSnA&utm_campaign=yelp_api_v3&utm_medium=api_v3_business_search&utm_source=oncXGL2aPIKrtJdnWeFSnA", "review_count": 285, "categories": [{"alias": "delis", "title": "Delis"}, {"alias": "bagels", "title": "Bagels"}, {"alias": "sandwiches", "title": "Sandwiches"}], "rating": 4.0, "coordinates": {"latitude": 33.18448, "longitude": -117.29369}, "transactions": [], "price": "$", "location": {"address1": "3910 Vista Way Unit", "address2": "Ste 101", "address3": "", "city": "Oceanside", "zip_code": "92056", "country": "US", "state": "CA", "display_address": ["3910 Vista Way Unit", "Ste 101", "Oceanside, CA 92056"]}, "phone": "+17609453838", "display_phone": "(760) 945-3838", "distance": 12163.441990461115}, {"id": "vg2qCNbyoSPh720vJXyqtA", "alias": "lolas-7-up-market-and-deli-carlsbad", "name": "Lola's 7 Up Market & Deli", "image_url": "https://s3-media3.fl.yelpcdn.com/bphoto/h5kxWvohZgtuEqxAhi6WSA/o.jpg", "is_closed": false, "url": "https://www.yelp.com/biz/lolas-7-up-market-and-deli-carlsbad?adjust_creative=oncXGL2aPIKrtJdnWeFSnA&utm_campaign=yelp_api_v3&utm_medium=api_v3_business_search&utm_source=oncXGL2aPIKrtJdnWeFSnA", "review_count": 247, "categories": [{"alias": "delis", "title": "Delis"}, {"alias": "mexican", "title": "Mexican"}], "rating": 4.5, "coordinates": {"latitude": 33.1571353, "longitude": -117.3450053}, "transactions": [], "price": "$", "location": {"address1": "3292 Roosevelt St", "address2": "", "address3": "", "city": "Carlsbad", "zip_code": "92008", "country": "US", "state": "CA", "display_address": ["3292 Roosevelt St", "Carlsbad, CA 92008"]}, "phone": "+17604342191", "display_phone": "(760) 434-2191", "distance": 16069.540922573871}, {"id": "UkRTgZnlewR-uaUR-1_LYg", "alias": "forum-deli-carlsbad", "name": "Forum Deli", "image_url": "https://s3-media3.fl.yelpcdn.com/bphoto/QDU6WceoP5yGZE9v-ZeEQw/o.jpg", "is_closed": false, "url": "https://www.yelp.com/biz/forum-deli-carlsbad?adjust_creative=oncXGL2aPIKrtJdnWeFSnA&utm_campaign=yelp_api_v3&utm_medium=api_v3_business_search&utm_source=oncXGL2aPIKrtJdnWeFSnA", "review_count": 19, "categories": [{"alias": "salad", "title": "Salad"}, {"alias": "delis", "title": "Delis"}, {"alias": "sandwiches", "title": "Sandwiches"}], "rating": 4.5, "coordinates": {"latitude": 33.13083, "longitude": -117.24115}, "transactions": ["delivery", "pickup"], "price": "$", "location": {"address1": "3132 Tiger Run Ct", "address2": "Ste 107", "address3": "", "city": "Carlsbad", "zip_code": "92010", "country": "US", "state": "CA", "display_address": ["3132 Tiger Run Ct", "Ste 107", "Carlsbad, CA 92010"]}, "phone": "+17605970228", "display_phone": "(760) 597-0228", "distance": 6545.631065638855}, {"id": "1C8s-LPSAWKynrINFGxmLg", "alias": "the-market-at-hidden-meadows-escondido", "name": "The Market At Hidden Meadows", "image_url": "https://s3-media1.fl.yelpcdn.com/bphoto/mOoPytPrP_kc2o5Bog06cw/o.jpg", "is_closed": false, "url": "https://www.yelp.com/biz/the-market-at-hidden-meadows-escondido?adjust_creative=oncXGL2aPIKrtJdnWeFSnA&utm_campaign=yelp_api_v3&utm_medium=api_v3_business_search&utm_source=oncXGL2aPIKrtJdnWeFSnA", "review_count": 15, "categories": [{"alias": "delis", "title": "Delis"}, {"alias": "pizza", "title": "Pizza"}, {"alias": "sandwiches", "title": "Sandwiches"}], "rating": 4.5, "coordinates": {"latitude": 33.21598, "longitude": -117.10937}, "transactions": ["delivery", "pickup"], "location": {"address1": "10326 Meadow Glen Way E", "address2": null, "address3": "", "city": "Escondido", "zip_code": "92026", "country": "US", "state": "CA", "display_address": ["10326 Meadow Glen Way E", "Escondido, CA 92026"]}, "phone": "+17602971232", "display_phone": "(760) 297-1232", "distance": 10215.28930105789}, {"id": "yf8Z4jra4pZEtWWT1o8cJQ", "alias": "wineridge-deli-escondido", "name": "Wineridge Deli", "image_url": "https://s3-media2.fl.yelpcdn.com/bphoto/YBk-xBQNNUA-RfgMQWSosw/o.jpg", "is_closed": false, "url": "https://www.yelp.com/biz/wineridge-deli-escondido?adjust_creative=oncXGL2aPIKrtJdnWeFSnA&utm_campaign=yelp_api_v3&utm_medium=api_v3_business_search&utm_source=oncXGL2aPIKrtJdnWeFSnA", "review_count": 18, "categories": [{"alias": "delis", "title": "Delis"}, {"alias": "sandwiches", "title": "Sandwiches"}, {"alias": "salad", "title": "Salad"}], "rating": 4.5, "coordinates": {"latitude": 33.1138148, "longitude": -117.1145611}, "transactions": [], "price": "$", "location": {"address1": "938 S Andreasen Dr", "address2": "Ste A", "address3": "", "city": "Escondido", "zip_code": "92029", "country": "US", "state": "CA", "display_address": ["938 S Andreasen Dr", "Ste A", "Escondido, CA 92029"]}, "phone": "+17607395508", "display_phone": "(760) 739-5508", "distance": 6335.7706209363405}, {"id": "j_te1-9iaR9wKninc321ZA", "alias": "jimbos-naturally-carlsbad-2", "name": "Jimbo's Naturally", "image_url": "https://s3-media1.fl.yelpcdn.com/bphoto/K3ygk02bWaDy5LYckJr-YA/o.jpg", "is_closed": false, "url": "https://www.yelp.com/biz/jimbos-naturally-carlsbad-2?adjust_creative=oncXGL2aPIKrtJdnWeFSnA&utm_campaign=yelp_api_v3&utm_medium=api_v3_business_search&utm_source=oncXGL2aPIKrtJdnWeFSnA", "review_count": 183, "categories": [{"alias": "grocery", "title": "Grocery"}, {"alias": "delis", "title": "Delis"}, {"alias": "healthmarkets", "title": "Health Markets"}], "rating": 4.0, "coordinates": {"latitude": 33.0723073917475, "longitude": -117.265005342293}, "transactions": [], "price": "$$", "location": {"address1": "1923 Calle Barcelona", "address2": "Ste 149", "address3": "", "city": "Carlsbad", "zip_code": "92009", "country": "US", "state": "CA", "display_address": ["1923 Calle Barcelona", "Ste 149", "Carlsbad, CA 92009"]}, "phone": "+17603347755", "display_phone": "(760) 334-7755", "distance": 11497.747306218585}, {"id": "0OvlwRk5ntQLbOuRbDEdMA", "alias": "continental-delicatessen-escondido", "name": "Continental Delicatessen", "image_url": "https://s3-media2.fl.yelpcdn.com/bphoto/X3onXObqA0FeykOhnlw6lg/o.jpg", "is_closed": false, "url": "https://www.yelp.com/biz/continental-delicatessen-escondido?adjust_creative=oncXGL2aPIKrtJdnWeFSnA&utm_campaign=yelp_api_v3&utm_medium=api_v3_business_search&utm_source=oncXGL2aPIKrtJdnWeFSnA", "review_count": 77, "categories": [{"alias": "delis", "title": "Delis"}], "rating": 4.0, "coordinates": {"latitude": 33.12216, "longitude": -117.07957}, "transactions": [], "price": "$", "location": {"address1": "120 S Kalmia St", "address2": "", "address3": "", "city": "Escondido", "zip_code": "92025", "country": "US", "state": "CA", "display_address": ["120 S Kalmia St", "Escondido, CA 92025"]}, "phone": "+17607458007", "display_phone": "(760) 745-8007", "distance": 8990.553197598694}, {"id": "FGsRBcGyINOygpA9UFtUog", "alias": "jersey-mikes-subs-san-marcos-6", "name": "Jersey Mike's Subs", "image_url": "https://s3-media3.fl.yelpcdn.com/bphoto/6z-ZRNsA5rqkmOKc1UhIdg/o.jpg", "is_closed": false, "url": "https://www.yelp.com/biz/jersey-mikes-subs-san-marcos-6?adjust_creative=oncXGL2aPIKrtJdnWeFSnA&utm_campaign=yelp_api_v3&utm_medium=api_v3_business_search&utm_source=oncXGL2aPIKrtJdnWeFSnA", "review_count": 43, "categories": [{"alias": "hotdogs", "title": "Fast Food"}, {"alias": "delis", "title": "Delis"}, {"alias": "sandwiches", "title": "Sandwiches"}], "rating": 4.0, "coordinates": {"latitude": 33.1342239379883, "longitude": -117.119468688965}, "transactions": [], "price": "$", "location": {"address1": "730 Nordahl Rd", "address2": null, "address3": null, "city": "San Marcos", "zip_code": "92069", "country": "US", "state": "CA", "display_address": ["730 Nordahl Rd", "San Marcos, CA 92069"]}, "phone": "+17602910263", "display_phone": "(760) 291-0263", "distance": 5098.752329041356}, {"id": "ijzBrjpMohT4PZGWMdmRCQ", "alias": "stater-bros-markets-vista-2", "name": "Stater Bros. Markets", "image_url": "https://s3-media4.fl.yelpcdn.com/bphoto/J36Lo645Utdjn9AGCMuBNA/o.jpg", "is_closed": false, "url": "https://www.yelp.com/biz/stater-bros-markets-vista-2?adjust_creative=oncXGL2aPIKrtJdnWeFSnA&utm_campaign=yelp_api_v3&utm_medium=api_v3_business_search&utm_source=oncXGL2aPIKrtJdnWeFSnA", "review_count": 46, "categories": [{"alias": "grocery", "title": "Grocery"}, {"alias": "delis", "title": "Delis"}, {"alias": "butcher", "title": "Butcher"}], "rating": 3.0, "coordinates": {"latitude": 33.1630611, "longitude": -117.2191986}, "transactions": [], "price": "$$", "location": {"address1": "780 Sycamore Ave", "address2": "", "address3": "", "city": "Vista", "zip_code": "92083", "country": "US", "state": "CA", "display_address": ["780 Sycamore Ave", "Vista, CA 92083"]}, "phone": "+17607277080", "display_phone": "(760) 727-7080", "distance": 4896.97717728284}, {"id": "T-xXPEDGYBhBgPIgOnXZRg", "alias": "country-junction-valley-center", "name": "Country Junction", "image_url": "https://s3-media2.fl.yelpcdn.com/bphoto/oo9azUk98YS2NyxEODkMJQ/o.jpg", "is_closed": false, "url": "https://www.yelp.com/biz/country-junction-valley-center?adjust_creative=oncXGL2aPIKrtJdnWeFSnA&utm_campaign=yelp_api_v3&utm_medium=api_v3_business_search&utm_source=oncXGL2aPIKrtJdnWeFSnA", "review_count": 81, "categories": [{"alias": "sandwiches", "title": "Sandwiches"}, {"alias": "icecream", "title": "Ice Cream & Frozen Yogurt"}, {"alias": "delis", "title": "Delis"}], "rating": 4.0, "coordinates": {"latitude": 33.23071, "longitude": -117.02558}, "transactions": [], "price": "$", "location": {"address1": "29115 Valley Ctr Rd", "address2": "", "address3": "", "city": "Valley Center", "zip_code": "92082", "country": "US", "state": "CA", "display_address": ["29115 Valley Ctr Rd", "Valley Center, CA 92082"]}, "phone": "+17607490123", "display_phone": "(760) 749-0123", "distance": 16941.119098010702}, {"id": "rw7PDNsREcPQXzaxoSzo2g", "alias": "franciscos-mexican-deli-vista", "name": "Francisco's Mexican Deli", "image_url": "https://s3-media2.fl.yelpcdn.com/bphoto/IMQxSbIFDvcHyzUIen-H7g/o.jpg", "is_closed": false, "url": "https://www.yelp.com/biz/franciscos-mexican-deli-vista?adjust_creative=oncXGL2aPIKrtJdnWeFSnA&utm_campaign=yelp_api_v3&utm_medium=api_v3_business_search&utm_source=oncXGL2aPIKrtJdnWeFSnA", "review_count": 28, "categories": [{"alias": "mexican", "title": "Mexican"}, {"alias": "delis", "title": "Delis"}, {"alias": "soup", "title": "Soup"}], "rating": 4.5, "coordinates": {"latitude": 33.2108, "longitude": -117.244499}, "transactions": [], "price": "$", "location": {"address1": "821 N Santa Fe Ave", "address2": "", "address3": "", "city": "Vista", "zip_code": "92084", "country": "US", "state": "CA", "display_address": ["821 N Santa Fe Ave", "Vista, CA 92084"]}, "phone": "+17607240045", "display_phone": "(760) 724-0045", "distance": 10148.497238855782}, {"id": "zbgK2W9N6akeTIsjVXPjXg", "alias": "gelsons-market-carlsbad", "name": "Gelson's Market", "image_url": "https://s3-media1.fl.yelpcdn.com/bphoto/vtZXWaYbDjXh9bslEWSuvA/o.jpg", "is_closed": false, "url": "https://www.yelp.com/biz/gelsons-market-carlsbad?adjust_creative=oncXGL2aPIKrtJdnWeFSnA&utm_campaign=yelp_api_v3&utm_medium=api_v3_business_search&utm_source=oncXGL2aPIKrtJdnWeFSnA", "review_count": 113, "categories": [{"alias": "delis", "title": "Delis"}, {"alias": "grocery", "title": "Grocery"}, {"alias": "wine_bars", "title": "Wine Bars"}], "rating": 3.5, "coordinates": {"latitude": 33.08707, "longitude": -117.26757}, "transactions": [], "price": "$$", "location": {"address1": "7660 El Camino Real", "address2": "", "address3": "", "city": "Carlsbad", "zip_code": "92009", "country": "US", "state": "CA", "display_address": ["7660 El Camino Real", "Carlsbad, CA 92009"]}, "phone": "+17606327511", "display_phone": "(760) 632-7511", "distance": 10612.516293145545}, {"id": "2D3z6T91qyaco9WfAhHx3g", "alias": "barnos-deli-and-liquor-vista", "name": "Barno's Deli & Liquor", "image_url": "https://s3-media1.fl.yelpcdn.com/bphoto/xdgTkMnsU3E4o1rI-uqPtg/o.jpg", "is_closed": false, "url": "https://www.yelp.com/biz/barnos-deli-and-liquor-vista?adjust_creative=oncXGL2aPIKrtJdnWeFSnA&utm_campaign=yelp_api_v3&utm_medium=api_v3_business_search&utm_source=oncXGL2aPIKrtJdnWeFSnA", "review_count": 6, "categories": [{"alias": "beer_and_wine", "title": "Beer, Wine & Spirits"}, {"alias": "delis", "title": "Delis"}], "rating": 4.0, "coordinates": {"latitude": 33.16822, "longitude": -117.20577}, "transactions": [], "price": "$", "location": {"address1": "2244 S Santa Fe Ave", "address2": "Ste H2", "address3": "", "city": "Vista", "zip_code": "92084", "country": "US", "state": "CA", "display_address": ["2244 S Santa Fe Ave", "Ste H2", "Vista, CA 92084"]}, "phone": "", "display_phone": "", "distance": 4316.057772061038}, {"id": "-ZJVaXutyni9O9dou0sJTA", "alias": "campus-cafe-carlsbad", "name": "Campus Cafe", "image_url": "https://s3-media1.fl.yelpcdn.com/bphoto/cyjsjGYNkARnS83MdlvveA/o.jpg", "is_closed": false, "url": "https://www.yelp.com/biz/campus-cafe-carlsbad?adjust_creative=oncXGL2aPIKrtJdnWeFSnA&utm_campaign=yelp_api_v3&utm_medium=api_v3_business_search&utm_source=oncXGL2aPIKrtJdnWeFSnA", "review_count": 121, "categories": [{"alias": "delis", "title": "Delis"}, {"alias": "cafes", "title": "Cafes"}, {"alias": "sandwiches", "title": "Sandwiches"}], "rating": 4.5, "coordinates": {"latitude": 33.131802, "longitude": -117.270076}, "transactions": [], "price": "$", "location": {"address1": "5966 La Place Ct", "address2": "Ste 150", "address3": "", "city": "Carlsbad", "zip_code": "92008", "country": "US", "state": "CA", "display_address": ["5966 La Place Ct", "Ste 150", "Carlsbad, CA 92008"]}, "phone": "+17604319210", "display_phone": "(760) 431-9210", "distance": 9074.796138870406}, {"id": "x6SlqaQibFRR3vLapp-9ng", "alias": "yogurt-giant-vista", "name": "Yogurt Giant", "image_url": "https://s3-media1.fl.yelpcdn.com/bphoto/W6nlfCN1HE_ifJb0BnotJg/o.jpg", "is_closed": false, "url": "https://www.yelp.com/biz/yogurt-giant-vista?adjust_creative=oncXGL2aPIKrtJdnWeFSnA&utm_campaign=yelp_api_v3&utm_medium=api_v3_business_search&utm_source=oncXGL2aPIKrtJdnWeFSnA", "review_count": 31, "categories": [{"alias": "icecream", "title": "Ice Cream & Frozen Yogurt"}, {"alias": "delis", "title": "Delis"}], "rating": 4.5, "coordinates": {"latitude": 33.1889187544584, "longitude": -117.280108854175}, "transactions": [], "price": "$", "location": {"address1": "1817 W Vista Way", "address2": "Ste E", "address3": "", "city": "Vista", "zip_code": "92083", "country": "US", "state": "CA", "display_address": ["1817 W Vista Way", "Ste E", "Vista, CA 92083"]}, "phone": "+17607582361", "display_phone": "(760) 758-2361", "distance": 11280.482633656851}, {"id": "YOgU8se3_Ah4eLgIAA4VOg", "alias": "miltons-del-mar", "name": "Milton's", "image_url": "https://s3-media3.fl.yelpcdn.com/bphoto/9tnddk_w9Rx562bQcy1BRQ/o.jpg", "is_closed": false, "url": "https://www.yelp.com/biz/miltons-del-mar?adjust_creative=oncXGL2aPIKrtJdnWeFSnA&utm_campaign=yelp_api_v3&utm_medium=api_v3_business_search&utm_source=oncXGL2aPIKrtJdnWeFSnA", "review_count": 793, "categories": [{"alias": "delis", "title": "Delis"}, {"alias": "sandwiches", "title": "Sandwiches"}, {"alias": "bakeries", "title": "Bakeries"}], "rating": 3.5, "coordinates": {"latitude": 32.9806995, "longitude": -117.2509631}, "transactions": ["delivery", "pickup"], "price": "$$", "location": {"address1": "2660 Via De La Valle", "address2": "", "address3": "", "city": "Del Mar", "zip_code": "92014", "country": "US", "state": "CA", "display_address": ["2660 Via De La Valle", "Del Mar, CA 92014"]}, "phone": "+18587922225", "display_phone": "(858) 792-2225", "distance": 19292.564683350483}, {"id": "r1YEF7C0Mt5KAE2Yof-JxQ", "alias": "sub-hub-escondido", "name": "Sub Hub", "image_url": "https://s3-media4.fl.yelpcdn.com/bphoto/oh6WN1mo4KxFs27Q3wi--Q/o.jpg", "is_closed": false, "url": "https://www.yelp.com/biz/sub-hub-escondido?adjust_creative=oncXGL2aPIKrtJdnWeFSnA&utm_campaign=yelp_api_v3&utm_medium=api_v3_business_search&utm_source=oncXGL2aPIKrtJdnWeFSnA", "review_count": 43, "categories": [{"alias": "delis", "title": "Delis"}, {"alias": "sandwiches", "title": "Sandwiches"}], "rating": 4.5, "coordinates": {"latitude": 33.1121870883136, "longitude": -117.10302002728}, "transactions": ["pickup"], "price": "$", "location": {"address1": "1348 W Valley Pkwy", "address2": "", "address3": "", "city": "Escondido", "zip_code": "92029", "country": "US", "state": "CA", "display_address": ["1348 W Valley Pkwy", "Escondido, CA 92029"]}, "phone": "+17607399029", "display_phone": "(760) 739-9029", "distance": 7313.761926284024}, {"id": "SqtnbJ2awhAYYZP0a2gYIw", "alias": "the-sandwich-spot-encinitas-2", "name": "The Sandwich Spot", "image_url": "https://s3-media3.fl.yelpcdn.com/bphoto/PpW-N3v4h3jqzMZ-SHh0Ag/o.jpg", "is_closed": false, "url": "https://www.yelp.com/biz/the-sandwich-spot-encinitas-2?adjust_creative=oncXGL2aPIKrtJdnWeFSnA&utm_campaign=yelp_api_v3&utm_medium=api_v3_business_search&utm_source=oncXGL2aPIKrtJdnWeFSnA", "review_count": 290, "categories": [{"alias": "sandwiches", "title": "Sandwiches"}, {"alias": "delis", "title": "Delis"}, {"alias": "cafes", "title": "Cafes"}], "rating": 4.0, "coordinates": {"latitude": 33.0490435418675, "longitude": -117.29460910975}, "transactions": ["pickup"], "price": "$$", "location": {"address1": "90 N Coast Hwy", "address2": "Ste 103", "address3": "", "city": "Encinitas", "zip_code": "92024", "country": "US", "state": "CA", "display_address": ["90 N Coast Hwy", "Ste 103", "Encinitas, CA 92024"]}, "phone": "+17602302147", "display_phone": "(760) 230-2147", "distance": 15279.122305535235}, {"id": "QoJO1cPX-SiQZBuI7NtzBg", "alias": "judys-deli-carlsbad", "name": "Judy's Deli", "image_url": "https://s3-media1.fl.yelpcdn.com/bphoto/0LG0xZjWEJwIsXG2o5J6Mg/o.jpg", "is_closed": false, "url": "https://www.yelp.com/biz/judys-deli-carlsbad?adjust_creative=oncXGL2aPIKrtJdnWeFSnA&utm_campaign=yelp_api_v3&utm_medium=api_v3_business_search&utm_source=oncXGL2aPIKrtJdnWeFSnA", "review_count": 42, "categories": [{"alias": "delis", "title": "Delis"}], "rating": 4.5, "coordinates": {"latitude": 33.1183369553985, "longitude": -117.278504349074}, "transactions": [], "price": "$", "location": {"address1": "2035 Corte Del Nogal", "address2": "", "address3": "", "city": "Carlsbad", "zip_code": "92009", "country": "US", "state": "CA", "display_address": ["2035 Corte Del Nogal", "Carlsbad, CA 92009"]}, "phone": "+17604317108", "display_phone": "(760) 431-7108", "distance": 10129.473827637305}, {"id": "ifX08kFZ4I2madZUxzf1sA", "alias": "off-the-vine-gardens-deli-and-catering-carlsbad", "name": "Off the Vine Gardens Deli & Catering", "image_url": "https://s3-media3.fl.yelpcdn.com/bphoto/OfutisH7Zfj2KuAgqnRS-w/o.jpg", "is_closed": false, "url": "https://www.yelp.com/biz/off-the-vine-gardens-deli-and-catering-carlsbad?adjust_creative=oncXGL2aPIKrtJdnWeFSnA&utm_campaign=yelp_api_v3&utm_medium=api_v3_business_search&utm_source=oncXGL2aPIKrtJdnWeFSnA", "review_count": 41, "categories": [{"alias": "delis", "title": "Delis"}], "rating": 4.5, "coordinates": {"latitude": 33.1203511, "longitude": -117.2678072}, "transactions": [], "price": "$", "location": {"address1": "2382 Camino Vida Roble", "address2": "", "address3": "", "city": "Carlsbad", "zip_code": "92011", "country": "US", "state": "CA", "display_address": ["2382 Camino Vida Roble", "Carlsbad, CA 92011"]}, "phone": "+17604387701", "display_phone": "(760) 438-7701", "distance": 9109.157883389886}, {"id": "5a01fuDf95DlUVxMZ0ahJA", "alias": "la-place-deli-carlsbad", "name": "La Place Deli", "image_url": "https://s3-media2.fl.yelpcdn.com/bphoto/3QhPlugX6JSDtvhIQpoelg/o.jpg", "is_closed": false, "url": "https://www.yelp.com/biz/la-place-deli-carlsbad?adjust_creative=oncXGL2aPIKrtJdnWeFSnA&utm_campaign=yelp_api_v3&utm_medium=api_v3_business_search&utm_source=oncXGL2aPIKrtJdnWeFSnA", "review_count": 43, "categories": [{"alias": "delis", "title": "Delis"}], "rating": 4.5, "coordinates": {"latitude": 33.1325855, "longitude": -117.2720141}, "transactions": [], "price": "$", "location": {"address1": "5950 La Place Ct", "address2": "Ste 150", "address3": "", "city": "Carlsbad", "zip_code": "92008", "country": "US", "state": "CA", "display_address": ["5950 La Place Ct", "Ste 150", "Carlsbad, CA 92008"]}, "phone": "+17604310584", "display_phone": "(760) 431-0584", "distance": 9187.19281849155}, {"id": "xXJ6qDoFFUcFXrxKs6Tl6g", "alias": "la-fresita-escondido", "name": "La Fresita", "image_url": "https://s3-media1.fl.yelpcdn.com/bphoto/04BayrzaheI7ainD1x3umg/o.jpg", "is_closed": false, "url": "https://www.yelp.com/biz/la-fresita-escondido?adjust_creative=oncXGL2aPIKrtJdnWeFSnA&utm_campaign=yelp_api_v3&utm_medium=api_v3_business_search&utm_source=oncXGL2aPIKrtJdnWeFSnA", "review_count": 59, "categories": [{"alias": "delis", "title": "Delis"}, {"alias": "sandwiches", "title": "Sandwiches"}], "rating": 4.0, "coordinates": {"latitude": 33.1299293, "longitude": -117.0871428}, "transactions": [], "price": "$", "location": {"address1": "162 W Mission Ave", "address2": null, "address3": null, "city": "Escondido", "zip_code": "92025", "country": "US", "state": "CA", "display_address": ["162 W Mission Ave", "Escondido, CA 92025"]}, "phone": "+17608778977", "display_phone": "(760) 877-8977", "distance": 8126.240851170934}, {"id": "RCIu2HPPtxbpbhELaYZlLw", "alias": "togo-s-sandwiches-carlsbad", "name": "Togo\u2019s Sandwiches", "image_url": "https://s3-media1.fl.yelpcdn.com/bphoto/mriE2sxWTQNn9BIpBYLK7A/o.jpg", "is_closed": false, "url": "https://www.yelp.com/biz/togo-s-sandwiches-carlsbad?adjust_creative=oncXGL2aPIKrtJdnWeFSnA&utm_campaign=yelp_api_v3&utm_medium=api_v3_business_search&utm_source=oncXGL2aPIKrtJdnWeFSnA", "review_count": 52, "categories": [{"alias": "sandwiches", "title": "Sandwiches"}, {"alias": "delis", "title": "Delis"}, {"alias": "hotdogs", "title": "Fast Food"}], "rating": 3.5, "coordinates": {"latitude": 33.1048346, "longitude": -117.2671761}, "transactions": ["delivery", "pickup"], "price": "$", "location": {"address1": "6943 El Camino Real", "address2": "Ste F-105", "address3": "", "city": "Carlsbad", "zip_code": "92009", "country": "US", "state": "CA", "display_address": ["6943 El Camino Real", "Ste F-105", "Carlsbad, CA 92009"]}, "phone": "+17604315010", "display_phone": "(760) 431-5010", "distance": 9822.431223225816}, {"id": "_d_X3KgGc49DiFj1rt-HVg", "alias": "vinz-wine-bar-escondido-3", "name": "Vinz Wine Bar", "image_url": "https://s3-media1.fl.yelpcdn.com/bphoto/Fkc-IDG3oZmmoyxxEokL5Q/o.jpg", "is_closed": false, "url": "https://www.yelp.com/biz/vinz-wine-bar-escondido-3?adjust_creative=oncXGL2aPIKrtJdnWeFSnA&utm_campaign=yelp_api_v3&utm_medium=api_v3_business_search&utm_source=oncXGL2aPIKrtJdnWeFSnA", "review_count": 414, "categories": [{"alias": "wine_bars", "title": "Wine Bars"}, {"alias": "delis", "title": "Delis"}, {"alias": "pizza", "title": "Pizza"}], "rating": 3.5, "coordinates": {"latitude": 33.122179, "longitude": -117.079676}, "transactions": [], "price": "$$", "location": {"address1": "201 E Grand Ave", "address2": "Ste 1a", "address3": "", "city": "Escondido", "zip_code": "92025", "country": "US", "state": "CA", "display_address": ["201 E Grand Ave", "Ste 1a", "Escondido, CA 92025"]}, "phone": "+17607438466", "display_phone": "(760) 743-8466", "distance": 8980.463276853696}, {"id": "MHO_ugU11W8ZJ26wi93fTA", "alias": "stater-bros-markets-carlsbad-2", "name": "Stater Bros. Markets", "image_url": "https://s3-media2.fl.yelpcdn.com/bphoto/q14g-qeruIdFGEZ19KUxTQ/o.jpg", "is_closed": false, "url": "https://www.yelp.com/biz/stater-bros-markets-carlsbad-2?adjust_creative=oncXGL2aPIKrtJdnWeFSnA&utm_campaign=yelp_api_v3&utm_medium=api_v3_business_search&utm_source=oncXGL2aPIKrtJdnWeFSnA", "review_count": 94, "categories": [{"alias": "grocery", "title": "Grocery"}, {"alias": "butcher", "title": "Butcher"}, {"alias": "delis", "title": "Delis"}], "rating": 3.0, "coordinates": {"latitude": 33.126631, "longitude": -117.251903}, "transactions": [], "price": "$$", "location": {"address1": "2687 Gateway Rd", "address2": "", "address3": "", "city": "Carlsbad", "zip_code": "92009", "country": "US", "state": "CA", "display_address": ["2687 Gateway Rd", "Carlsbad, CA 92009"]}, "phone": "+17609297900", "display_phone": "(760) 929-7900", "distance": 7503.422769725718}], "total": 90, "region": {"center": {"longitude": -117.17330932617188, "latitude": 33.141533511091374}}}