{"businesses": [{"id": "5hUz-PhMBWjmUgUWwQd3Uw", "alias": "darunee-thai-cuisine-san-marcos", "name": "Darunee Thai Cuisine", "image_url": "https://s3-media1.fl.yelpcdn.com/bphoto/nieK4Dxj_DvS0AbQ3RDrYQ/o.jpg", "is_closed": false, "url": "https://www.yelp.com/biz/darunee-thai-cuisine-san-marcos?adjust_creative=oncXGL2aPIKrtJdnWeFSnA&utm_campaign=yelp_api_v3&utm_medium=api_v3_business_search&utm_source=oncXGL2aPIKrtJdnWeFSnA", "review_count": 227, "categories": [{"alias": "thai", "title": "Thai"}, {"alias": "hawaiian", "title": "Hawaiian"}], "rating": 4.5, "coordinates": {"latitude": 33.13407, "longitude": -117.18837}, "transactions": ["delivery", "pickup"], "price": "$", "location": {"address1": "1001 W San Marcos Blvd", "address2": "Ste 130", "address3": "", "city": "San Marcos", "zip_code": "92078", "country": "US", "state": "CA", "display_address": ["1001 W San Marcos Blvd", "Ste 130", "San Marcos, CA 92078"]}, "phone": "+17607520091", "display_phone": "(760) 752-0091", "distance": 1649.5776248053444}, {"id": "AvVRl5stlkb3YQ8yLPGc8w", "alias": "pokewaii-san-marcos-5", "name": "Pokewaii", "image_url": "https://s3-media2.fl.yelpcdn.com/bphoto/aelHZq1OBgeLDOON_pXaFQ/o.jpg", "is_closed": false, "url": "https://www.yelp.com/biz/pokewaii-san-marcos-5?adjust_creative=oncXGL2aPIKrtJdnWeFSnA&utm_campaign=yelp_api_v3&utm_medium=api_v3_business_search&utm_source=oncXGL2aPIKrtJdnWeFSnA", "review_count": 201, "categories": [{"alias": "asianfusion", "title": "Asian Fusion"}, {"alias": "hawaiian", "title": "Hawaiian"}, {"alias": "poke", "title": "Poke"}], "rating": 4.0, "coordinates": {"latitude": 33.13391, "longitude": -117.19256}, "transactions": [], "price": "$", "location": {"address1": "1158 W San Marcos Blvd", "address2": "Ste 104", "address3": "", "city": "San Marcos", "zip_code": "92078", "country": "US", "state": "CA", "display_address": ["1158 W San Marcos Blvd", "Ste 104", "San Marcos, CA 92078"]}, "phone": "+17607369388", "display_phone": "(760) 736-9388", "distance": 1984.1836069521487}, {"id": "ACvedwCO6bqwEBSPRU8xYQ", "alias": "l-and-l-hawaiian-barbecue-san-marcos", "name": "L&L Hawaiian Barbecue", "image_url": "https://s3-media2.fl.yelpcdn.com/bphoto/TqnybThRajAuC52rtwQfnw/o.jpg", "is_closed": false, "url": "https://www.yelp.com/biz/l-and-l-hawaiian-barbecue-san-marcos?adjust_creative=oncXGL2aPIKrtJdnWeFSnA&utm_campaign=yelp_api_v3&utm_medium=api_v3_business_search&utm_source=oncXGL2aPIKrtJdnWeFSnA", "review_count": 216, "categories": [{"alias": "hawaiian", "title": "Hawaiian"}, {"alias": "bbq", "title": "Barbeque"}], "rating": 3.0, "coordinates": {"latitude": 33.140768, "longitude": -117.191111}, "transactions": ["delivery", "pickup"], "price": "$", "location": {"address1": "137 S Las Posas Rd", "address2": "Ste 152", "address3": "", "city": "San Marcos", "zip_code": "92078", "country": "US", "state": "CA", "display_address": ["137 S Las Posas Rd", "Ste 152", "San Marcos, CA 92078"]}, "phone": "+17602903036", "display_phone": "(760) 290-3036", "distance": 1664.4242471127081}, {"id": "iTkh5PmsoaLL-Dwjsbda1A", "alias": "ohana-hawaiian-bbq-vista", "name": "Ohana Hawaiian BBQ", "image_url": "https://s3-media2.fl.yelpcdn.com/bphoto/NLqFvenrfLGzyGim88sC8A/o.jpg", "is_closed": false, "url": "https://www.yelp.com/biz/ohana-hawaiian-bbq-vista?adjust_creative=oncXGL2aPIKrtJdnWeFSnA&utm_campaign=yelp_api_v3&utm_medium=api_v3_business_search&utm_source=oncXGL2aPIKrtJdnWeFSnA", "review_count": 117, "categories": [{"alias": "hawaiian", "title": "Hawaiian"}, {"alias": "bbq", "title": "Barbeque"}], "rating": 4.0, "coordinates": {"latitude": 33.1886176834493, "longitude": -117.254448160529}, "transactions": [], "price": "$", "location": {"address1": "485 S Melrose Dr", "address2": "", "address3": "", "city": "Vista", "zip_code": "92081", "country": "US", "state": "CA", "display_address": ["485 S Melrose Dr", "Vista, CA 92081"]}, "phone": "+17606431226", "display_phone": "(760) 643-1226", "distance": 9189.69789445289}, {"id": "PiXZpdefGX-8qzr-aFNUow", "alias": "surf-brothers-teriyaki-escondido", "name": "Surf Brothers Teriyaki", "image_url": "https://s3-media3.fl.yelpcdn.com/bphoto/3tLFT4xWXPw00bh70zgC_Q/o.jpg", "is_closed": false, "url": "https://www.yelp.com/biz/surf-brothers-teriyaki-escondido?adjust_creative=oncXGL2aPIKrtJdnWeFSnA&utm_campaign=yelp_api_v3&utm_medium=api_v3_business_search&utm_source=oncXGL2aPIKrtJdnWeFSnA", "review_count": 171, "categories": [{"alias": "hawaiian", "title": "Hawaiian"}], "rating": 4.0, "coordinates": {"latitude": 33.117352, "longitude": -117.0962762}, "transactions": [], "price": "$", "location": {"address1": "1032 W Valley Pkwy", "address2": "", "address3": "", "city": "Escondido", "zip_code": "92025", "country": "US", "state": "CA", "display_address": ["1032 W Valley Pkwy", "Escondido, CA 92025"]}, "phone": "+17604597973", "display_phone": "(760) 459-7973", "distance": 7570.689377035251}, {"id": "tyAK08taAaH7TJRDYmDNoA", "alias": "teri-cafe-oceanside-2", "name": "Teri Cafe", "image_url": "https://s3-media3.fl.yelpcdn.com/bphoto/EqgDweHE3dVyAl4oVYCk8Q/o.jpg", "is_closed": false, "url": "https://www.yelp.com/biz/teri-cafe-oceanside-2?adjust_creative=oncXGL2aPIKrtJdnWeFSnA&utm_campaign=yelp_api_v3&utm_medium=api_v3_business_search&utm_source=oncXGL2aPIKrtJdnWeFSnA", "review_count": 608, "categories": [{"alias": "sushi", "title": "Sushi Bars"}, {"alias": "hawaiian", "title": "Hawaiian"}, {"alias": "ramen", "title": "Ramen"}], "rating": 4.0, "coordinates": {"latitude": 33.181676135002, "longitude": -117.29310357791}, "transactions": [], "price": "$", "location": {"address1": "3809 Plaza Dr", "address2": "Ste101", "address3": "", "city": "Oceanside", "zip_code": "92056", "country": "US", "state": "CA", "display_address": ["3809 Plaza Dr", "Ste101", "Oceanside, CA 92056"]}, "phone": "+17609458888", "display_phone": "(760) 945-8888", "distance": 12011.20396370859}, {"id": "A0mWHoOmHUJJdbTDVN1MMA", "alias": "homestyle-hawaiian-oceanside", "name": "Homestyle Hawaiian", "image_url": "https://s3-media1.fl.yelpcdn.com/bphoto/qZ-WDlPUKeU__VQOsxBEJg/o.jpg", "is_closed": false, "url": "https://www.yelp.com/biz/homestyle-hawaiian-oceanside?adjust_creative=oncXGL2aPIKrtJdnWeFSnA&utm_campaign=yelp_api_v3&utm_medium=api_v3_business_search&utm_source=oncXGL2aPIKrtJdnWeFSnA", "review_count": 17, "categories": [{"alias": "hawaiian", "title": "Hawaiian"}], "rating": 4.0, "coordinates": {"latitude": 33.19498, "longitude": -117.35455}, "transactions": [], "location": {"address1": "1950 Oceanside Blvd", "address2": null, "address3": "", "city": "Oceanside", "zip_code": "92054", "country": "US", "state": "CA", "display_address": ["1950 Oceanside Blvd", "Oceanside, CA 92054"]}, "phone": "+17606963030", "display_phone": "(760) 696-3030", "distance": 17909.637677172563}, {"id": "YK1Xrn9MBg4PxrgIIsjheQ", "alias": "wicked-poke-oceanside", "name": "Wicked Poke", "image_url": "https://s3-media1.fl.yelpcdn.com/bphoto/BggOhgd5QUIJSNZlVJamnw/o.jpg", "is_closed": false, "url": "https://www.yelp.com/biz/wicked-poke-oceanside?adjust_creative=oncXGL2aPIKrtJdnWeFSnA&utm_campaign=yelp_api_v3&utm_medium=api_v3_business_search&utm_source=oncXGL2aPIKrtJdnWeFSnA", "review_count": 306, "categories": [{"alias": "poke", "title": "Poke"}, {"alias": "shavedice", "title": "Shaved Ice"}, {"alias": "hawaiian", "title": "Hawaiian"}], "rating": 4.5, "coordinates": {"latitude": 33.1827333308032, "longitude": -117.335424575336}, "transactions": [], "price": "$", "location": {"address1": "2401 Vista Way", "address2": "Ste E", "address3": null, "city": "Oceanside", "zip_code": "92054", "country": "US", "state": "CA", "display_address": ["2401 Vista Way", "Ste E", "Oceanside, CA 92054"]}, "phone": "+17605290774", "display_phone": "(760) 529-0774", "distance": 15770.41282506485}, {"id": "nRKvaT9vmo_XwTRw6QK16Q", "alias": "surf-brothers-teriyaki-carlsbad", "name": "Surf Brothers Teriyaki", "image_url": "https://s3-media4.fl.yelpcdn.com/bphoto/Qw6in2aB9moeBBHhMa4LYQ/o.jpg", "is_closed": false, "url": "https://www.yelp.com/biz/surf-brothers-teriyaki-carlsbad?adjust_creative=oncXGL2aPIKrtJdnWeFSnA&utm_campaign=yelp_api_v3&utm_medium=api_v3_business_search&utm_source=oncXGL2aPIKrtJdnWeFSnA", "review_count": 251, "categories": [{"alias": "hawaiian", "title": "Hawaiian"}, {"alias": "bbq", "title": "Barbeque"}, {"alias": "hotdogs", "title": "Fast Food"}], "rating": 4.0, "coordinates": {"latitude": 33.13106, "longitude": -117.260566}, "transactions": [], "price": "$", "location": {"address1": "2708 Loker Ave W", "address2": "Ste 103", "address3": "", "city": "Carlsbad", "zip_code": "92010", "country": "US", "state": "CA", "display_address": ["2708 Loker Ave W", "Ste 103", "Carlsbad, CA 92010"]}, "phone": "+17604597973", "display_phone": "(760) 459-7973", "distance": 8207.641776945546}, {"id": "3HwX_pwXzqht0kynuu8iow", "alias": "the-lanai-encinitas", "name": "The Lanai", "image_url": "https://s3-media3.fl.yelpcdn.com/bphoto/xnbKqP0CtSaOV7P3_k_AGw/o.jpg", "is_closed": false, "url": "https://www.yelp.com/biz/the-lanai-encinitas?adjust_creative=oncXGL2aPIKrtJdnWeFSnA&utm_campaign=yelp_api_v3&utm_medium=api_v3_business_search&utm_source=oncXGL2aPIKrtJdnWeFSnA", "review_count": 159, "categories": [{"alias": "hawaiian", "title": "Hawaiian"}, {"alias": "poke", "title": "Poke"}], "rating": 4.0, "coordinates": {"latitude": 33.0681218639126, "longitude": -117.303886455267}, "transactions": [], "price": "$$", "location": {"address1": "1114 N Coast Hwy 101", "address2": "", "address3": "", "city": "Encinitas", "zip_code": "92024", "country": "US", "state": "CA", "display_address": ["1114 N Coast Hwy 101", "Encinitas, CA 92024"]}, "phone": "+17606134564", "display_phone": "(760) 613-4564", "distance": 14647.96671774106}, {"id": "SminN3P9lIhb8JoS6mFrBw", "alias": "poki-poki-vista-vista", "name": "Poki Poki-Vista", "image_url": "https://s3-media4.fl.yelpcdn.com/bphoto/n53btfN_a7h8HxGrv9QRpg/o.jpg", "is_closed": false, "url": "https://www.yelp.com/biz/poki-poki-vista-vista?adjust_creative=oncXGL2aPIKrtJdnWeFSnA&utm_campaign=yelp_api_v3&utm_medium=api_v3_business_search&utm_source=oncXGL2aPIKrtJdnWeFSnA", "review_count": 96, "categories": [{"alias": "poke", "title": "Poke"}, {"alias": "hawaiian", "title": "Hawaiian"}], "rating": 4.5, "coordinates": {"latitude": 33.2004047, "longitude": -117.2449455}, "transactions": [], "price": "$$", "location": {"address1": "20 Main St", "address2": "Ste 150", "address3": null, "city": "Vista", "zip_code": "92084", "country": "US", "state": "CA", "display_address": ["20 Main St", "Ste 150", "Vista, CA 92084"]}, "phone": "+17602955665", "display_phone": "(760) 295-5665", "distance": 9356.870576953075}, {"id": "GQugDjO_6bwtVr1kva4kRg", "alias": "pokewan-carlsbad", "name": "Pokewan", "image_url": "https://s3-media1.fl.yelpcdn.com/bphoto/iYkT1m_mC1XTXStViwX2Sw/o.jpg", "is_closed": false, "url": "https://www.yelp.com/biz/pokewan-carlsbad?adjust_creative=oncXGL2aPIKrtJdnWeFSnA&utm_campaign=yelp_api_v3&utm_medium=api_v3_business_search&utm_source=oncXGL2aPIKrtJdnWeFSnA", "review_count": 255, "categories": [{"alias": "poke", "title": "Poke"}, {"alias": "hawaiian", "title": "Hawaiian"}, {"alias": "seafood", "title": "Seafood"}], "rating": 4.5, "coordinates": {"latitude": 33.16156, "longitude": -117.34686}, "transactions": [], "price": "$$", "location": {"address1": "2958 Madison St", "address2": "Ste 101", "address3": null, "city": "Carlsbad", "zip_code": "92008", "country": "US", "state": "CA", "display_address": ["2958 Madison St", "Ste 101", "Carlsbad, CA 92008"]}, "phone": "+17607202300", "display_phone": "(760) 720-2300", "distance": 16306.093855434718}, {"id": "qM5NeJk4A8tSfdosbgUAdQ", "alias": "l-and-l-hawaiian-barbecue-oceanside-2", "name": "L&L Hawaiian Barbecue", "image_url": "https://s3-media2.fl.yelpcdn.com/bphoto/jWipNNKBB4ZCetHL1Qaalw/o.jpg", "is_closed": false, "url": "https://www.yelp.com/biz/l-and-l-hawaiian-barbecue-oceanside-2?adjust_creative=oncXGL2aPIKrtJdnWeFSnA&utm_campaign=yelp_api_v3&utm_medium=api_v3_business_search&utm_source=oncXGL2aPIKrtJdnWeFSnA", "review_count": 131, "categories": [{"alias": "bbq", "title": "Barbeque"}, {"alias": "hawaiian", "title": "Hawaiian"}], "rating": 4.0, "coordinates": {"latitude": 33.2065510147543, "longitude": -117.283936571967}, "transactions": [], "price": "$", "location": {"address1": "4225 Oceanside Blvd", "address2": "Ste E", "address3": null, "city": "Oceanside", "zip_code": "92056", "country": "US", "state": "CA", "display_address": ["4225 Oceanside Blvd", "Ste E", "Oceanside, CA 92056"]}, "phone": "+17607260888", "display_phone": "(760) 726-0888", "distance": 12580.924113096058}, {"id": "MLlI6Qiuyr9WXbzJhCzU9A", "alias": "beach-bowls-san-elijo-encinitas", "name": "Beach Bowls San Elijo", "image_url": "https://s3-media1.fl.yelpcdn.com/bphoto/3u2uB0FEUr_aB7S4UfQgWg/o.jpg", "is_closed": false, "url": "https://www.yelp.com/biz/beach-bowls-san-elijo-encinitas?adjust_creative=oncXGL2aPIKrtJdnWeFSnA&utm_campaign=yelp_api_v3&utm_medium=api_v3_business_search&utm_source=oncXGL2aPIKrtJdnWeFSnA", "review_count": 1, "categories": [{"alias": "japanese", "title": "Japanese"}, {"alias": "hawaiian", "title": "Hawaiian"}], "rating": 5.0, "coordinates": {"latitude": 33.0211109133061, "longitude": -117.284618653357}, "transactions": [], "location": {"address1": "2050 S Coast Hwy 101", "address2": "", "address3": null, "city": "Encinitas", "zip_code": "92007", "country": "US", "state": "CA", "display_address": ["2050 S Coast Hwy 101", "Encinitas, CA 92007"]}, "phone": "+17609943667", "display_phone": "(760) 994-3667", "distance": 16936.719976011795}, {"id": "CvgmuACGX2tfkXzkh_gomA", "alias": "poki-poki-oceanside-oceanside-3", "name": "Poki Poki - Oceanside", "image_url": "https://s3-media3.fl.yelpcdn.com/bphoto/ajV769xWBlhiCdiiSbgJBQ/o.jpg", "is_closed": false, "url": "https://www.yelp.com/biz/poki-poki-oceanside-oceanside-3?adjust_creative=oncXGL2aPIKrtJdnWeFSnA&utm_campaign=yelp_api_v3&utm_medium=api_v3_business_search&utm_source=oncXGL2aPIKrtJdnWeFSnA", "review_count": 285, "categories": [{"alias": "asianfusion", "title": "Asian Fusion"}, {"alias": "hawaiian", "title": "Hawaiian"}, {"alias": "poke", "title": "Poke"}], "rating": 4.0, "coordinates": {"latitude": 33.1784354, "longitude": -117.2953997}, "transactions": [], "price": "$$", "location": {"address1": "3480 Marron Rd", "address2": "Ste 3B-101", "address3": "", "city": "Oceanside", "zip_code": "92056", "country": "US", "state": "CA", "display_address": ["3480 Marron Rd", "Ste 3B-101", "Oceanside, CA 92056"]}, "phone": "+17602959086", "display_phone": "(760) 295-9086", "distance": 12090.392516809972}, {"id": "tSwwA5Vy0Iv3RtIw0uJlXg", "alias": "mikko-sushi-carlsbad-2", "name": "Mikko Sushi", "image_url": "https://s3-media2.fl.yelpcdn.com/bphoto/y-bWjcckWwxsJDar3gWOtg/o.jpg", "is_closed": false, "url": "https://www.yelp.com/biz/mikko-sushi-carlsbad-2?adjust_creative=oncXGL2aPIKrtJdnWeFSnA&utm_campaign=yelp_api_v3&utm_medium=api_v3_business_search&utm_source=oncXGL2aPIKrtJdnWeFSnA", "review_count": 420, "categories": [{"alias": "sushi", "title": "Sushi Bars"}, {"alias": "japanese", "title": "Japanese"}, {"alias": "hawaiian", "title": "Hawaiian"}], "rating": 4.5, "coordinates": {"latitude": 33.1624882511995, "longitude": -117.343036971947}, "transactions": ["delivery", "pickup"], "price": "$$", "location": {"address1": "1025 Carlsbad Village Dr", "address2": "", "address3": "", "city": "Carlsbad", "zip_code": "92008", "country": "US", "state": "CA", "display_address": ["1025 Carlsbad Village Dr", "Carlsbad, CA 92008"]}, "phone": "+17607300088", "display_phone": "(760) 730-0088", "distance": 15971.637462707882}, {"id": "kWg1LK_ZyRGrRIWpHFv4qg", "alias": "fish-district-san-diego", "name": "Fish District", "image_url": "https://s3-media3.fl.yelpcdn.com/bphoto/1x1tbuz0Hfmk_woYCtjKng/o.jpg", "is_closed": false, "url": "https://www.yelp.com/biz/fish-district-san-diego?adjust_creative=oncXGL2aPIKrtJdnWeFSnA&utm_campaign=yelp_api_v3&utm_medium=api_v3_business_search&utm_source=oncXGL2aPIKrtJdnWeFSnA", "review_count": 784, "categories": [{"alias": "seafood", "title": "Seafood"}, {"alias": "fishnchips", "title": "Fish & Chips"}, {"alias": "hawaiian", "title": "Hawaiian"}], "rating": 4.0, "coordinates": {"latitude": 32.9835979081114, "longitude": -117.076650499726}, "transactions": [], "price": "$$", "location": {"address1": "12002 Carmel Mountain Rd", "address2": "", "address3": "", "city": "San Diego", "zip_code": "92128", "country": "US", "state": "CA", "display_address": ["12002 Carmel Mountain Rd", "San Diego, CA 92128"]}, "phone": "+18584851577", "display_phone": "(858) 485-1577", "distance": 19736.949206037414}, {"id": "crl2aOL0NiFcPT7spXXVrA", "alias": "maui-hawaiian-bbq-oceanside", "name": "Maui Hawaiian BBQ", "image_url": "https://s3-media2.fl.yelpcdn.com/bphoto/SXP21OoXVeEdvMb_IGTsFQ/o.jpg", "is_closed": false, "url": "https://www.yelp.com/biz/maui-hawaiian-bbq-oceanside?adjust_creative=oncXGL2aPIKrtJdnWeFSnA&utm_campaign=yelp_api_v3&utm_medium=api_v3_business_search&utm_source=oncXGL2aPIKrtJdnWeFSnA", "review_count": 181, "categories": [{"alias": "hawaiian", "title": "Hawaiian"}, {"alias": "bbq", "title": "Barbeque"}], "rating": 3.0, "coordinates": {"latitude": 33.1826324462891, "longitude": -117.333488464355}, "transactions": [], "price": "$", "location": {"address1": "2455 Vista Way", "address2": "Ste D", "address3": "", "city": "Oceanside", "zip_code": "92054", "country": "US", "state": "CA", "display_address": ["2455 Vista Way", "Ste D", "Oceanside, CA 92054"]}, "phone": "+17607228383", "display_phone": "(760) 722-8383", "distance": 15596.865225676722}, {"id": "OVAO2XkGwTp_TidI8YSDxw", "alias": "ohana-hawaiian-bbq-oceanside", "name": "Ohana Hawaiian BBQ", "image_url": "https://s3-media2.fl.yelpcdn.com/bphoto/buWhiT7GNPSD3Y-Q2iZovQ/o.jpg", "is_closed": false, "url": "https://www.yelp.com/biz/ohana-hawaiian-bbq-oceanside?adjust_creative=oncXGL2aPIKrtJdnWeFSnA&utm_campaign=yelp_api_v3&utm_medium=api_v3_business_search&utm_source=oncXGL2aPIKrtJdnWeFSnA", "review_count": 125, "categories": [{"alias": "hawaiian", "title": "Hawaiian"}, {"alias": "seafood", "title": "Seafood"}, {"alias": "burgers", "title": "Burgers"}], "rating": 3.5, "coordinates": {"latitude": 33.2452381392478, "longitude": -117.293055949074}, "transactions": [], "price": "$", "location": {"address1": "459 College Blvd", "address2": "", "address3": "", "city": "Oceanside", "zip_code": "92057", "country": "US", "state": "CA", "display_address": ["459 College Blvd", "Oceanside, CA 92057"]}, "phone": "+17606306800", "display_phone": "(760) 630-6800", "distance": 16035.254254279662}, {"id": "UPSzxiR8sXSQ1NsjjwbbaA", "alias": "surf-brothers-teriyaki-encinitas", "name": "Surf Brothers Teriyaki", "image_url": "https://s3-media1.fl.yelpcdn.com/bphoto/UroBNTNJn37No37dTCVuhA/o.jpg", "is_closed": false, "url": "https://www.yelp.com/biz/surf-brothers-teriyaki-encinitas?adjust_creative=oncXGL2aPIKrtJdnWeFSnA&utm_campaign=yelp_api_v3&utm_medium=api_v3_business_search&utm_source=oncXGL2aPIKrtJdnWeFSnA", "review_count": 133, "categories": [{"alias": "hawaiian", "title": "Hawaiian"}, {"alias": "hotdogs", "title": "Fast Food"}], "rating": 3.5, "coordinates": {"latitude": 33.052474, "longitude": -117.262128}, "transactions": [], "price": "$", "location": {"address1": "274 N El Camino Real", "address2": "", "address3": "", "city": "Encinitas", "zip_code": "92024", "country": "US", "state": "CA", "display_address": ["274 N El Camino Real", "Encinitas, CA 92024"]}, "phone": "+17604597973", "display_phone": "(760) 459-7973", "distance": 12904.388013087411}, {"id": "wC3CqwTy_-rgANl-W9XG-Q", "alias": "l-and-l-hawaiian-barbecue-san-diego-18", "name": "L&L Hawaiian Barbecue", "image_url": "https://s3-media2.fl.yelpcdn.com/bphoto/nwxK6lEOnKx0EAjBx31SEQ/o.jpg", "is_closed": false, "url": "https://www.yelp.com/biz/l-and-l-hawaiian-barbecue-san-diego-18?adjust_creative=oncXGL2aPIKrtJdnWeFSnA&utm_campaign=yelp_api_v3&utm_medium=api_v3_business_search&utm_source=oncXGL2aPIKrtJdnWeFSnA", "review_count": 221, "categories": [{"alias": "hawaiian", "title": "Hawaiian"}, {"alias": "bbq", "title": "Barbeque"}], "rating": 2.5, "coordinates": {"latitude": 32.98216805569, "longitude": -117.07484663457}, "transactions": ["delivery", "pickup"], "price": "$", "location": {"address1": "11975 Carmel Mountain Rd", "address2": "", "address3": "", "city": "San Diego", "zip_code": "92128", "country": "US", "state": "CA", "display_address": ["11975 Carmel Mountain Rd", "San Diego, CA 92128"]}, "phone": "+18584516888", "display_phone": "(858) 451-6888", "distance": 19955.3191576005}], "total": 21, "region": {"center": {"longitude": -117.17330932617188, "latitude": 33.141533511091374}}}