{"businesses": [{"id": "5OTTzfZdp5ld_L5xCN3RAQ", "alias": "cucina-amore-san-marcos-5", "name": "Cucina Amore", "image_url": "https://s3-media2.fl.yelpcdn.com/bphoto/abc7nXpH2KyWcTIO6lnvmg/o.jpg", "is_closed": false, "url": "https://www.yelp.com/biz/cucina-amore-san-marcos-5?adjust_creative=oncXGL2aPIKrtJdnWeFSnA&utm_campaign=yelp_api_v3&utm_medium=api_v3_business_search&utm_source=oncXGL2aPIKrtJdnWeFSnA", "review_count": 245, "categories": [{"alias": "italian", "title": "Italian"}, {"alias": "gelato", "title": "Gelato"}, {"alias": "pizza", "title": "Pizza"}], "rating": 4.0, "coordinates": {"latitude": 33.1318662450634, "longitude": -117.205854914526}, "transactions": ["delivery", "pickup"], "price": "$$", "location": {"address1": "679 S Rancho Santa Fe Rd", "address2": "", "address3": "", "city": "San Marcos", "zip_code": "92078", "country": "US", "state": "CA", "display_address": ["679 S Rancho Santa Fe Rd", "San Marcos, CA 92078"]}, "phone": "+17603046939", "display_phone": "(760) 304-6939", "distance": 3215.363472024143}, {"id": "rpEjdPH4VsmKkms8mOgfGQ", "alias": "pizza-nova-san-marcos", "name": "Pizza Nova", "image_url": "https://s3-media4.fl.yelpcdn.com/bphoto/6smxMR4tcQdbrky_bQcLZw/o.jpg", "is_closed": false, "url": "https://www.yelp.com/biz/pizza-nova-san-marcos?adjust_creative=oncXGL2aPIKrtJdnWeFSnA&utm_campaign=yelp_api_v3&utm_medium=api_v3_business_search&utm_source=oncXGL2aPIKrtJdnWeFSnA", "review_count": 361, "categories": [{"alias": "italian", "title": "Italian"}, {"alias": "pizza", "title": "Pizza"}], "rating": 4.0, "coordinates": {"latitude": 33.1403236674437, "longitude": -117.162771789562}, "transactions": [], "price": "$$", "location": {"address1": "141 N Twin Oaks Valley Rd", "address2": "", "address3": "", "city": "San Marcos", "zip_code": "92069", "country": "US", "state": "CA", "display_address": ["141 N Twin Oaks Valley Rd", "San Marcos, CA 92069"]}, "phone": "+17607368300", "display_phone": "(760) 736-8300", "distance": 990.2940323001644}, {"id": "pTY7iPqpu-iCGCIQJobj0g", "alias": "sorrentos-pizza-san-marcos-2", "name": "Sorrento's Pizza", "image_url": "https://s3-media2.fl.yelpcdn.com/bphoto/2C_lxwW39Q_Fm8lUuewBCg/o.jpg", "is_closed": false, "url": "https://www.yelp.com/biz/sorrentos-pizza-san-marcos-2?adjust_creative=oncXGL2aPIKrtJdnWeFSnA&utm_campaign=yelp_api_v3&utm_medium=api_v3_business_search&utm_source=oncXGL2aPIKrtJdnWeFSnA", "review_count": 210, "categories": [{"alias": "pizza", "title": "Pizza"}, {"alias": "italian", "title": "Italian"}, {"alias": "sandwiches", "title": "Sandwiches"}], "rating": 4.5, "coordinates": {"latitude": 33.15092, "longitude": -117.19176}, "transactions": [], "price": "$$", "location": {"address1": "1450 W Mission Rd", "address2": "", "address3": "", "city": "San Marcos", "zip_code": "92069", "country": "US", "state": "CA", "display_address": ["1450 W Mission Rd", "San Marcos, CA 92069"]}, "phone": "+17607274091", "display_phone": "(760) 727-4091", "distance": 2034.4712264130128}, {"id": "fSNeDicHMEwYuZl7Ko1JAQ", "alias": "the-old-spaghetti-factory-san-marcos", "name": "The Old Spaghetti Factory", "image_url": "https://s3-media4.fl.yelpcdn.com/bphoto/w1kY2uonTdJyT7arTFmoaQ/o.jpg", "is_closed": false, "url": "https://www.yelp.com/biz/the-old-spaghetti-factory-san-marcos?adjust_creative=oncXGL2aPIKrtJdnWeFSnA&utm_campaign=yelp_api_v3&utm_medium=api_v3_business_search&utm_source=oncXGL2aPIKrtJdnWeFSnA", "review_count": 490, "categories": [{"alias": "italian", "title": "Italian"}], "rating": 3.0, "coordinates": {"latitude": 33.1391492144446, "longitude": -117.162912912362}, "transactions": ["delivery", "pickup"], "price": "$$", "location": {"address1": "111 N Twin Oaks Valley Rd", "address2": "", "address3": "", "city": "San Marcos", "zip_code": "92069", "country": "US", "state": "CA", "display_address": ["111 N Twin Oaks Valley Rd", "San Marcos, CA 92069"]}, "phone": "+17604710155", "display_phone": "(760) 471-0155", "distance": 1003.6315700546098}, {"id": "aRacnEURw6oTkrijdeUZXA", "alias": "buona-forchetta-encinitas", "name": "Buona Forchetta", "image_url": "https://s3-media3.fl.yelpcdn.com/bphoto/WXve-tSW9FcOXICtSENE9g/o.jpg", "is_closed": false, "url": "https://www.yelp.com/biz/buona-forchetta-encinitas?adjust_creative=oncXGL2aPIKrtJdnWeFSnA&utm_campaign=yelp_api_v3&utm_medium=api_v3_business_search&utm_source=oncXGL2aPIKrtJdnWeFSnA", "review_count": 29, "categories": [{"alias": "pizza", "title": "Pizza"}, {"alias": "italian", "title": "Italian"}, {"alias": "wine_bars", "title": "Wine Bars"}], "rating": 5.0, "coordinates": {"latitude": 33.05359, "longitude": -117.29659}, "transactions": [], "location": {"address1": "250 N Coast Hwy 101", "address2": "", "address3": null, "city": "Encinitas", "zip_code": "92024", "country": "US", "state": "CA", "display_address": ["250 N Coast Hwy 101", "Encinitas, CA 92024"]}, "phone": "+17607048070", "display_phone": "(760) 704-8070", "distance": 15083.621876646159}, {"id": "q0U8_bdI9JhgcXUZ_t5gkg", "alias": "ciao-ristorante-italiano-vista-2", "name": "Ciao Ristorante Italiano", "image_url": "https://s3-media1.fl.yelpcdn.com/bphoto/9UPSOU4nUHyUha3Vx4cZAg/o.jpg", "is_closed": false, "url": "https://www.yelp.com/biz/ciao-ristorante-italiano-vista-2?adjust_creative=oncXGL2aPIKrtJdnWeFSnA&utm_campaign=yelp_api_v3&utm_medium=api_v3_business_search&utm_source=oncXGL2aPIKrtJdnWeFSnA", "review_count": 435, "categories": [{"alias": "italian", "title": "Italian"}], "rating": 4.5, "coordinates": {"latitude": 33.23074, "longitude": -117.22578}, "transactions": [], "price": "$$", "location": {"address1": "2015 E Vista Way", "address2": "", "address3": "", "city": "Vista", "zip_code": "92084", "country": "US", "state": "CA", "display_address": ["2015 E Vista Way", "Vista, CA 92084"]}, "phone": "+17606307333", "display_phone": "(760) 630-7333", "distance": 11059.468345598032}, {"id": "3_9dZxTil8FZQ7d2uZU_Xg", "alias": "casa-angelo-san-marcos", "name": "Casa Angelo", "image_url": "https://s3-media3.fl.yelpcdn.com/bphoto/hbZBid0aRsSREdjCuXQ-Yg/o.jpg", "is_closed": false, "url": "https://www.yelp.com/biz/casa-angelo-san-marcos?adjust_creative=oncXGL2aPIKrtJdnWeFSnA&utm_campaign=yelp_api_v3&utm_medium=api_v3_business_search&utm_source=oncXGL2aPIKrtJdnWeFSnA", "review_count": 83, "categories": [{"alias": "italian", "title": "Italian"}], "rating": 4.0, "coordinates": {"latitude": 33.1356736284461, "longitude": -117.18273261475}, "transactions": [], "price": "$", "location": {"address1": "823 W San Marcos Blvd", "address2": "", "address3": "", "city": "San Marcos", "zip_code": "92078", "country": "US", "state": "CA", "display_address": ["823 W San Marcos Blvd", "San Marcos, CA 92078"]}, "phone": "+17604719725", "display_phone": "(760) 471-9725", "distance": 1092.879938387443}, {"id": "UPGYeMQGPyKahAsW0AMorw", "alias": "mangia-e-bevi-oceanside", "name": "Mangia e Bevi", "image_url": "https://s3-media2.fl.yelpcdn.com/bphoto/JyNc7RZ6xSYKdnkOArHM2Q/o.jpg", "is_closed": false, "url": "https://www.yelp.com/biz/mangia-e-bevi-oceanside?adjust_creative=oncXGL2aPIKrtJdnWeFSnA&utm_campaign=yelp_api_v3&utm_medium=api_v3_business_search&utm_source=oncXGL2aPIKrtJdnWeFSnA", "review_count": 16, "categories": [{"alias": "italian", "title": "Italian"}, {"alias": "pizza", "title": "Pizza"}, {"alias": "wine_bars", "title": "Wine Bars"}], "rating": 5.0, "coordinates": {"latitude": 33.21011, "longitude": -117.31162}, "transactions": [], "location": {"address1": "3613 Ocean Ranch Blvd", "address2": "Ste 100", "address3": "", "city": "Oceanside", "zip_code": "92056", "country": "US", "state": "CA", "display_address": ["3613 Ocean Ranch Blvd", "Ste 100", "Oceanside, CA 92056"]}, "phone": "+17602311225", "display_phone": "(760) 231-1225", "distance": 14944.216702816804}, {"id": "jtwlX9jrzO-WaX8Vy-ZZ2g", "alias": "shanes-pizza-and-pints-san-marcos", "name": "Shane's Pizza and Pints", "image_url": "https://s3-media1.fl.yelpcdn.com/bphoto/yprYKYElKxS4Bp1bjHpe2Q/o.jpg", "is_closed": false, "url": "https://www.yelp.com/biz/shanes-pizza-and-pints-san-marcos?adjust_creative=oncXGL2aPIKrtJdnWeFSnA&utm_campaign=yelp_api_v3&utm_medium=api_v3_business_search&utm_source=oncXGL2aPIKrtJdnWeFSnA", "review_count": 133, "categories": [{"alias": "pizza", "title": "Pizza"}, {"alias": "italian", "title": "Italian"}, {"alias": "beerbar", "title": "Beer Bar"}], "rating": 4.0, "coordinates": {"latitude": 33.097095, "longitude": -117.200195}, "transactions": ["delivery", "pickup"], "price": "$$", "location": {"address1": "1523 San Elijo Rd S", "address2": "Ste 109", "address3": "", "city": "San Marcos", "zip_code": "92078", "country": "US", "state": "CA", "display_address": ["1523 San Elijo Rd S", "Ste 109", "San Marcos, CA 92078"]}, "phone": "+17607980522", "display_phone": "(760) 798-0522", "distance": 5536.698763890461}, {"id": "lPFKybOVx2gRLClTzIujdg", "alias": "bologna-gourmet-carlsbad", "name": "Bologna Gourmet", "image_url": "https://s3-media3.fl.yelpcdn.com/bphoto/MdIdPh2bo_Dme675CPztRw/o.jpg", "is_closed": false, "url": "https://www.yelp.com/biz/bologna-gourmet-carlsbad?adjust_creative=oncXGL2aPIKrtJdnWeFSnA&utm_campaign=yelp_api_v3&utm_medium=api_v3_business_search&utm_source=oncXGL2aPIKrtJdnWeFSnA", "review_count": 150, "categories": [{"alias": "delis", "title": "Delis"}, {"alias": "italian", "title": "Italian"}, {"alias": "pastashops", "title": "Pasta Shops"}], "rating": 4.5, "coordinates": {"latitude": 33.12392, "longitude": -117.27351}, "transactions": ["pickup"], "price": "$", "location": {"address1": "6150 Yarrow Dr", "address2": null, "address3": "", "city": "Carlsbad", "zip_code": "92011", "country": "US", "state": "CA", "display_address": ["6150 Yarrow Dr", "Carlsbad, CA 92011"]}, "phone": "+17609290877", "display_phone": "(760) 929-0877", "distance": 9541.487840826912}, {"id": "DknnpiG1p4OoM1maFshzXA", "alias": "bernardo-winery-san-diego-2", "name": "Bernardo Winery", "image_url": "https://s3-media3.fl.yelpcdn.com/bphoto/khAMjr-sE3pv-Xth-ceGZQ/o.jpg", "is_closed": false, "url": "https://www.yelp.com/biz/bernardo-winery-san-diego-2?adjust_creative=oncXGL2aPIKrtJdnWeFSnA&utm_campaign=yelp_api_v3&utm_medium=api_v3_business_search&utm_source=oncXGL2aPIKrtJdnWeFSnA", "review_count": 441, "categories": [{"alias": "shoppingcenters", "title": "Shopping Centers"}, {"alias": "winetastingroom", "title": "Wine Tasting Room"}, {"alias": "italian", "title": "Italian"}], "rating": 4.0, "coordinates": {"latitude": 33.0328, "longitude": -117.04646}, "transactions": ["restaurant_reservation"], "price": "$$", "location": {"address1": "13330 Paseo Del Verano Norte", "address2": null, "address3": "", "city": "San Diego", "zip_code": "92128", "country": "US", "state": "CA", "display_address": ["13330 Paseo Del Verano Norte", "San Diego, CA 92128"]}, "phone": "+18584871866", "display_phone": "(858) 487-1866", "distance": 16871.11770196926}, {"id": "YSyO7Z6yMkRG3knkq40mfQ", "alias": "uncle-tonys-italian-cuisine-vista", "name": "Uncle Tony's Italian Cuisine", "image_url": "https://s3-media3.fl.yelpcdn.com/bphoto/LrfOjSaYknHsKj5BEsHYBQ/o.jpg", "is_closed": false, "url": "https://www.yelp.com/biz/uncle-tonys-italian-cuisine-vista?adjust_creative=oncXGL2aPIKrtJdnWeFSnA&utm_campaign=yelp_api_v3&utm_medium=api_v3_business_search&utm_source=oncXGL2aPIKrtJdnWeFSnA", "review_count": 319, "categories": [{"alias": "italian", "title": "Italian"}, {"alias": "pizza", "title": "Pizza"}, {"alias": "cocktailbars", "title": "Cocktail Bars"}], "rating": 4.0, "coordinates": {"latitude": 33.16353, "longitude": -117.219449}, "transactions": [], "price": "$$", "location": {"address1": "770 Sycamore Ave", "address2": "Ste 121", "address3": "", "city": "Vista", "zip_code": "92083", "country": "US", "state": "CA", "display_address": ["770 Sycamore Ave", "Ste 121", "Vista, CA 92083"]}, "phone": "+17605986669", "display_phone": "(760) 598-6669", "distance": 4942.907626908892}, {"id": "UI4Ly-jMvfTSqcrtht8PAg", "alias": "feliccias-italian-restaurant-deli-and-catering-vista", "name": "Feliccia's Italian Restaurant, Deli & Catering", "image_url": "https://s3-media3.fl.yelpcdn.com/bphoto/VQ-18Am3LRTNW9fStBY22g/o.jpg", "is_closed": false, "url": "https://www.yelp.com/biz/feliccias-italian-restaurant-deli-and-catering-vista?adjust_creative=oncXGL2aPIKrtJdnWeFSnA&utm_campaign=yelp_api_v3&utm_medium=api_v3_business_search&utm_source=oncXGL2aPIKrtJdnWeFSnA", "review_count": 104, "categories": [{"alias": "delis", "title": "Delis"}, {"alias": "italian", "title": "Italian"}], "rating": 4.5, "coordinates": {"latitude": 33.1920623779297, "longitude": -117.230804443359}, "transactions": ["delivery", "pickup"], "price": "$$", "location": {"address1": "1011 S Santa Fe Ave", "address2": "Ste C", "address3": "", "city": "Vista", "zip_code": "92083", "country": "US", "state": "CA", "display_address": ["1011 S Santa Fe Ave", "Ste C", "Vista, CA 92083"]}, "phone": "+17607589167", "display_phone": "(760) 758-9167", "distance": 7752.564345388817}, {"id": "jMPyxhdYOt21P9m4dzEoiA", "alias": "rockn-jennys-italian-subs-escondido-2", "name": "Rockn' Jenny's Italian Subs", "image_url": "https://s3-media3.fl.yelpcdn.com/bphoto/1cujS2yalJtrA9YLUwttSA/o.jpg", "is_closed": false, "url": "https://www.yelp.com/biz/rockn-jennys-italian-subs-escondido-2?adjust_creative=oncXGL2aPIKrtJdnWeFSnA&utm_campaign=yelp_api_v3&utm_medium=api_v3_business_search&utm_source=oncXGL2aPIKrtJdnWeFSnA", "review_count": 532, "categories": [{"alias": "italian", "title": "Italian"}, {"alias": "sandwiches", "title": "Sandwiches"}], "rating": 4.5, "coordinates": {"latitude": 33.1171391, "longitude": -117.0966814}, "transactions": ["delivery", "pickup"], "price": "$", "location": {"address1": "1044 W Valley Pkwy", "address2": "", "address3": "", "city": "Escondido", "zip_code": "92025", "country": "US", "state": "CA", "display_address": ["1044 W Valley Pkwy", "Escondido, CA 92025"]}, "phone": "+17604802835", "display_phone": "(760) 480-2835", "distance": 7558.418947785807}, {"id": "Jv1EcJ3M-0QqzEFNI4_W0A", "alias": "olive-garden-italian-restaurant-escondido-2", "name": "Olive Garden Italian Restaurant", "image_url": "https://s3-media1.fl.yelpcdn.com/bphoto/HlFgnnR8tXHrHtJTVuDE1Q/o.jpg", "is_closed": false, "url": "https://www.yelp.com/biz/olive-garden-italian-restaurant-escondido-2?adjust_creative=oncXGL2aPIKrtJdnWeFSnA&utm_campaign=yelp_api_v3&utm_medium=api_v3_business_search&utm_source=oncXGL2aPIKrtJdnWeFSnA", "review_count": 241, "categories": [{"alias": "italian", "title": "Italian"}, {"alias": "salad", "title": "Salad"}], "rating": 3.0, "coordinates": {"latitude": 33.1156099, "longitude": -117.09755}, "transactions": [], "price": "$$", "location": {"address1": "1107 W Valley Pkwy", "address2": "", "address3": "", "city": "Escondido", "zip_code": "92025", "country": "US", "state": "CA", "display_address": ["1107 W Valley Pkwy", "Escondido, CA 92025"]}, "phone": "+17607379285", "display_phone": "(760) 737-9285", "distance": 7613.793250552084}, {"id": "v1H9N_3k3ckng8NcZek6gw", "alias": "fratellis-italian-kitchen-oceanside-5", "name": "Fratelli's Italian Kitchen", "image_url": "https://s3-media1.fl.yelpcdn.com/bphoto/rAUy6VUipaPXVzdSQ-g2lg/o.jpg", "is_closed": false, "url": "https://www.yelp.com/biz/fratellis-italian-kitchen-oceanside-5?adjust_creative=oncXGL2aPIKrtJdnWeFSnA&utm_campaign=yelp_api_v3&utm_medium=api_v3_business_search&utm_source=oncXGL2aPIKrtJdnWeFSnA", "review_count": 680, "categories": [{"alias": "italian", "title": "Italian"}, {"alias": "pizza", "title": "Pizza"}, {"alias": "seafood", "title": "Seafood"}], "rating": 4.5, "coordinates": {"latitude": 33.2281406, "longitude": -117.3245743}, "transactions": ["delivery", "pickup"], "price": "$$", "location": {"address1": "3915 Mission Ave", "address2": "Ste 12", "address3": "", "city": "Oceanside", "zip_code": "92058", "country": "US", "state": "CA", "display_address": ["3915 Mission Ave", "Ste 12", "Oceanside, CA 92058"]}, "phone": "+17606969007", "display_phone": "(760) 696-9007", "distance": 17018.83924988147}, {"id": "iaV-0DI3Mky4WO0uhydohQ", "alias": "grand-slam-pizza-vista", "name": "Grand Slam Pizza", "image_url": "https://s3-media2.fl.yelpcdn.com/bphoto/4H1vJ2M3_tXyylSJFK1bWQ/o.jpg", "is_closed": false, "url": "https://www.yelp.com/biz/grand-slam-pizza-vista?adjust_creative=oncXGL2aPIKrtJdnWeFSnA&utm_campaign=yelp_api_v3&utm_medium=api_v3_business_search&utm_source=oncXGL2aPIKrtJdnWeFSnA", "review_count": 81, "categories": [{"alias": "pizza", "title": "Pizza"}, {"alias": "sportsbars", "title": "Sports Bars"}, {"alias": "italian", "title": "Italian"}], "rating": 5.0, "coordinates": {"latitude": 33.15787, "longitude": -117.24943}, "transactions": ["delivery", "pickup"], "location": {"address1": "1910 Shadowridge Dr", "address2": "Ste 101", "address3": null, "city": "Vista", "zip_code": "92081", "country": "US", "state": "CA", "display_address": ["1910 Shadowridge Dr", "Ste 101", "Vista, CA 92081"]}, "phone": "+17605991199", "display_phone": "(760) 599-1199", "distance": 7278.583237448555}, {"id": "NQ4QOOTbYW9MfseqwRFZcQ", "alias": "2051-cafe-carlsbad", "name": "2051 Cafe", "image_url": "https://s3-media3.fl.yelpcdn.com/bphoto/2FSNyrghNITP3L21VkbrPw/o.jpg", "is_closed": false, "url": "https://www.yelp.com/biz/2051-cafe-carlsbad?adjust_creative=oncXGL2aPIKrtJdnWeFSnA&utm_campaign=yelp_api_v3&utm_medium=api_v3_business_search&utm_source=oncXGL2aPIKrtJdnWeFSnA", "review_count": 82, "categories": [{"alias": "cafes", "title": "Cafes"}, {"alias": "delis", "title": "Delis"}, {"alias": "italian", "title": "Italian"}], "rating": 5.0, "coordinates": {"latitude": 33.1224971661327, "longitude": -117.276416666667}, "transactions": [], "price": "$$", "location": {"address1": "2051 Palomar Airport Rd", "address2": "Ste 175", "address3": null, "city": "Carlsbad", "zip_code": "92011", "country": "US", "state": "CA", "display_address": ["2051 Palomar Airport Rd", "Ste 175", "Carlsbad, CA 92011"]}, "phone": "+17608142831", "display_phone": "(760) 814-2831", "distance": 9831.517865947755}, {"id": "Ve9Tl-ru_6F3WVFG4zBV-A", "alias": "maurizio-trattoria-italiana-encinitas", "name": "Maurizio Trattoria Italiana", "image_url": "https://s3-media1.fl.yelpcdn.com/bphoto/EMVM_r8h-iqGwoBhg7MbPw/o.jpg", "is_closed": false, "url": "https://www.yelp.com/biz/maurizio-trattoria-italiana-encinitas?adjust_creative=oncXGL2aPIKrtJdnWeFSnA&utm_campaign=yelp_api_v3&utm_medium=api_v3_business_search&utm_source=oncXGL2aPIKrtJdnWeFSnA", "review_count": 371, "categories": [{"alias": "italian", "title": "Italian"}], "rating": 4.5, "coordinates": {"latitude": 33.0458881253134, "longitude": -117.293677765499}, "transactions": ["restaurant_reservation", "pickup"], "price": "$$", "location": {"address1": "505 S Coast Hwy 101", "address2": "", "address3": "", "city": "Encinitas", "zip_code": "92024", "country": "US", "state": "CA", "display_address": ["505 S Coast Hwy 101", "Encinitas, CA 92024"]}, "phone": "+17609427332", "display_phone": "(760) 942-7332", "distance": 15454.543391172512}, {"id": "whN2OehLpeBfG0pQ-T82ug", "alias": "vigiluccis-seafood-and-steakhouse-carlsbad-2", "name": "Vigilucci's Seafood & Steakhouse", "image_url": "https://s3-media2.fl.yelpcdn.com/bphoto/8F6PoHWtXypGPSXy6vLyKg/o.jpg", "is_closed": false, "url": "https://www.yelp.com/biz/vigiluccis-seafood-and-steakhouse-carlsbad-2?adjust_creative=oncXGL2aPIKrtJdnWeFSnA&utm_campaign=yelp_api_v3&utm_medium=api_v3_business_search&utm_source=oncXGL2aPIKrtJdnWeFSnA", "review_count": 680, "categories": [{"alias": "italian", "title": "Italian"}, {"alias": "steak", "title": "Steakhouses"}], "rating": 4.0, "coordinates": {"latitude": 33.14796, "longitude": -117.34529}, "transactions": [], "price": "$$$", "location": {"address1": "3878 Carlsbad Blvd", "address2": "", "address3": "", "city": "Carlsbad", "zip_code": "92008", "country": "US", "state": "CA", "display_address": ["3878 Carlsbad Blvd", "Carlsbad, CA 92008"]}, "phone": "+17604342580", "display_phone": "(760) 434-2580", "distance": 16039.857935974316}, {"id": "ZSKfwEepB1-4tpRXx_qVbQ", "alias": "spiritos-italian-diner-carlsbad", "name": "Spirito's Italian Diner", "image_url": "https://s3-media3.fl.yelpcdn.com/bphoto/C5Bzp3rJZ3bswnsSLmj6tw/o.jpg", "is_closed": false, "url": "https://www.yelp.com/biz/spiritos-italian-diner-carlsbad?adjust_creative=oncXGL2aPIKrtJdnWeFSnA&utm_campaign=yelp_api_v3&utm_medium=api_v3_business_search&utm_source=oncXGL2aPIKrtJdnWeFSnA", "review_count": 470, "categories": [{"alias": "italian", "title": "Italian"}], "rating": 4.5, "coordinates": {"latitude": 33.180249, "longitude": -117.324982}, "transactions": [], "price": "$$", "location": {"address1": "2508 El Camino Real", "address2": "", "address3": "", "city": "Carlsbad", "zip_code": "92008", "country": "US", "state": "CA", "display_address": ["2508 El Camino Real", "Carlsbad, CA 92008"]}, "phone": "+17607207111", "display_phone": "(760) 720-7111", "distance": 14760.248126548086}, {"id": "l34qfz5oRfpLVuEcvBp4Pw", "alias": "buca-di-beppo-italian-restaurant-carlsbad-3", "name": "Buca di Beppo Italian Restaurant", "image_url": "https://s3-media2.fl.yelpcdn.com/bphoto/HjX10vYwJxrqs55wBLNWpQ/o.jpg", "is_closed": false, "url": "https://www.yelp.com/biz/buca-di-beppo-italian-restaurant-carlsbad-3?adjust_creative=oncXGL2aPIKrtJdnWeFSnA&utm_campaign=yelp_api_v3&utm_medium=api_v3_business_search&utm_source=oncXGL2aPIKrtJdnWeFSnA", "review_count": 391, "categories": [{"alias": "italian", "title": "Italian"}], "rating": 3.0, "coordinates": {"latitude": 33.0722341387192, "longitude": -117.267009615898}, "transactions": ["delivery", "pickup"], "price": "$$", "location": {"address1": "1921 Calle Barcelona", "address2": "", "address3": "", "city": "Carlsbad", "zip_code": "92009", "country": "US", "state": "CA", "display_address": ["1921 Calle Barcelona", "Carlsbad, CA 92009"]}, "phone": "+17604792533", "display_phone": "(760) 479-2533", "distance": 11642.483598051642}, {"id": "QYLURXZN1y6AduSfzvarKw", "alias": "vivace-carlsbad", "name": "Vivace", "image_url": "https://s3-media2.fl.yelpcdn.com/bphoto/wTPMzuM2JtnNTkQ9h30Q0A/o.jpg", "is_closed": false, "url": "https://www.yelp.com/biz/vivace-carlsbad?adjust_creative=oncXGL2aPIKrtJdnWeFSnA&utm_campaign=yelp_api_v3&utm_medium=api_v3_business_search&utm_source=oncXGL2aPIKrtJdnWeFSnA", "review_count": 139, "categories": [{"alias": "italian", "title": "Italian"}], "rating": 4.0, "coordinates": {"latitude": 33.0991034437941, "longitude": -117.285724486508}, "transactions": [], "price": "$$$$", "location": {"address1": "7100 Aviara Resort Dr", "address2": "", "address3": "Park Hyatt Aviara Resort", "city": "Carlsbad", "zip_code": "92011", "country": "US", "state": "CA", "display_address": ["7100 Aviara Resort Dr", "Park Hyatt Aviara Resort", "Carlsbad, CA 92011"]}, "phone": "+17606033773", "display_phone": "(760) 603-3773", "distance": 11483.051806047552}, {"id": "NFa54p4yISdDXgO7A6r_3Q", "alias": "filippis-pizza-grotto-escondido-escondido", "name": "Filippi's Pizza Grotto Escondido", "image_url": "https://s3-media3.fl.yelpcdn.com/bphoto/bkBmC6elc884u_VcNQB5nQ/o.jpg", "is_closed": false, "url": "https://www.yelp.com/biz/filippis-pizza-grotto-escondido-escondido?adjust_creative=oncXGL2aPIKrtJdnWeFSnA&utm_campaign=yelp_api_v3&utm_medium=api_v3_business_search&utm_source=oncXGL2aPIKrtJdnWeFSnA", "review_count": 471, "categories": [{"alias": "italian", "title": "Italian"}, {"alias": "wine_bars", "title": "Wine Bars"}, {"alias": "beerbar", "title": "Beer Bar"}], "rating": 3.5, "coordinates": {"latitude": 33.12175, "longitude": -117.08206}, "transactions": [], "price": "$$", "location": {"address1": "114 W Grand Ave", "address2": "", "address3": "", "city": "Escondido", "zip_code": "92025", "country": "US", "state": "CA", "display_address": ["114 W Grand Ave", "Escondido, CA 92025"]}, "phone": "+17607472650", "display_phone": "(760) 747-2650", "distance": 8777.611254000445}, {"id": "TLF_euB5yoR93G_EG_7bFA", "alias": "alices-italian-gourmet-encinitas", "name": "Alice's Italian Gourmet", "image_url": "https://s3-media2.fl.yelpcdn.com/bphoto/wdWatEjuW_afoUsUS5MEhg/o.jpg", "is_closed": false, "url": "https://www.yelp.com/biz/alices-italian-gourmet-encinitas?adjust_creative=oncXGL2aPIKrtJdnWeFSnA&utm_campaign=yelp_api_v3&utm_medium=api_v3_business_search&utm_source=oncXGL2aPIKrtJdnWeFSnA", "review_count": 143, "categories": [{"alias": "italian", "title": "Italian"}], "rating": 4.5, "coordinates": {"latitude": 33.0515732, "longitude": -117.2610449}, "transactions": [], "price": "$$", "location": {"address1": "252 N  El Camino Real", "address2": "", "address3": null, "city": "Encinitas", "zip_code": "92024", "country": "US", "state": "CA", "display_address": ["252 N  El Camino Real", "Encinitas, CA 92024"]}, "phone": "+17606326933", "display_phone": "(760) 632-6933", "distance": 13016.359569073053}, {"id": "5PhVuBy6sz6kTcHMPGCWQw", "alias": "roccos-pizza-and-deli-vista", "name": "Rocco's Pizza And Deli", "image_url": "https://s3-media3.fl.yelpcdn.com/bphoto/eHir9NcPDv914Cm_Kg9mDg/o.jpg", "is_closed": false, "url": "https://www.yelp.com/biz/roccos-pizza-and-deli-vista?adjust_creative=oncXGL2aPIKrtJdnWeFSnA&utm_campaign=yelp_api_v3&utm_medium=api_v3_business_search&utm_source=oncXGL2aPIKrtJdnWeFSnA", "review_count": 59, "categories": [{"alias": "pizza", "title": "Pizza"}, {"alias": "italian", "title": "Italian"}, {"alias": "sandwiches", "title": "Sandwiches"}], "rating": 4.5, "coordinates": {"latitude": 33.1655321353509, "longitude": -117.220746718408}, "transactions": [], "price": "$", "location": {"address1": "749 Shadowridge Dr", "address2": "", "address3": "", "city": "Vista", "zip_code": "92083", "country": "US", "state": "CA", "display_address": ["749 Shadowridge Dr", "Vista, CA 92083"]}, "phone": "+17605977036", "display_phone": "(760) 597-7036", "distance": 5159.741664023373}, {"id": "aHmaM2SYGqEkefUBHIiybA", "alias": "pizza-hut-san-marcos-2", "name": "Pizza Hut", "image_url": "https://s3-media1.fl.yelpcdn.com/bphoto/20nfHR3YoRFrjocfJ7vBbg/o.jpg", "is_closed": false, "url": "https://www.yelp.com/biz/pizza-hut-san-marcos-2?adjust_creative=oncXGL2aPIKrtJdnWeFSnA&utm_campaign=yelp_api_v3&utm_medium=api_v3_business_search&utm_source=oncXGL2aPIKrtJdnWeFSnA", "review_count": 34, "categories": [{"alias": "pizza", "title": "Pizza"}, {"alias": "italian", "title": "Italian"}, {"alias": "chicken_wings", "title": "Chicken Wings"}], "rating": 2.5, "coordinates": {"latitude": 33.1304321289062, "longitude": -117.209907531738}, "transactions": [], "price": "$", "location": {"address1": "1915 W San Marcos Blvd", "address2": "", "address3": "", "city": "San Marcos", "zip_code": "92069", "country": "US", "state": "CA", "display_address": ["1915 W San Marcos Blvd", "San Marcos, CA 92069"]}, "phone": "+17605989900", "display_phone": "(760) 598-9900", "distance": 3627.949951260045}, {"id": "cRnTc5ZWwXTCjWywBOdSFQ", "alias": "joes-italian-dinners-escondido", "name": "Joe's Italian Cuisine", "image_url": "https://s3-media3.fl.yelpcdn.com/bphoto/AMbvJZfxNqLpQdJwKS-J1g/o.jpg", "is_closed": false, "url": "https://www.yelp.com/biz/joes-italian-dinners-escondido?adjust_creative=oncXGL2aPIKrtJdnWeFSnA&utm_campaign=yelp_api_v3&utm_medium=api_v3_business_search&utm_source=oncXGL2aPIKrtJdnWeFSnA", "review_count": 180, "categories": [{"alias": "italian", "title": "Italian"}, {"alias": "diners", "title": "Diners"}, {"alias": "desserts", "title": "Desserts"}], "rating": 4.0, "coordinates": {"latitude": 33.1193813, "longitude": -117.0856388}, "transactions": [], "price": "$$", "location": {"address1": "403 W Grand Ave", "address2": "", "address3": "", "city": "Escondido", "zip_code": "92025", "country": "US", "state": "CA", "display_address": ["403 W Grand Ave", "Escondido, CA 92025"]}, "phone": "+17604896835", "display_phone": "(760) 489-6835", "distance": 8527.263455057771}, {"id": "JBeX7kW_p2yWnG0TOYAvzQ", "alias": "dominics-italian-gourmet-escondido", "name": "Dominics Italian Gourmet", "image_url": "https://s3-media3.fl.yelpcdn.com/bphoto/CKOQuATO7dlG7Kc-3v4iHw/o.jpg", "is_closed": false, "url": "https://www.yelp.com/biz/dominics-italian-gourmet-escondido?adjust_creative=oncXGL2aPIKrtJdnWeFSnA&utm_campaign=yelp_api_v3&utm_medium=api_v3_business_search&utm_source=oncXGL2aPIKrtJdnWeFSnA", "review_count": 231, "categories": [{"alias": "italian", "title": "Italian"}, {"alias": "seafood", "title": "Seafood"}, {"alias": "pizza", "title": "Pizza"}], "rating": 4.0, "coordinates": {"latitude": 33.1215956, "longitude": -117.0808957}, "transactions": ["pickup"], "price": "$$", "location": {"address1": "113 E Grand Av", "address2": "", "address3": "", "city": "Escondido", "zip_code": "92025", "country": "US", "state": "CA", "display_address": ["113 E Grand Av", "Escondido, CA 92025"]}, "phone": "+17604801704", "display_phone": "(760) 480-1704", "distance": 8886.230413634035}, {"id": "oDu9zioCsT-aFvgmmR4SPA", "alias": "olive-garden-italian-restaurant-carlsbad-2", "name": "Olive Garden Italian Restaurant", "image_url": "https://s3-media2.fl.yelpcdn.com/bphoto/4vhVDito2T-UeuzjzOdpsQ/o.jpg", "is_closed": false, "url": "https://www.yelp.com/biz/olive-garden-italian-restaurant-carlsbad-2?adjust_creative=oncXGL2aPIKrtJdnWeFSnA&utm_campaign=yelp_api_v3&utm_medium=api_v3_business_search&utm_source=oncXGL2aPIKrtJdnWeFSnA", "review_count": 321, "categories": [{"alias": "italian", "title": "Italian"}, {"alias": "salad", "title": "Salad"}], "rating": 3.5, "coordinates": {"latitude": 33.1766399862211, "longitude": -117.337510636985}, "transactions": [], "price": "$$", "location": {"address1": "1884 Marron Rd", "address2": "Bldg L", "address3": "", "city": "Carlsbad", "zip_code": "92008", "country": "US", "state": "CA", "display_address": ["1884 Marron Rd", "Bldg L", "Carlsbad, CA 92008"]}, "phone": "+17604341016", "display_phone": "(760) 434-1016", "distance": 15775.659058150488}, {"id": "gp-i76Ne4Q2f2tBNr4SZvQ", "alias": "vigiluccis-cucina-italiana-carlsbad-3", "name": "Vigilucci's Cucina Italiana", "image_url": "https://s3-media2.fl.yelpcdn.com/bphoto/llU4w5f5eT1sq1plhgn0XQ/o.jpg", "is_closed": false, "url": "https://www.yelp.com/biz/vigiluccis-cucina-italiana-carlsbad-3?adjust_creative=oncXGL2aPIKrtJdnWeFSnA&utm_campaign=yelp_api_v3&utm_medium=api_v3_business_search&utm_source=oncXGL2aPIKrtJdnWeFSnA", "review_count": 646, "categories": [{"alias": "italian", "title": "Italian"}], "rating": 4.0, "coordinates": {"latitude": 33.1601104736328, "longitude": -117.349487304688}, "transactions": ["delivery"], "price": "$$", "location": {"address1": "2943 State St", "address2": "", "address3": "", "city": "Carlsbad", "zip_code": "92008", "country": "US", "state": "CA", "display_address": ["2943 State St", "Carlsbad, CA 92008"]}, "phone": "+17604342500", "display_phone": "(760) 434-2500", "distance": 16531.600841597738}, {"id": "YNfDnUoHj6JybsNb8KxoaA", "alias": "palomar-pizza-and-pasta-vista", "name": "Palomar Pizza & Pasta", "image_url": "https://s3-media2.fl.yelpcdn.com/bphoto/fQj0wRhwTc2kWQyjytnowA/o.jpg", "is_closed": false, "url": "https://www.yelp.com/biz/palomar-pizza-and-pasta-vista?adjust_creative=oncXGL2aPIKrtJdnWeFSnA&utm_campaign=yelp_api_v3&utm_medium=api_v3_business_search&utm_source=oncXGL2aPIKrtJdnWeFSnA", "review_count": 92, "categories": [{"alias": "pizza", "title": "Pizza"}, {"alias": "italian", "title": "Italian"}], "rating": 3.5, "coordinates": {"latitude": 33.132653, "longitude": -117.229594}, "transactions": [], "price": "$", "location": {"address1": "3265 Business Park Dr", "address2": "", "address3": "", "city": "Vista", "zip_code": "92081", "country": "US", "state": "CA", "display_address": ["3265 Business Park Dr", "Vista, CA 92081"]}, "phone": "+17607275559", "display_phone": "(760) 727-5559", "distance": 5332.920845010879}, {"id": "ZKPviNRauaMkmQBojkxXBg", "alias": "mama-n-papas-pizza-grotto-vista-3", "name": "Mama 'n Papa's Pizza Grotto", "image_url": "https://s3-media3.fl.yelpcdn.com/bphoto/Z4rzucXKPawma5UiPEP-Pw/o.jpg", "is_closed": false, "url": "https://www.yelp.com/biz/mama-n-papas-pizza-grotto-vista-3?adjust_creative=oncXGL2aPIKrtJdnWeFSnA&utm_campaign=yelp_api_v3&utm_medium=api_v3_business_search&utm_source=oncXGL2aPIKrtJdnWeFSnA", "review_count": 310, "categories": [{"alias": "pizza", "title": "Pizza"}, {"alias": "italian", "title": "Italian"}], "rating": 4.0, "coordinates": {"latitude": 33.19076, "longitude": -117.23698}, "transactions": [], "price": "$$", "location": {"address1": "988 Civic Center Dr", "address2": "", "address3": "", "city": "Vista", "zip_code": "92083", "country": "US", "state": "CA", "display_address": ["988 Civic Center Dr", "Vista, CA 92083"]}, "phone": "+17609413900", "display_phone": "(760) 941-3900", "distance": 8056.843886799379}, {"id": "YVYSdguuyjMyU4U7ZndhDg", "alias": "portinos-valley-center", "name": "Portinos", "image_url": "https://s3-media4.fl.yelpcdn.com/bphoto/73sAOQh96DrCxlbSOTj_Bw/o.jpg", "is_closed": false, "url": "https://www.yelp.com/biz/portinos-valley-center?adjust_creative=oncXGL2aPIKrtJdnWeFSnA&utm_campaign=yelp_api_v3&utm_medium=api_v3_business_search&utm_source=oncXGL2aPIKrtJdnWeFSnA", "review_count": 190, "categories": [{"alias": "italian", "title": "Italian"}], "rating": 4.0, "coordinates": {"latitude": 33.23143, "longitude": -117.03406}, "transactions": [], "price": "$$", "location": {"address1": "28746 Valley Center Rd", "address2": "", "address3": "", "city": "Valley Center", "zip_code": "92082", "country": "US", "state": "CA", "display_address": ["28746 Valley Center Rd", "Valley Center, CA 92082"]}, "phone": "+17607510077", "display_phone": "(760) 751-0077", "distance": 16353.190804205477}, {"id": "JcoMV3ZGMAtVauyDlPoUKg", "alias": "leucadia-pizzeria-vista", "name": "Leucadia Pizzeria", "image_url": "https://s3-media1.fl.yelpcdn.com/bphoto/vBD_ze94dKOwn2i54XZ1ng/o.jpg", "is_closed": false, "url": "https://www.yelp.com/biz/leucadia-pizzeria-vista?adjust_creative=oncXGL2aPIKrtJdnWeFSnA&utm_campaign=yelp_api_v3&utm_medium=api_v3_business_search&utm_source=oncXGL2aPIKrtJdnWeFSnA", "review_count": 71, "categories": [{"alias": "pizza", "title": "Pizza"}, {"alias": "italian", "title": "Italian"}, {"alias": "sandwiches", "title": "Sandwiches"}], "rating": 4.0, "coordinates": {"latitude": 33.1459728, "longitude": -117.2423388}, "transactions": ["delivery", "pickup"], "price": "$$", "location": {"address1": "2215 S Melrose Dr", "address2": "Ste 105", "address3": "Melrose Square Center", "city": "Vista", "zip_code": "92081", "country": "US", "state": "CA", "display_address": ["2215 S Melrose Dr", "Ste 105", "Melrose Square Center", "Vista, CA 92081"]}, "phone": "+17607272223", "display_phone": "(760) 727-2223", "distance": 6445.819243990646}, {"id": "Hp508UyzdPWPvXeo_b1ISg", "alias": "cicciottis-trattoria-italiana-and-seafood-carlsbad-2", "name": "Cicciotti's Trattoria Italiana & Seafood", "image_url": "https://s3-media2.fl.yelpcdn.com/bphoto/KfeFCSV_K5jviVZ9yG05zA/o.jpg", "is_closed": false, "url": "https://www.yelp.com/biz/cicciottis-trattoria-italiana-and-seafood-carlsbad-2?adjust_creative=oncXGL2aPIKrtJdnWeFSnA&utm_campaign=yelp_api_v3&utm_medium=api_v3_business_search&utm_source=oncXGL2aPIKrtJdnWeFSnA", "review_count": 353, "categories": [{"alias": "italian", "title": "Italian"}, {"alias": "seafood", "title": "Seafood"}, {"alias": "wine_bars", "title": "Wine Bars"}], "rating": 4.0, "coordinates": {"latitude": 33.1612004423715, "longitude": -117.348603644919}, "transactions": ["delivery", "pickup"], "price": "$$", "location": {"address1": "595 Grand Ave", "address2": "", "address3": null, "city": "Carlsbad", "zip_code": "92008", "country": "US", "state": "CA", "display_address": ["595 Grand Ave", "Carlsbad, CA 92008"]}, "phone": "+17609940553", "display_phone": "(760) 994-0553", "distance": 16464.982850458648}, {"id": "FgxdTh9KjrbwxMEZu3xDBA", "alias": "nuccis-italian-cafe-and-pizza-vista", "name": "Nucci's Italian Cafe & Pizza", "image_url": "https://s3-media4.fl.yelpcdn.com/bphoto/zgdsxiPYUvMVIOoANHwSZA/o.jpg", "is_closed": false, "url": "https://www.yelp.com/biz/nuccis-italian-cafe-and-pizza-vista?adjust_creative=oncXGL2aPIKrtJdnWeFSnA&utm_campaign=yelp_api_v3&utm_medium=api_v3_business_search&utm_source=oncXGL2aPIKrtJdnWeFSnA", "review_count": 227, "categories": [{"alias": "pizza", "title": "Pizza"}, {"alias": "italian", "title": "Italian"}], "rating": 4.0, "coordinates": {"latitude": 33.16796875, "longitude": -117.247253417969}, "transactions": [], "price": "$$", "location": {"address1": "1580 S Melrose Dr", "address2": "Ste 108", "address3": "", "city": "Vista", "zip_code": "92081", "country": "US", "state": "CA", "display_address": ["1580 S Melrose Dr", "Ste 108", "Vista, CA 92081"]}, "phone": "+17605981005", "display_phone": "(760) 598-1005", "distance": 7496.064243262677}, {"id": "hETuEEWgfk1OSJ5K31OFmg", "alias": "rosannas-pasta-shop-encinitas", "name": "Rosanna's Pasta Shop", "image_url": "https://s3-media3.fl.yelpcdn.com/bphoto/l6reGKs0wtLGaFKvFZqmbw/o.jpg", "is_closed": false, "url": "https://www.yelp.com/biz/rosannas-pasta-shop-encinitas?adjust_creative=oncXGL2aPIKrtJdnWeFSnA&utm_campaign=yelp_api_v3&utm_medium=api_v3_business_search&utm_source=oncXGL2aPIKrtJdnWeFSnA", "review_count": 406, "categories": [{"alias": "italian", "title": "Italian"}, {"alias": "pastashops", "title": "Pasta Shops"}, {"alias": "sandwiches", "title": "Sandwiches"}], "rating": 4.0, "coordinates": {"latitude": 33.0525554, "longitude": -117.2613819}, "transactions": [], "price": "$$", "location": {"address1": "270 N El Camino Real", "address2": "Ste I", "address3": "", "city": "Encinitas", "zip_code": "92024", "country": "US", "state": "CA", "display_address": ["270 N El Camino Real", "Ste I", "Encinitas, CA 92024"]}, "phone": "+17607536867", "display_phone": "(760) 753-6867", "distance": 12986.997750454733}, {"id": "NPbVSI0ueJcxnJPZh5xv4Q", "alias": "264-fresco-carlsbad-2", "name": "264 Fresco", "image_url": "https://s3-media3.fl.yelpcdn.com/bphoto/LaU5r_2QJ74WuljDJUsA4A/o.jpg", "is_closed": false, "url": "https://www.yelp.com/biz/264-fresco-carlsbad-2?adjust_creative=oncXGL2aPIKrtJdnWeFSnA&utm_campaign=yelp_api_v3&utm_medium=api_v3_business_search&utm_source=oncXGL2aPIKrtJdnWeFSnA", "review_count": 738, "categories": [{"alias": "italian", "title": "Italian"}, {"alias": "venues", "title": "Venues & Event Spaces"}, {"alias": "wine_bars", "title": "Wine Bars"}], "rating": 4.0, "coordinates": {"latitude": 33.15805, "longitude": -117.35183}, "transactions": ["delivery"], "price": "$$", "location": {"address1": "264 Carlsbad Village Dr", "address2": "", "address3": "", "city": "Carlsbad", "zip_code": "92008", "country": "US", "state": "CA", "display_address": ["264 Carlsbad Village Dr", "Carlsbad, CA 92008"]}, "phone": "+17607203737", "display_phone": "(760) 720-3737", "distance": 16708.962221273974}, {"id": "n3b6lsqXk3TYSXHuWlangQ", "alias": "piacere-mio-del-sur-san-diego-2", "name": "Piacere Mio Del sur", "image_url": "https://s3-media3.fl.yelpcdn.com/bphoto/CO6pJpZLxDE_WEzvQXlOCA/o.jpg", "is_closed": false, "url": "https://www.yelp.com/biz/piacere-mio-del-sur-san-diego-2?adjust_creative=oncXGL2aPIKrtJdnWeFSnA&utm_campaign=yelp_api_v3&utm_medium=api_v3_business_search&utm_source=oncXGL2aPIKrtJdnWeFSnA", "review_count": 306, "categories": [{"alias": "pizza", "title": "Pizza"}, {"alias": "italian", "title": "Italian"}, {"alias": "bars", "title": "Bars"}], "rating": 4.0, "coordinates": {"latitude": 33.0209346352993, "longitude": -117.124258128689}, "transactions": ["restaurant_reservation"], "price": "$$", "location": {"address1": "16490 Paseo Del Sur", "address2": "Ste 135", "address3": "Del Sur Town Center", "city": "San Diego", "zip_code": "92127", "country": "US", "state": "CA", "display_address": ["16490 Paseo Del Sur", "Ste 135", "Del Sur Town Center", "San Diego, CA 92127"]}, "phone": "+18583128390", "display_phone": "(858) 312-8390", "distance": 14167.320823487653}, {"id": "REs-IYie1ERpX21kkYE8Pw", "alias": "cucina-enoteca-del-mar-del-mar-2", "name": "Cucina Enoteca Del Mar", "image_url": "https://s3-media4.fl.yelpcdn.com/bphoto/mO9Bw_jgW16ilsikoiWMCA/o.jpg", "is_closed": false, "url": "https://www.yelp.com/biz/cucina-enoteca-del-mar-del-mar-2?adjust_creative=oncXGL2aPIKrtJdnWeFSnA&utm_campaign=yelp_api_v3&utm_medium=api_v3_business_search&utm_source=oncXGL2aPIKrtJdnWeFSnA", "review_count": 930, "categories": [{"alias": "italian", "title": "Italian"}, {"alias": "wine_bars", "title": "Wine Bars"}, {"alias": "pizza", "title": "Pizza"}], "rating": 4.0, "coordinates": {"latitude": 32.9810134249869, "longitude": -117.248989232541}, "transactions": [], "price": "$$", "location": {"address1": "2730 Via De La Valle", "address2": "", "address3": "", "city": "Del Mar", "zip_code": "92014", "country": "US", "state": "CA", "display_address": ["2730 Via De La Valle", "Del Mar, CA 92014"]}, "phone": "+18587044500", "display_phone": "(858) 704-4500", "distance": 19191.849184124516}, {"id": "ayrjYB3CJnfqStJh2dqfCg", "alias": "pizza-and-pasta-buffet-carlsbad", "name": "Pizza & Pasta Buffet", "image_url": "https://s3-media3.fl.yelpcdn.com/bphoto/cM8pE2Rrj4g9nSMrYPn2iA/o.jpg", "is_closed": false, "url": "https://www.yelp.com/biz/pizza-and-pasta-buffet-carlsbad?adjust_creative=oncXGL2aPIKrtJdnWeFSnA&utm_campaign=yelp_api_v3&utm_medium=api_v3_business_search&utm_source=oncXGL2aPIKrtJdnWeFSnA", "review_count": 103, "categories": [{"alias": "italian", "title": "Italian"}], "rating": 4.0, "coordinates": {"latitude": 33.127275026725, "longitude": -117.309511603151}, "transactions": [], "price": "$$", "location": {"address1": "1 Legoland", "address2": "", "address3": "", "city": "Carlsbad", "zip_code": "92008", "country": "US", "state": "CA", "display_address": ["1 Legoland", "Carlsbad, CA 92008"]}, "phone": "", "display_phone": "", "distance": 12780.987421150263}, {"id": "IFb5NTkbljP-JdlfX92fTw", "alias": "rosinas-italian-restaurant-san-diego-4", "name": "Rosina's Italian Restaurant", "image_url": "https://s3-media3.fl.yelpcdn.com/bphoto/JaOieo7B62Inu0LLLYT5GA/o.jpg", "is_closed": false, "url": "https://www.yelp.com/biz/rosinas-italian-restaurant-san-diego-4?adjust_creative=oncXGL2aPIKrtJdnWeFSnA&utm_campaign=yelp_api_v3&utm_medium=api_v3_business_search&utm_source=oncXGL2aPIKrtJdnWeFSnA", "review_count": 202, "categories": [{"alias": "italian", "title": "Italian"}, {"alias": "wine_bars", "title": "Wine Bars"}], "rating": 4.5, "coordinates": {"latitude": 32.990623, "longitude": -117.159621}, "transactions": [], "price": "$$", "location": {"address1": "14701 Via Bettona", "address2": "", "address3": "", "city": "San Diego", "zip_code": "92127", "country": "US", "state": "CA", "display_address": ["14701 Via Bettona", "San Diego, CA 92127"]}, "phone": "+18587594300", "display_phone": "(858) 759-4300", "distance": 16828.875211384966}, {"id": "YGQ3IUftvDAhpOT-B4NrBg", "alias": "bongiornos-new-york-pizzeria-solana-beach", "name": "Bongiorno's New York Pizzeria", "image_url": "https://s3-media2.fl.yelpcdn.com/bphoto/zNf0PbdyE_1itBokTZLB6A/o.jpg", "is_closed": false, "url": "https://www.yelp.com/biz/bongiornos-new-york-pizzeria-solana-beach?adjust_creative=oncXGL2aPIKrtJdnWeFSnA&utm_campaign=yelp_api_v3&utm_medium=api_v3_business_search&utm_source=oncXGL2aPIKrtJdnWeFSnA", "review_count": 471, "categories": [{"alias": "pizza", "title": "Pizza"}, {"alias": "italian", "title": "Italian"}], "rating": 4.5, "coordinates": {"latitude": 32.99051, "longitude": -117.2606}, "transactions": [], "price": "$", "location": {"address1": "524 Stevens Ave", "address2": "Ste 10", "address3": "", "city": "Solana Beach", "zip_code": "92075", "country": "US", "state": "CA", "display_address": ["524 Stevens Ave", "Ste 10", "Solana Beach, CA 92075"]}, "phone": "+18587552646", "display_phone": "(858) 755-2646", "distance": 18670.389780386886}, {"id": "n0kK2kXztn3qfg57JrafSA", "alias": "romanos-macaroni-grill-escondido", "name": "Romano's Macaroni Grill", "image_url": "https://s3-media4.fl.yelpcdn.com/bphoto/7fPJYvbCxtbggMC7jtZZjA/o.jpg", "is_closed": false, "url": "https://www.yelp.com/biz/romanos-macaroni-grill-escondido?adjust_creative=oncXGL2aPIKrtJdnWeFSnA&utm_campaign=yelp_api_v3&utm_medium=api_v3_business_search&utm_source=oncXGL2aPIKrtJdnWeFSnA", "review_count": 342, "categories": [{"alias": "italian", "title": "Italian"}], "rating": 3.0, "coordinates": {"latitude": 33.0691622, "longitude": -117.068314}, "transactions": ["delivery", "pickup"], "price": "$$", "location": {"address1": "202 E Via Rancho Pkwy", "address2": "", "address3": "", "city": "Escondido", "zip_code": "92025", "country": "US", "state": "CA", "display_address": ["202 E Via Rancho Pkwy", "Escondido, CA 92025"]}, "phone": "+17607416309", "display_phone": "(760) 741-6309", "distance": 12658.569613433301}, {"id": "Qlue-v1qqcBwqFWi6qq3CQ", "alias": "rosatis-encinitas-encinitas", "name": "Rosati's Encinitas", "image_url": "https://s3-media1.fl.yelpcdn.com/bphoto/Fbi8TsDEkwRyCcrcmeLdRQ/o.jpg", "is_closed": false, "url": "https://www.yelp.com/biz/rosatis-encinitas-encinitas?adjust_creative=oncXGL2aPIKrtJdnWeFSnA&utm_campaign=yelp_api_v3&utm_medium=api_v3_business_search&utm_source=oncXGL2aPIKrtJdnWeFSnA", "review_count": 257, "categories": [{"alias": "pizza", "title": "Pizza"}, {"alias": "italian", "title": "Italian"}, {"alias": "sportsbars", "title": "Sports Bars"}], "rating": 4.0, "coordinates": {"latitude": 33.0557654984971, "longitude": -117.261638827622}, "transactions": [], "price": "$$", "location": {"address1": "337 N El Camino Real", "address2": "", "address3": "", "city": "Encinitas", "zip_code": "92024", "country": "US", "state": "CA", "display_address": ["337 N El Camino Real", "Encinitas, CA 92024"]}, "phone": "+17604522007", "display_phone": "(760) 452-2007", "distance": 12595.78420043983}, {"id": "PYOTvDRBT24hY5oKY93UOg", "alias": "crush-solana-beach-solana-beach", "name": "Crush Solana Beach", "image_url": "https://s3-media2.fl.yelpcdn.com/bphoto/vimBjSEGFLoPQcrDPIH02A/o.jpg", "is_closed": false, "url": "https://www.yelp.com/biz/crush-solana-beach-solana-beach?adjust_creative=oncXGL2aPIKrtJdnWeFSnA&utm_campaign=yelp_api_v3&utm_medium=api_v3_business_search&utm_source=oncXGL2aPIKrtJdnWeFSnA", "review_count": 615, "categories": [{"alias": "italian", "title": "Italian"}, {"alias": "wine_bars", "title": "Wine Bars"}, {"alias": "musicvenues", "title": "Music Venues"}], "rating": 4.0, "coordinates": {"latitude": 32.9860642395262, "longitude": -117.271179333205}, "transactions": ["delivery", "pickup"], "price": "$$", "location": {"address1": "437 S Hwy 101", "address2": "Ste 112", "address3": "", "city": "Solana Beach", "zip_code": "92075", "country": "US", "state": "CA", "display_address": ["437 S Hwy 101", "Ste 112", "Solana Beach, CA 92075"]}, "phone": "+18584812787", "display_phone": "(858) 481-2787", "distance": 19545.68592085522}, {"id": "Wy6PtgzAfiPAl91AlMqm4g", "alias": "cicciottis-trattoria-italiana-cardiff-by-the-sea", "name": "Cicciotti's Trattoria Italiana", "image_url": "https://s3-media3.fl.yelpcdn.com/bphoto/L3RvLcTeSoCDBwobgcrgCg/o.jpg", "is_closed": false, "url": "https://www.yelp.com/biz/cicciottis-trattoria-italiana-cardiff-by-the-sea?adjust_creative=oncXGL2aPIKrtJdnWeFSnA&utm_campaign=yelp_api_v3&utm_medium=api_v3_business_search&utm_source=oncXGL2aPIKrtJdnWeFSnA", "review_count": 701, "categories": [{"alias": "italian", "title": "Italian"}, {"alias": "seafood", "title": "Seafood"}], "rating": 4.0, "coordinates": {"latitude": 33.02348, "longitude": -117.283503}, "transactions": ["delivery", "pickup"], "price": "$$", "location": {"address1": "1933 San Elijo Ave", "address2": null, "address3": "", "city": "Cardiff By The Sea", "zip_code": "92007", "country": "US", "state": "CA", "display_address": ["1933 San Elijo Ave", "Cardiff By The Sea, CA 92007"]}, "phone": "+17606342335", "display_phone": "(760) 634-2335", "distance": 16684.36112585778}, {"id": "cTYExcVyTaREsz9vgXI9sw", "alias": "marco-italian-restaurant-vista", "name": "Marco Italian Restaurant", "image_url": "https://s3-media2.fl.yelpcdn.com/bphoto/bsEAQpWFqjIkURtw-kVaHA/o.jpg", "is_closed": false, "url": "https://www.yelp.com/biz/marco-italian-restaurant-vista?adjust_creative=oncXGL2aPIKrtJdnWeFSnA&utm_campaign=yelp_api_v3&utm_medium=api_v3_business_search&utm_source=oncXGL2aPIKrtJdnWeFSnA", "review_count": 113, "categories": [{"alias": "pizza", "title": "Pizza"}, {"alias": "italian", "title": "Italian"}, {"alias": "pastashops", "title": "Pasta Shops"}], "rating": 4.0, "coordinates": {"latitude": 33.22737, "longitude": -117.22567}, "transactions": [], "price": "$$", "location": {"address1": "1825 E Vista Way", "address2": "", "address3": "", "city": "Vista", "zip_code": "92084", "country": "US", "state": "CA", "display_address": ["1825 E Vista Way", "Vista, CA 92084"]}, "phone": "+17607581870", "display_phone": "(760) 758-1870", "distance": 10721.133802617152}, {"id": "o9_hGpA-x4K0TDBWDmjogg", "alias": "lamppost-pizza-vista-vista-2", "name": "Lamppost Pizza Vista", "image_url": "https://s3-media2.fl.yelpcdn.com/bphoto/TSjb_owxBLk-2n-cfH5Eug/o.jpg", "is_closed": false, "url": "https://www.yelp.com/biz/lamppost-pizza-vista-vista-2?adjust_creative=oncXGL2aPIKrtJdnWeFSnA&utm_campaign=yelp_api_v3&utm_medium=api_v3_business_search&utm_source=oncXGL2aPIKrtJdnWeFSnA", "review_count": 280, "categories": [{"alias": "pizza", "title": "Pizza"}, {"alias": "breweries", "title": "Breweries"}, {"alias": "italian", "title": "Italian"}], "rating": 3.5, "coordinates": {"latitude": 33.20019, "longitude": -117.24442}, "transactions": ["delivery", "pickup"], "price": "$$", "location": {"address1": "15 Main St", "address2": "Ste 100", "address3": "", "city": "Vista", "zip_code": "92083", "country": "US", "state": "CA", "display_address": ["15 Main St", "Ste 100", "Vista, CA 92083"]}, "phone": "+17604077600", "display_phone": "(760) 407-7600", "distance": 9299.4888218789}], "total": 114, "region": {"center": {"longitude": -117.17330932617188, "latitude": 33.141533511091374}}}