{"businesses": [{"id": "VknIQhhb1d6I9-E15dInPw", "alias": "las-brisas-mexican-cuisine-san-marcos", "name": "Las Brisas Mexican Cuisine", "image_url": "https://s3-media2.fl.yelpcdn.com/bphoto/7E9b7MwR4U5qK5NEwnbaCw/o.jpg", "is_closed": false, "url": "https://www.yelp.com/biz/las-brisas-mexican-cuisine-san-marcos?adjust_creative=oncXGL2aPIKrtJdnWeFSnA&utm_campaign=yelp_api_v3&utm_medium=api_v3_business_search&utm_source=oncXGL2aPIKrtJdnWeFSnA", "review_count": 612, "categories": [{"alias": "mexican", "title": "Mexican"}, {"alias": "seafood", "title": "Seafood"}, {"alias": "breakfast_brunch", "title": "Breakfast & Brunch"}], "rating": 4.5, "coordinates": {"latitude": 33.13491, "longitude": -117.20545}, "transactions": [], "price": "$", "location": {"address1": "577 S Rancho Santa Fe Rd", "address2": "Ste 105", "address3": "", "city": "San Marcos", "zip_code": "92078", "country": "US", "state": "CA", "display_address": ["577 S Rancho Santa Fe Rd", "Ste 105", "San Marcos, CA 92078"]}, "phone": "+17607989906", "display_phone": "(760) 798-9906", "distance": 3065.3707204801767}, {"id": "wxQUNLzD_j6bp5J-lszrXg", "alias": "taco-bar-san-marcos", "name": "Taco Bar", "image_url": "https://s3-media2.fl.yelpcdn.com/bphoto/N9hsos2kW1PqtYYcEYpESA/o.jpg", "is_closed": false, "url": "https://www.yelp.com/biz/taco-bar-san-marcos?adjust_creative=oncXGL2aPIKrtJdnWeFSnA&utm_campaign=yelp_api_v3&utm_medium=api_v3_business_search&utm_source=oncXGL2aPIKrtJdnWeFSnA", "review_count": 544, "categories": [{"alias": "mexican", "title": "Mexican"}], "rating": 4.0, "coordinates": {"latitude": 33.1423724, "longitude": -117.1917559}, "transactions": [], "price": "$", "location": {"address1": "133 S Las Posas Rd", "address2": "", "address3": "", "city": "San Marcos", "zip_code": "92078", "country": "US", "state": "CA", "display_address": ["133 S Las Posas Rd", "San Marcos, CA 92078"]}, "phone": "+17607442134", "display_phone": "(760) 744-2134", "distance": 1661.3056789326606}, {"id": "RZY3rzblNJzMd53R7tJvqg", "alias": "lourdes-san-marcos-2", "name": "Lourdes", "image_url": "https://s3-media2.fl.yelpcdn.com/bphoto/ErENBBHdt_I7t8AW-AKcxA/o.jpg", "is_closed": false, "url": "https://www.yelp.com/biz/lourdes-san-marcos-2?adjust_creative=oncXGL2aPIKrtJdnWeFSnA&utm_campaign=yelp_api_v3&utm_medium=api_v3_business_search&utm_source=oncXGL2aPIKrtJdnWeFSnA", "review_count": 29, "categories": [{"alias": "mexican", "title": "Mexican"}], "rating": 4.0, "coordinates": {"latitude": 33.0945172, "longitude": -117.2069865}, "transactions": [], "location": {"address1": "1646 San Elijo Rd", "address2": "Ste 103", "address3": null, "city": "San Marcos", "zip_code": "92078", "country": "US", "state": "CA", "display_address": ["1646 San Elijo Rd", "Ste 103", "San Marcos, CA 92078"]}, "phone": "", "display_phone": "", "distance": 5576.489334696592}, {"id": "CqGAhjXSDND4Cjy5t0Yw2g", "alias": "se\u00f1or-panchos-mexican-grill-san-marcos-2", "name": "Se\u00f1or Panchos Mexican Grill", "image_url": "https://s3-media1.fl.yelpcdn.com/bphoto/plmLBCB70xv154FHBAcPgw/o.jpg", "is_closed": false, "url": "https://www.yelp.com/biz/se%C3%B1or-panchos-mexican-grill-san-marcos-2?adjust_creative=oncXGL2aPIKrtJdnWeFSnA&utm_campaign=yelp_api_v3&utm_medium=api_v3_business_search&utm_source=oncXGL2aPIKrtJdnWeFSnA", "review_count": 246, "categories": [{"alias": "mexican", "title": "Mexican"}], "rating": 4.0, "coordinates": {"latitude": 33.1316036458155, "longitude": -117.209358215332}, "transactions": [], "price": "$", "location": {"address1": "1909 W San Marcos Blvd", "address2": "", "address3": "", "city": "San Marcos", "zip_code": "92078", "country": "US", "state": "CA", "display_address": ["1909 W San Marcos Blvd", "San Marcos, CA 92078"]}, "phone": "+17607346655", "display_phone": "(760) 734-6655", "distance": 3533.4979305372726}, {"id": "D4cCsNNkbcXBxjNOT4JHoA", "alias": "talones-tortilleria-and-restaurant-san-marcos-2", "name": "Talones Tortilleria & Restaurant", "image_url": "https://s3-media3.fl.yelpcdn.com/bphoto/F9J2HNIgQW5ExGESLSPwbg/o.jpg", "is_closed": false, "url": "https://www.yelp.com/biz/talones-tortilleria-and-restaurant-san-marcos-2?adjust_creative=oncXGL2aPIKrtJdnWeFSnA&utm_campaign=yelp_api_v3&utm_medium=api_v3_business_search&utm_source=oncXGL2aPIKrtJdnWeFSnA", "review_count": 14, "categories": [{"alias": "mexican", "title": "Mexican"}], "rating": 4.5, "coordinates": {"latitude": 33.1448174668278, "longitude": -117.170420251787}, "transactions": [], "location": {"address1": "462 W Mission Rd", "address2": "Ste 136", "address3": "", "city": "San Marcos", "zip_code": "92069", "country": "US", "state": "CA", "display_address": ["462 W Mission Rd", "Ste 136", "San Marcos, CA 92069"]}, "phone": "+17608910199", "display_phone": "(760) 891-0199", "distance": 453.534827577712}, {"id": "BVOuAYBRLVbZee5XKSjfYg", "alias": "netos-mexican-food-san-marcos", "name": "Neto's Mexican Food", "image_url": "https://s3-media3.fl.yelpcdn.com/bphoto/kFf6PhlYFvavQUwpqmEofg/o.jpg", "is_closed": false, "url": "https://www.yelp.com/biz/netos-mexican-food-san-marcos?adjust_creative=oncXGL2aPIKrtJdnWeFSnA&utm_campaign=yelp_api_v3&utm_medium=api_v3_business_search&utm_source=oncXGL2aPIKrtJdnWeFSnA", "review_count": 94, "categories": [{"alias": "mexican", "title": "Mexican"}], "rating": 4.5, "coordinates": {"latitude": 33.142699, "longitude": -117.202011}, "transactions": [], "price": "$", "location": {"address1": "325 S Rancho Santa Fe Rd", "address2": "", "address3": "", "city": "San Marcos", "zip_code": "92069", "country": "US", "state": "CA", "display_address": ["325 S Rancho Santa Fe Rd", "San Marcos, CA 92069"]}, "phone": "+17607346992", "display_phone": "(760) 734-6992", "distance": 2675.418780241869}, {"id": "Ksjprvz6IcD4BsGOg3D_pA", "alias": "the-original-mr-taco-san-marcos", "name": "The Original Mr Taco", "image_url": "https://s3-media4.fl.yelpcdn.com/bphoto/d9NuEzBAGGOpIsrJxwv3jw/o.jpg", "is_closed": false, "url": "https://www.yelp.com/biz/the-original-mr-taco-san-marcos?adjust_creative=oncXGL2aPIKrtJdnWeFSnA&utm_campaign=yelp_api_v3&utm_medium=api_v3_business_search&utm_source=oncXGL2aPIKrtJdnWeFSnA", "review_count": 165, "categories": [{"alias": "mexican", "title": "Mexican"}, {"alias": "seafood", "title": "Seafood"}], "rating": 4.0, "coordinates": {"latitude": 33.144092, "longitude": -117.167205}, "transactions": [], "price": "$", "location": {"address1": "304 W Mission Rd", "address2": "", "address3": "", "city": "San Marcos", "zip_code": "92069", "country": "US", "state": "CA", "display_address": ["304 W Mission Rd", "San Marcos, CA 92069"]}, "phone": "+17607444024", "display_phone": "(760) 744-4024", "distance": 635.5674910701002}, {"id": "50SZQEJa-IDxa8jBWuDKlA", "alias": "tacos-alex-san-marcos", "name": "Tacos Alex", "image_url": "https://s3-media4.fl.yelpcdn.com/bphoto/Rc5WPjmswFC6JKgdG1vPRw/o.jpg", "is_closed": false, "url": "https://www.yelp.com/biz/tacos-alex-san-marcos?adjust_creative=oncXGL2aPIKrtJdnWeFSnA&utm_campaign=yelp_api_v3&utm_medium=api_v3_business_search&utm_source=oncXGL2aPIKrtJdnWeFSnA", "review_count": 185, "categories": [{"alias": "tacos", "title": "Tacos"}], "rating": 4.0, "coordinates": {"latitude": 33.1437186, "longitude": -117.1664275}, "transactions": [], "price": "$", "location": {"address1": "250 W Mission Rd", "address2": "", "address3": "", "city": "San Marcos", "zip_code": "92069", "country": "US", "state": "CA", "display_address": ["250 W Mission Rd", "San Marcos, CA 92069"]}, "phone": "+17607987345", "display_phone": "(760) 798-7345", "distance": 678.4090589232719}, {"id": "YTXQaUyNRF2DM7h6_Q9y4A", "alias": "cocina-del-charro-san-marcos", "name": "Cocina Del Charro", "image_url": "https://s3-media4.fl.yelpcdn.com/bphoto/0sFMfEbDQjqaI2LN4RvLyw/o.jpg", "is_closed": false, "url": "https://www.yelp.com/biz/cocina-del-charro-san-marcos?adjust_creative=oncXGL2aPIKrtJdnWeFSnA&utm_campaign=yelp_api_v3&utm_medium=api_v3_business_search&utm_source=oncXGL2aPIKrtJdnWeFSnA", "review_count": 442, "categories": [{"alias": "mexican", "title": "Mexican"}, {"alias": "latin", "title": "Latin American"}, {"alias": "buffets", "title": "Buffets"}], "rating": 3.5, "coordinates": {"latitude": 33.1348588, "longitude": -117.1904449}, "transactions": [], "price": "$$", "location": {"address1": "1020 W San Marcos Blvd", "address2": "Ste 50", "address3": null, "city": "San Marcos", "zip_code": "92078", "country": "US", "state": "CA", "display_address": ["1020 W San Marcos Blvd", "Ste 50", "San Marcos, CA 92078"]}, "phone": "+17604716644", "display_phone": "(760) 471-6644", "distance": 1759.6648294610475}, {"id": "-mGfVpt9dFByfxRgMmowxw", "alias": "cenote-grill-escondido", "name": "Cenote Grill", "image_url": "https://s3-media1.fl.yelpcdn.com/bphoto/5B8hnYZXaI9vJyEFSfE0pQ/o.jpg", "is_closed": false, "url": "https://www.yelp.com/biz/cenote-grill-escondido?adjust_creative=oncXGL2aPIKrtJdnWeFSnA&utm_campaign=yelp_api_v3&utm_medium=api_v3_business_search&utm_source=oncXGL2aPIKrtJdnWeFSnA", "review_count": 582, "categories": [{"alias": "mexican", "title": "Mexican"}], "rating": 4.0, "coordinates": {"latitude": 33.1551629168914, "longitude": -117.125163098636}, "transactions": [], "price": "$$", "location": {"address1": "1896 W El Norte Pkwy", "address2": null, "address3": "", "city": "Escondido", "zip_code": "92026", "country": "US", "state": "CA", "display_address": ["1896 W El Norte Pkwy", "Escondido, CA 92026"]}, "phone": "+17607409911", "display_phone": "(760) 740-9911", "distance": 4731.624158625025}, {"id": "vhABKp8FD5Z_ZAMbhrBcUA", "alias": "craft-and-taco-lounge-escondido-3", "name": "Craft and Taco Lounge", "image_url": "https://s3-media3.fl.yelpcdn.com/bphoto/K23aaxFpbpndyZ5Rp5gnCQ/o.jpg", "is_closed": false, "url": "https://www.yelp.com/biz/craft-and-taco-lounge-escondido-3?adjust_creative=oncXGL2aPIKrtJdnWeFSnA&utm_campaign=yelp_api_v3&utm_medium=api_v3_business_search&utm_source=oncXGL2aPIKrtJdnWeFSnA", "review_count": 170, "categories": [{"alias": "tacos", "title": "Tacos"}], "rating": 4.5, "coordinates": {"latitude": 33.1194380523185, "longitude": -117.087490707636}, "transactions": [], "price": "$", "location": {"address1": "511 W Valley Pkwy", "address2": null, "address3": "", "city": "Escondido", "zip_code": "92025", "country": "US", "state": "CA", "display_address": ["511 W Valley Pkwy", "Escondido, CA 92025"]}, "phone": "+14429995858", "display_phone": "(442) 999-5858", "distance": 8360.387113492121}, {"id": "vCH2VIWV9K5bLVn4liBuOA", "alias": "mr-taco-san-marcos-8", "name": "Mr Taco", "image_url": "https://s3-media2.fl.yelpcdn.com/bphoto/a9vyChfUjRxcsTz29OY_LA/o.jpg", "is_closed": false, "url": "https://www.yelp.com/biz/mr-taco-san-marcos-8?adjust_creative=oncXGL2aPIKrtJdnWeFSnA&utm_campaign=yelp_api_v3&utm_medium=api_v3_business_search&utm_source=oncXGL2aPIKrtJdnWeFSnA", "review_count": 307, "categories": [{"alias": "mexican", "title": "Mexican"}], "rating": 3.5, "coordinates": {"latitude": 33.131163477968, "longitude": -117.16521685182}, "transactions": [], "price": "$", "location": {"address1": "342 S Twin Oaks Valley Rd", "address2": "Ste 141", "address3": "", "city": "San Marcos", "zip_code": "92078", "country": "US", "state": "CA", "display_address": ["342 S Twin Oaks Valley Rd", "Ste 141", "San Marcos, CA 92078"]}, "phone": "+17604101396", "display_phone": "(760) 410-1396", "distance": 1377.4579108250502}, {"id": "PBFHIMAcvTg5Ynu0BujnPg", "alias": "chicken-lisas-escondido-3", "name": "Chicken Lisa's", "image_url": "https://s3-media2.fl.yelpcdn.com/bphoto/SSbLJv3ZxUqvjRlFxZD4vQ/o.jpg", "is_closed": false, "url": "https://www.yelp.com/biz/chicken-lisas-escondido-3?adjust_creative=oncXGL2aPIKrtJdnWeFSnA&utm_campaign=yelp_api_v3&utm_medium=api_v3_business_search&utm_source=oncXGL2aPIKrtJdnWeFSnA", "review_count": 333, "categories": [{"alias": "mexican", "title": "Mexican"}], "rating": 4.5, "coordinates": {"latitude": 33.15839, "longitude": -117.09998}, "transactions": ["pickup"], "price": "$", "location": {"address1": "555 W Country Club Ln", "address2": "Ste E", "address3": "", "city": "Escondido", "zip_code": "92026", "country": "US", "state": "CA", "display_address": ["555 W Country Club Ln", "Ste E", "Escondido, CA 92026"]}, "phone": "+17602918319", "display_phone": "(760) 291-8319", "distance": 7079.441557732721}, {"id": "SyjNP1nHe54o74OSTm7ang", "alias": "tj-tacos-escondido-3", "name": "TJ Tacos", "image_url": "https://s3-media4.fl.yelpcdn.com/bphoto/yRSKGsSGGXYV1FnRD6F-CQ/o.jpg", "is_closed": false, "url": "https://www.yelp.com/biz/tj-tacos-escondido-3?adjust_creative=oncXGL2aPIKrtJdnWeFSnA&utm_campaign=yelp_api_v3&utm_medium=api_v3_business_search&utm_source=oncXGL2aPIKrtJdnWeFSnA", "review_count": 853, "categories": [{"alias": "mexican", "title": "Mexican"}], "rating": 4.5, "coordinates": {"latitude": 33.1283149714616, "longitude": -117.072496153414}, "transactions": ["pickup"], "price": "$", "location": {"address1": "802 E Valley Pkwy", "address2": "", "address3": "", "city": "Escondido", "zip_code": "92025", "country": "US", "state": "CA", "display_address": ["802 E Valley Pkwy", "Escondido, CA 92025"]}, "phone": "+17602947511", "display_phone": "(760) 294-7511", "distance": 9501.387742896579}, {"id": "amy1VMXCABS1x8Yw8tCE6w", "alias": "nachos-san-marcos-2", "name": "Nachos", "image_url": "https://s3-media3.fl.yelpcdn.com/bphoto/Oy_vJ7WKZZztdtWmN2cBOA/o.jpg", "is_closed": false, "url": "https://www.yelp.com/biz/nachos-san-marcos-2?adjust_creative=oncXGL2aPIKrtJdnWeFSnA&utm_campaign=yelp_api_v3&utm_medium=api_v3_business_search&utm_source=oncXGL2aPIKrtJdnWeFSnA", "review_count": 123, "categories": [{"alias": "mexican", "title": "Mexican"}], "rating": 4.0, "coordinates": {"latitude": 33.1323066, "longitude": -117.2074196}, "transactions": [], "price": "$", "location": {"address1": "681 S Rancho Santa Fe Rd", "address2": "", "address3": "", "city": "San Marcos", "zip_code": "92078", "country": "US", "state": "CA", "display_address": ["681 S Rancho Santa Fe Rd", "San Marcos, CA 92078"]}, "phone": "+17604710797", "display_phone": "(760) 471-0797", "distance": 3217.8174784050475}, {"id": "LKLxqIPY3kPuqtpvCxwV_w", "alias": "los-juniors-vista", "name": "Los Junior's", "image_url": "https://s3-media4.fl.yelpcdn.com/bphoto/XYwl8OdnXcZ4s3d0ZOO0Eg/o.jpg", "is_closed": false, "url": "https://www.yelp.com/biz/los-juniors-vista?adjust_creative=oncXGL2aPIKrtJdnWeFSnA&utm_campaign=yelp_api_v3&utm_medium=api_v3_business_search&utm_source=oncXGL2aPIKrtJdnWeFSnA", "review_count": 129, "categories": [{"alias": "mexican", "title": "Mexican"}], "rating": 4.5, "coordinates": {"latitude": 33.17386, "longitude": -117.21013}, "transactions": [], "price": "$", "location": {"address1": "1984 S Santa Fe Ave", "address2": "", "address3": "", "city": "Vista", "zip_code": "92083", "country": "US", "state": "CA", "display_address": ["1984 S Santa Fe Ave", "Vista, CA 92083"]}, "phone": "+17602951088", "display_phone": "(760) 295-1088", "distance": 4969.969915796547}, {"id": "6k5gyml3Oc5S_zkxyDes4w", "alias": "los-cabos-san-marcos", "name": "Los Cabos", "image_url": "https://s3-media4.fl.yelpcdn.com/bphoto/HeCbL92Qe9GzcxVvyUKLIw/o.jpg", "is_closed": false, "url": "https://www.yelp.com/biz/los-cabos-san-marcos?adjust_creative=oncXGL2aPIKrtJdnWeFSnA&utm_campaign=yelp_api_v3&utm_medium=api_v3_business_search&utm_source=oncXGL2aPIKrtJdnWeFSnA", "review_count": 87, "categories": [{"alias": "mexican", "title": "Mexican"}, {"alias": "seafood", "title": "Seafood"}], "rating": 4.0, "coordinates": {"latitude": 33.1468439, "longitude": -117.1996929}, "transactions": [], "price": "$", "location": {"address1": "165 S Rancho Santa Fe Rd", "address2": "", "address3": "", "city": "San Marcos", "zip_code": "92078", "country": "US", "state": "CA", "display_address": ["165 S Rancho Santa Fe Rd", "San Marcos, CA 92078"]}, "phone": "+17604714739", "display_phone": "(760) 471-4739", "distance": 2473.1332218036046}, {"id": "g2ctkORtZyFVAtUL2nYhRg", "alias": "phatties-escondido-2", "name": "Phatties", "image_url": "https://s3-media1.fl.yelpcdn.com/bphoto/Pl1xAjUU_xmoaqOXv55sPw/o.jpg", "is_closed": false, "url": "https://www.yelp.com/biz/phatties-escondido-2?adjust_creative=oncXGL2aPIKrtJdnWeFSnA&utm_campaign=yelp_api_v3&utm_medium=api_v3_business_search&utm_source=oncXGL2aPIKrtJdnWeFSnA", "review_count": 58, "categories": [{"alias": "foodtrucks", "title": "Food Trucks"}, {"alias": "mexican", "title": "Mexican"}], "rating": 4.5, "coordinates": {"latitude": 33.130036, "longitude": -117.089063}, "transactions": [], "price": "$", "location": {"address1": "242 W Mission Ave", "address2": "Ste D", "address3": "", "city": "Escondido", "zip_code": "92025", "country": "US", "state": "CA", "display_address": ["242 W Mission Ave", "Ste D", "Escondido, CA 92025"]}, "phone": "+18587171637", "display_phone": "(858) 717-1637", "distance": 7947.844265900504}, {"id": "NdXqQAbynDmU-B0BSKP0uA", "alias": "alejandros-mexican-food-san-marcos", "name": "Alejandro's Mexican Food", "image_url": "https://s3-media3.fl.yelpcdn.com/bphoto/camRgxN88SfPLH_Rd4zfLg/o.jpg", "is_closed": false, "url": "https://www.yelp.com/biz/alejandros-mexican-food-san-marcos?adjust_creative=oncXGL2aPIKrtJdnWeFSnA&utm_campaign=yelp_api_v3&utm_medium=api_v3_business_search&utm_source=oncXGL2aPIKrtJdnWeFSnA", "review_count": 25, "categories": [{"alias": "mexican", "title": "Mexican"}], "rating": 4.0, "coordinates": {"latitude": 33.1411561, "longitude": -117.1389298}, "transactions": [], "price": "$$", "location": {"address1": "197 Woodland Pkwy", "address2": "Ste 103", "address3": null, "city": "San Marcos", "zip_code": "92069", "country": "US", "state": "CA", "display_address": ["197 Woodland Pkwy", "Ste 103", "San Marcos, CA 92069"]}, "phone": "+17607449555", "display_phone": "(760) 744-9555", "distance": 3201.2195443356327}, {"id": "S49mBtcRjEd8uiTtxZHlKQ", "alias": "mariscos-german-san-marcos-2", "name": "Mariscos German", "image_url": "https://s3-media3.fl.yelpcdn.com/bphoto/FXtaQBdLHSeXREQYbPd5tA/o.jpg", "is_closed": false, "url": "https://www.yelp.com/biz/mariscos-german-san-marcos-2?adjust_creative=oncXGL2aPIKrtJdnWeFSnA&utm_campaign=yelp_api_v3&utm_medium=api_v3_business_search&utm_source=oncXGL2aPIKrtJdnWeFSnA", "review_count": 78, "categories": [{"alias": "foodtrucks", "title": "Food Trucks"}, {"alias": "seafood", "title": "Seafood"}, {"alias": "mexican", "title": "Mexican"}], "rating": 4.5, "coordinates": {"latitude": 33.1391387, "longitude": -117.1853799}, "transactions": [], "price": "$$", "location": {"address1": "969 Linda Vista", "address2": "", "address3": "", "city": "San Marcos", "zip_code": "92078", "country": "US", "state": "CA", "display_address": ["969 Linda Vista", "San Marcos, CA 92078"]}, "phone": "+17608292792", "display_phone": "(760) 829-2792", "distance": 1154.974386617823}, {"id": "v0Ty5Rb3N7XdC7LK1xbfWg", "alias": "kotija-jr-san-marcos", "name": "Kotija Jr", "image_url": "https://s3-media4.fl.yelpcdn.com/bphoto/djQiqt3hJEqQo2OIyfm5lg/o.jpg", "is_closed": false, "url": "https://www.yelp.com/biz/kotija-jr-san-marcos?adjust_creative=oncXGL2aPIKrtJdnWeFSnA&utm_campaign=yelp_api_v3&utm_medium=api_v3_business_search&utm_source=oncXGL2aPIKrtJdnWeFSnA", "review_count": 76, "categories": [{"alias": "tacos", "title": "Tacos"}], "rating": 3.5, "coordinates": {"latitude": 33.1069851, "longitude": -117.2229752}, "transactions": [], "price": "$", "location": {"address1": "1693 Melrose Dr", "address2": "Ste 150", "address3": null, "city": "San Marcos", "zip_code": "92078", "country": "US", "state": "CA", "display_address": ["1693 Melrose Dr", "Ste 150", "San Marcos, CA 92078"]}, "phone": "+17608918314", "display_phone": "(760) 891-8314", "distance": 5938.703186959014}, {"id": "udhkGC-o7midaFIvEwkbUw", "alias": "lourdes-mexican-food-san-marcos", "name": "Lourdes Mexican Food", "image_url": "", "is_closed": false, "url": "https://www.yelp.com/biz/lourdes-mexican-food-san-marcos?adjust_creative=oncXGL2aPIKrtJdnWeFSnA&utm_campaign=yelp_api_v3&utm_medium=api_v3_business_search&utm_source=oncXGL2aPIKrtJdnWeFSnA", "review_count": 1, "categories": [{"alias": "mexican", "title": "Mexican"}, {"alias": "hotdogs", "title": "Fast Food"}], "rating": 5.0, "coordinates": {"latitude": 33.0945172, "longitude": -117.2069865}, "transactions": [], "location": {"address1": "1646 San Elijo Rd", "address2": null, "address3": "", "city": "San Marcos", "zip_code": "92078", "country": "US", "state": "CA", "display_address": ["1646 San Elijo Rd", "San Marcos, CA 92078"]}, "phone": "+17602903684", "display_phone": "(760) 290-3684", "distance": 5576.489334696592}, {"id": "TxoO0jiUh_VMAU3I10EreQ", "alias": "miguels-cocina-carlsbad", "name": "Miguel's Cocina", "image_url": "https://s3-media2.fl.yelpcdn.com/bphoto/EIL3gjtE_nuQMj8eK2Bukw/o.jpg", "is_closed": false, "url": "https://www.yelp.com/biz/miguels-cocina-carlsbad?adjust_creative=oncXGL2aPIKrtJdnWeFSnA&utm_campaign=yelp_api_v3&utm_medium=api_v3_business_search&utm_source=oncXGL2aPIKrtJdnWeFSnA", "review_count": 871, "categories": [{"alias": "mexican", "title": "Mexican"}], "rating": 4.0, "coordinates": {"latitude": 33.1230698, "longitude": -117.3242264}, "transactions": [], "price": "$$", "location": {"address1": "5980 Avenida Encinas", "address2": "", "address3": "", "city": "Carlsbad", "zip_code": "92008", "country": "US", "state": "CA", "display_address": ["5980 Avenida Encinas", "Carlsbad, CA 92008"]}, "phone": "+17607591843", "display_phone": "(760) 759-1843", "distance": 14200.049575779089}, {"id": "zl-NQMxAX4wBrrSjesXzyw", "alias": "compadre-grilled-chicken-san-marcos", "name": "Compadre Grilled Chicken", "image_url": "https://s3-media2.fl.yelpcdn.com/bphoto/3E_iqyI23jss8xCJx2I56A/o.jpg", "is_closed": false, "url": "https://www.yelp.com/biz/compadre-grilled-chicken-san-marcos?adjust_creative=oncXGL2aPIKrtJdnWeFSnA&utm_campaign=yelp_api_v3&utm_medium=api_v3_business_search&utm_source=oncXGL2aPIKrtJdnWeFSnA", "review_count": 121, "categories": [{"alias": "mexican", "title": "Mexican"}, {"alias": "newamerican", "title": "American (New)"}], "rating": 4.0, "coordinates": {"latitude": 33.1342239379883, "longitude": -117.119468688965}, "transactions": [], "price": "$", "location": {"address1": "730 Nordahl Rd", "address2": "Ste 103", "address3": "", "city": "San Marcos", "zip_code": "92069", "country": "US", "state": "CA", "display_address": ["730 Nordahl Rd", "Ste 103", "San Marcos, CA 92069"]}, "phone": "+17607460201", "display_phone": "(760) 746-0201", "distance": 5098.752329041356}, {"id": "PWhNt2RgJfdMhlVH-KPPxg", "alias": "primos-mexican-food-san-marcos", "name": "Primos Mexican Food", "image_url": "https://s3-media2.fl.yelpcdn.com/bphoto/th_lPIy5bXfJLnN_24M6cA/o.jpg", "is_closed": false, "url": "https://www.yelp.com/biz/primos-mexican-food-san-marcos?adjust_creative=oncXGL2aPIKrtJdnWeFSnA&utm_campaign=yelp_api_v3&utm_medium=api_v3_business_search&utm_source=oncXGL2aPIKrtJdnWeFSnA", "review_count": 75, "categories": [{"alias": "mexican", "title": "Mexican"}], "rating": 3.0, "coordinates": {"latitude": 33.1231317056003, "longitude": -117.16573486572}, "transactions": ["pickup", "delivery"], "price": "$", "location": {"address1": "801 S Twin Oaks Valley Rd", "address2": "", "address3": null, "city": "San Marcos", "zip_code": "92078", "country": "US", "state": "CA", "display_address": ["801 S Twin Oaks Valley Rd", "San Marcos, CA 92078"]}, "phone": "+17604718226", "display_phone": "(760) 471-8226", "distance": 2164.3297443632823}, {"id": "rfA_C367TaJV2D4E_FbsAg", "alias": "albertacos-san-marcos", "name": "Albertacos", "image_url": "https://s3-media1.fl.yelpcdn.com/bphoto/gZcAbNMQ5r-kkNHp9mptVA/o.jpg", "is_closed": false, "url": "https://www.yelp.com/biz/albertacos-san-marcos?adjust_creative=oncXGL2aPIKrtJdnWeFSnA&utm_campaign=yelp_api_v3&utm_medium=api_v3_business_search&utm_source=oncXGL2aPIKrtJdnWeFSnA", "review_count": 104, "categories": [{"alias": "mexican", "title": "Mexican"}], "rating": 3.0, "coordinates": {"latitude": 33.13943, "longitude": -117.17219}, "transactions": [], "price": "$", "location": {"address1": "500 W San Marcos Blvd", "address2": "", "address3": "", "city": "San Marcos", "zip_code": "92069", "country": "US", "state": "CA", "display_address": ["500 W San Marcos Blvd", "San Marcos, CA 92069"]}, "phone": "+17604711226", "display_phone": "(760) 471-1226", "distance": 247.38428344549612}, {"id": "E4ZQo7laMX5KO8E-M92Z2w", "alias": "that-mexican-place-escondido-3", "name": "That Mexican Place", "image_url": "https://s3-media3.fl.yelpcdn.com/bphoto/bUp_DqOAETBAIJpeS1z3Og/o.jpg", "is_closed": false, "url": "https://www.yelp.com/biz/that-mexican-place-escondido-3?adjust_creative=oncXGL2aPIKrtJdnWeFSnA&utm_campaign=yelp_api_v3&utm_medium=api_v3_business_search&utm_source=oncXGL2aPIKrtJdnWeFSnA", "review_count": 179, "categories": [{"alias": "mexican", "title": "Mexican"}, {"alias": "seafood", "title": "Seafood"}, {"alias": "breakfast_brunch", "title": "Breakfast & Brunch"}], "rating": 4.5, "coordinates": {"latitude": 33.1398100538592, "longitude": -117.09148786962}, "transactions": [], "price": "$", "location": {"address1": "200 W El Norte Pkwy", "address2": "", "address3": null, "city": "Escondido", "zip_code": "92026", "country": "US", "state": "CA", "display_address": ["200 W El Norte Pkwy", "Escondido, CA 92026"]}, "phone": "+17607433783", "display_phone": "(760) 743-3783", "distance": 7620.547047010386}, {"id": "lgWI-PruiqYd3Z4qzpF_aQ", "alias": "el-tule-san-marcos", "name": "El Tule", "image_url": "https://s3-media2.fl.yelpcdn.com/bphoto/Bl-qyhVBYkbfY7C9YOWjGg/o.jpg", "is_closed": false, "url": "https://www.yelp.com/biz/el-tule-san-marcos?adjust_creative=oncXGL2aPIKrtJdnWeFSnA&utm_campaign=yelp_api_v3&utm_medium=api_v3_business_search&utm_source=oncXGL2aPIKrtJdnWeFSnA", "review_count": 24, "categories": [{"alias": "mexican", "title": "Mexican"}], "rating": 3.5, "coordinates": {"latitude": 33.1388987677322, "longitude": -117.199156433344}, "transactions": [], "price": "$", "location": {"address1": "1514 Lindavista Dr", "address2": "", "address3": null, "city": "San Marcos", "zip_code": "92078", "country": "US", "state": "CA", "display_address": ["1514 Lindavista Dr", "San Marcos, CA 92078"]}, "phone": "+17607447001", "display_phone": "(760) 744-7001", "distance": 2424.3221698445195}, {"id": "2DAu0jVOZyVSbrNLuPv5hw", "alias": "la-michoacana-disco-vista", "name": "La Michoacana Disco", "image_url": "https://s3-media4.fl.yelpcdn.com/bphoto/Sdd8pueiaPOyyJ42R3vlBQ/o.jpg", "is_closed": false, "url": "https://www.yelp.com/biz/la-michoacana-disco-vista?adjust_creative=oncXGL2aPIKrtJdnWeFSnA&utm_campaign=yelp_api_v3&utm_medium=api_v3_business_search&utm_source=oncXGL2aPIKrtJdnWeFSnA", "review_count": 6, "categories": [{"alias": "icecream", "title": "Ice Cream & Frozen Yogurt"}, {"alias": "musicvenues", "title": "Music Venues"}, {"alias": "mexican", "title": "Mexican"}], "rating": 5.0, "coordinates": {"latitude": 33.16534, "longitude": -117.2463851}, "transactions": [], "location": {"address1": "1651 South Melrose Dr", "address2": "Ste A", "address3": "", "city": "Vista", "zip_code": "92078", "country": "US", "state": "CA", "display_address": ["1651 South Melrose Dr", "Ste A", "Vista, CA 92078"]}, "phone": "+17607984416", "display_phone": "(760) 798-4416", "distance": 7298.670302573013}, {"id": "MaE7UtcZXwxbDhf6T4wy5Q", "alias": "chipotle-mexican-grill-san-marcos-2", "name": "Chipotle Mexican Grill", "image_url": "https://s3-media3.fl.yelpcdn.com/bphoto/zo13HDcN9S3gBUY9TiXB5A/o.jpg", "is_closed": false, "url": "https://www.yelp.com/biz/chipotle-mexican-grill-san-marcos-2?adjust_creative=oncXGL2aPIKrtJdnWeFSnA&utm_campaign=yelp_api_v3&utm_medium=api_v3_business_search&utm_source=oncXGL2aPIKrtJdnWeFSnA", "review_count": 88, "categories": [{"alias": "mexican", "title": "Mexican"}, {"alias": "hotdogs", "title": "Fast Food"}], "rating": 2.5, "coordinates": {"latitude": 33.136982716095, "longitude": -117.176238558407}, "transactions": [], "price": "$", "location": {"address1": "575 Grand Ave", "address2": "", "address3": "", "city": "San Marcos", "zip_code": "92078", "country": "US", "state": "CA", "display_address": ["575 Grand Ave", "San Marcos, CA 92078"]}, "phone": "+17603048720", "display_phone": "(760) 304-8720", "distance": 574.8442830594312}, {"id": "_dg9LHAB0BjQammpHOA1vg", "alias": "oscars-mexican-food-san-marcos", "name": "Oscar's Mexican Food", "image_url": "https://s3-media2.fl.yelpcdn.com/bphoto/XalL1chP4WPFvkHw2d4Nxw/o.jpg", "is_closed": false, "url": "https://www.yelp.com/biz/oscars-mexican-food-san-marcos?adjust_creative=oncXGL2aPIKrtJdnWeFSnA&utm_campaign=yelp_api_v3&utm_medium=api_v3_business_search&utm_source=oncXGL2aPIKrtJdnWeFSnA", "review_count": 197, "categories": [{"alias": "mexican", "title": "Mexican"}, {"alias": "seafood", "title": "Seafood"}], "rating": 3.5, "coordinates": {"latitude": 33.14521, "longitude": -117.20029}, "transactions": [], "price": "$", "location": {"address1": "225 S Rancho Santa Fe Rd", "address2": "", "address3": "", "city": "San Marcos", "zip_code": "92078", "country": "US", "state": "CA", "display_address": ["225 S Rancho Santa Fe Rd", "San Marcos, CA 92078"]}, "phone": "+17607441729", "display_phone": "(760) 744-1729", "distance": 2554.2463039224544}, {"id": "dRjX4Zb5OL-wIxXIWBRjVg", "alias": "ponces-mexican-restaurant-del-sur-san-diego", "name": "Ponces Mexican Restaurant Del Sur", "image_url": "https://s3-media1.fl.yelpcdn.com/bphoto/9QtJYiodwOZezAaAQzNu0w/o.jpg", "is_closed": false, "url": "https://www.yelp.com/biz/ponces-mexican-restaurant-del-sur-san-diego?adjust_creative=oncXGL2aPIKrtJdnWeFSnA&utm_campaign=yelp_api_v3&utm_medium=api_v3_business_search&utm_source=oncXGL2aPIKrtJdnWeFSnA", "review_count": 40, "categories": [{"alias": "mexican", "title": "Mexican"}], "rating": 4.0, "coordinates": {"latitude": 33.0208074168596, "longitude": -117.123957005188}, "transactions": [], "location": {"address1": "16480 Paseo Del Sur", "address2": "", "address3": null, "city": "San Diego", "zip_code": "92127", "country": "US", "state": "CA", "display_address": ["16480 Paseo Del Sur", "San Diego, CA 92127"]}, "phone": "+18583121114", "display_phone": "(858) 312-1114", "distance": 14189.77893258126}, {"id": "APOCBfHgMglE92IMOMR25Q", "alias": "lourdes-encinitas-2", "name": "Lourdes", "image_url": "https://s3-media4.fl.yelpcdn.com/bphoto/LfluaVf9xd8nxNa6t2IFpA/o.jpg", "is_closed": false, "url": "https://www.yelp.com/biz/lourdes-encinitas-2?adjust_creative=oncXGL2aPIKrtJdnWeFSnA&utm_campaign=yelp_api_v3&utm_medium=api_v3_business_search&utm_source=oncXGL2aPIKrtJdnWeFSnA", "review_count": 221, "categories": [{"alias": "mexican", "title": "Mexican"}], "rating": 4.0, "coordinates": {"latitude": 33.020943, "longitude": -117.282154}, "transactions": [], "price": "$", "location": {"address1": "2113 San Elijo Ave", "address2": "", "address3": "", "city": "Encinitas", "zip_code": "92007", "country": "US", "state": "CA", "display_address": ["2113 San Elijo Ave", "Encinitas, CA 92007"]}, "phone": "+17602302610", "display_phone": "(760) 230-2610", "distance": 16811.987812182757}, {"id": "sz0nHQB_tt_3ecbdZ_bdpw", "alias": "lupitas-mexican-food-san-marcos", "name": "Lupita's Mexican Food", "image_url": "https://s3-media2.fl.yelpcdn.com/bphoto/LXo2-ZU61XYtTNNfbetj6A/o.jpg", "is_closed": false, "url": "https://www.yelp.com/biz/lupitas-mexican-food-san-marcos?adjust_creative=oncXGL2aPIKrtJdnWeFSnA&utm_campaign=yelp_api_v3&utm_medium=api_v3_business_search&utm_source=oncXGL2aPIKrtJdnWeFSnA", "review_count": 107, "categories": [{"alias": "mexican", "title": "Mexican"}], "rating": 4.0, "coordinates": {"latitude": 33.1560117247385, "longitude": -117.129405824777}, "transactions": [], "price": "$", "location": {"address1": "979 Woodland Pkwy", "address2": "Ste 102", "address3": "", "city": "San Marcos", "zip_code": "92069", "country": "US", "state": "CA", "display_address": ["979 Woodland Pkwy", "Ste 102", "San Marcos, CA 92069"]}, "phone": "+17607417121", "display_phone": "(760) 741-7121", "distance": 4392.962940553804}, {"id": "okgwsFvaRwjPskPWnk5ppg", "alias": "la-casa-de-los-alambres-vista", "name": "La Casa de Los Alambres", "image_url": "https://s3-media1.fl.yelpcdn.com/bphoto/aF58uzNeTs0-8wesnwm6EQ/o.jpg", "is_closed": false, "url": "https://www.yelp.com/biz/la-casa-de-los-alambres-vista?adjust_creative=oncXGL2aPIKrtJdnWeFSnA&utm_campaign=yelp_api_v3&utm_medium=api_v3_business_search&utm_source=oncXGL2aPIKrtJdnWeFSnA", "review_count": 240, "categories": [{"alias": "mexican", "title": "Mexican"}, {"alias": "seafood", "title": "Seafood"}], "rating": 4.0, "coordinates": {"latitude": 33.1661562, "longitude": -117.2216027}, "transactions": ["pickup"], "price": "$", "location": {"address1": "777 Shadowridge Dr", "address2": "", "address3": "", "city": "Vista", "zip_code": "92081", "country": "US", "state": "CA", "display_address": ["777 Shadowridge Dr", "Vista, CA 92081"]}, "phone": "+17605970525", "display_phone": "(760) 597-0525", "distance": 5238.262112240159}, {"id": "Nx19VU7Reu43gBsiC8vdHg", "alias": "lourdes-escondido", "name": "Lourdes", "image_url": "https://s3-media2.fl.yelpcdn.com/bphoto/wYcC2FKZvkdru8mPKNOx7A/o.jpg", "is_closed": false, "url": "https://www.yelp.com/biz/lourdes-escondido?adjust_creative=oncXGL2aPIKrtJdnWeFSnA&utm_campaign=yelp_api_v3&utm_medium=api_v3_business_search&utm_source=oncXGL2aPIKrtJdnWeFSnA", "review_count": 138, "categories": [{"alias": "mexican", "title": "Mexican"}], "rating": 4.0, "coordinates": {"latitude": 33.1452026819829, "longitude": -117.101642877055}, "transactions": [], "price": "$", "location": {"address1": "615 W El Norte Pkwy", "address2": "", "address3": "", "city": "Escondido", "zip_code": "92026", "country": "US", "state": "CA", "display_address": ["615 W El Norte Pkwy", "Escondido, CA 92026"]}, "phone": "+17607461389", "display_phone": "(760) 746-1389", "distance": 6684.893337563321}, {"id": "fOqq_iCXWqhxkOLPqo9dgw", "alias": "la-gordys-taco-shop-vista", "name": "La Gordy's Taco Shop", "image_url": "https://s3-media3.fl.yelpcdn.com/bphoto/GTZhEnVomuy1ppLhJ9K9uA/o.jpg", "is_closed": false, "url": "https://www.yelp.com/biz/la-gordys-taco-shop-vista?adjust_creative=oncXGL2aPIKrtJdnWeFSnA&utm_campaign=yelp_api_v3&utm_medium=api_v3_business_search&utm_source=oncXGL2aPIKrtJdnWeFSnA", "review_count": 29, "categories": [{"alias": "tacos", "title": "Tacos"}], "rating": 4.5, "coordinates": {"latitude": 33.22035, "longitude": -117.24555}, "transactions": [], "price": "$", "location": {"address1": "1450 N Santa Fe Ave", "address2": "Ste R", "address3": null, "city": "Vista", "zip_code": "92083", "country": "US", "state": "CA", "display_address": ["1450 N Santa Fe Ave", "Ste R", "Vista, CA 92083"]}, "phone": "+17609453930", "display_phone": "(760) 945-3930", "distance": 11009.628393978244}, {"id": "YY1P0fxvPSiG0W5rtt14aQ", "alias": "tamales-jovita-escondido", "name": "Tamales Jovita", "image_url": "https://s3-media4.fl.yelpcdn.com/bphoto/lz9b-jqxNYIQG7OOIg80ww/o.jpg", "is_closed": false, "url": "https://www.yelp.com/biz/tamales-jovita-escondido?adjust_creative=oncXGL2aPIKrtJdnWeFSnA&utm_campaign=yelp_api_v3&utm_medium=api_v3_business_search&utm_source=oncXGL2aPIKrtJdnWeFSnA", "review_count": 30, "categories": [{"alias": "mexican", "title": "Mexican"}], "rating": 5.0, "coordinates": {"latitude": 33.1213587, "longitude": -117.0823195}, "transactions": [], "location": {"address1": "158 W Grand Ave", "address2": "", "address3": null, "city": "Escondido", "zip_code": "92025", "country": "US", "state": "CA", "display_address": ["158 W Grand Ave", "Escondido, CA 92025"]}, "phone": "+14429995323", "display_phone": "(442) 999-5323", "distance": 8732.895841494792}, {"id": "4j_yOkZNMqPD-a-7eBF9lw", "alias": "los-primos-san-marcos", "name": "Los Primos", "image_url": "https://s3-media1.fl.yelpcdn.com/bphoto/zF9eqEsZpZ6up2Aiz3Y2pQ/o.jpg", "is_closed": false, "url": "https://www.yelp.com/biz/los-primos-san-marcos?adjust_creative=oncXGL2aPIKrtJdnWeFSnA&utm_campaign=yelp_api_v3&utm_medium=api_v3_business_search&utm_source=oncXGL2aPIKrtJdnWeFSnA", "review_count": 29, "categories": [{"alias": "mexican", "title": "Mexican"}], "rating": 3.0, "coordinates": {"latitude": 33.1185607910156, "longitude": -117.185371398926}, "transactions": [], "price": "$", "location": {"address1": "801 S Twin Oaks Rd", "address2": "", "address3": "", "city": "San Marcos", "zip_code": "92078", "country": "US", "state": "CA", "display_address": ["801 S Twin Oaks Rd", "San Marcos, CA 92078"]}, "phone": "+17604718226", "display_phone": "(760) 471-8226", "distance": 2149.2297309418527}, {"id": "cpn3ux_H_EByDTfQQNW_Dg", "alias": "dona-elena-pozoleria-vista", "name": "Dona Elena Pozoleria", "image_url": "https://s3-media1.fl.yelpcdn.com/bphoto/0IFLLFjVGe_ueVtbCQGO9Q/o.jpg", "is_closed": false, "url": "https://www.yelp.com/biz/dona-elena-pozoleria-vista?adjust_creative=oncXGL2aPIKrtJdnWeFSnA&utm_campaign=yelp_api_v3&utm_medium=api_v3_business_search&utm_source=oncXGL2aPIKrtJdnWeFSnA", "review_count": 52, "categories": [{"alias": "mexican", "title": "Mexican"}, {"alias": "soup", "title": "Soup"}], "rating": 4.5, "coordinates": {"latitude": 33.2146904, "longitude": -117.2452226}, "transactions": [], "price": "$", "location": {"address1": "1120 N Santa Fe Ave", "address2": "Ste I", "address3": null, "city": "Vista", "zip_code": "92083", "country": "US", "state": "CA", "display_address": ["1120 N Santa Fe Ave", "Ste I", "Vista, CA 92083"]}, "phone": "+17602709412", "display_phone": "(760) 270-9412", "distance": 10534.03075031898}, {"id": "2P1a4MWhcFfER_IoX28lgQ", "alias": "casa-de-bandini-carlsbad", "name": "Casa de Bandini", "image_url": "https://s3-media3.fl.yelpcdn.com/bphoto/PI3ciHhBNkQNqC5p8egSxQ/o.jpg", "is_closed": false, "url": "https://www.yelp.com/biz/casa-de-bandini-carlsbad?adjust_creative=oncXGL2aPIKrtJdnWeFSnA&utm_campaign=yelp_api_v3&utm_medium=api_v3_business_search&utm_source=oncXGL2aPIKrtJdnWeFSnA", "review_count": 1206, "categories": [{"alias": "mexican", "title": "Mexican"}, {"alias": "bars", "title": "Bars"}], "rating": 4.0, "coordinates": {"latitude": 33.071562089619, "longitude": -117.26717118703}, "transactions": ["pickup"], "price": "$$", "location": {"address1": "1901 Calle Barcelona", "address2": "", "address3": "", "city": "Carlsbad", "zip_code": "92009", "country": "US", "state": "CA", "display_address": ["1901 Calle Barcelona", "Carlsbad, CA 92009"]}, "phone": "+17606343443", "display_phone": "(760) 634-3443", "distance": 11703.340357357478}, {"id": "0-j0BbUBO03ieZVuHpkWRw", "alias": "tonys-fresh-mexican-food-san-marcos-2", "name": "Tony's Fresh Mexican Food", "image_url": "https://s3-media2.fl.yelpcdn.com/bphoto/4HcuCZHut1MjpM3XrSwsCw/o.jpg", "is_closed": false, "url": "https://www.yelp.com/biz/tonys-fresh-mexican-food-san-marcos-2?adjust_creative=oncXGL2aPIKrtJdnWeFSnA&utm_campaign=yelp_api_v3&utm_medium=api_v3_business_search&utm_source=oncXGL2aPIKrtJdnWeFSnA", "review_count": 34, "categories": [{"alias": "mexican", "title": "Mexican"}], "rating": 3.0, "coordinates": {"latitude": 33.1331200501599, "longitude": -117.197439149022}, "transactions": [], "price": "$", "location": {"address1": "580 S Pacific St", "address2": "", "address3": null, "city": "San Marcos", "zip_code": "92078", "country": "US", "state": "CA", "display_address": ["580 S Pacific St", "San Marcos, CA 92078"]}, "phone": "+17607364648", "display_phone": "(760) 736-4648", "distance": 2433.731727670657}, {"id": "RHp_5PLEJLuZKEZIqQZurA", "alias": "sayulitas-mexican-food-escondido", "name": "Sayulitas Mexican Food", "image_url": "https://s3-media2.fl.yelpcdn.com/bphoto/QLe1Ek4jrArLVb4ATermcg/o.jpg", "is_closed": false, "url": "https://www.yelp.com/biz/sayulitas-mexican-food-escondido?adjust_creative=oncXGL2aPIKrtJdnWeFSnA&utm_campaign=yelp_api_v3&utm_medium=api_v3_business_search&utm_source=oncXGL2aPIKrtJdnWeFSnA", "review_count": 143, "categories": [{"alias": "mexican", "title": "Mexican"}], "rating": 4.0, "coordinates": {"latitude": 33.1180389620387, "longitude": -117.082751463005}, "transactions": ["pickup", "delivery"], "price": "$", "location": {"address1": "331 S Escondido Blvd", "address2": "", "address3": null, "city": "Escondido", "zip_code": "92025", "country": "US", "state": "CA", "display_address": ["331 S Escondido Blvd", "Escondido, CA 92025"]}, "phone": "+17608397938", "display_phone": "(760) 839-7938", "distance": 8828.011161398124}, {"id": "v61DbwLvHIcvU8SQGrgo6w", "alias": "que-torta-vista", "name": "Que Torta", "image_url": "https://s3-media1.fl.yelpcdn.com/bphoto/lbfrjh4OlmtN152CAu9Iig/o.jpg", "is_closed": false, "url": "https://www.yelp.com/biz/que-torta-vista?adjust_creative=oncXGL2aPIKrtJdnWeFSnA&utm_campaign=yelp_api_v3&utm_medium=api_v3_business_search&utm_source=oncXGL2aPIKrtJdnWeFSnA", "review_count": 24, "categories": [{"alias": "sandwiches", "title": "Sandwiches"}, {"alias": "juicebars", "title": "Juice Bars & Smoothies"}, {"alias": "mexican", "title": "Mexican"}], "rating": 5.0, "coordinates": {"latitude": 33.21077, "longitude": -117.24548}, "transactions": [], "price": "$$", "location": {"address1": "828 N Santa Fe Ave", "address2": "Ste C", "address3": null, "city": "Vista", "zip_code": "92083", "country": "US", "state": "CA", "display_address": ["828 N Santa Fe Ave", "Ste C", "Vista, CA 92083"]}, "phone": "+17602953642", "display_phone": "(760) 295-3642", "distance": 10221.44566343297}, {"id": "4Gsu6bVvktyRh4Q0GxHOrA", "alias": "wings-mix-vista", "name": "Wings Mix", "image_url": "https://s3-media2.fl.yelpcdn.com/bphoto/0uo253HX4zA2k9kac06wLw/o.jpg", "is_closed": false, "url": "https://www.yelp.com/biz/wings-mix-vista?adjust_creative=oncXGL2aPIKrtJdnWeFSnA&utm_campaign=yelp_api_v3&utm_medium=api_v3_business_search&utm_source=oncXGL2aPIKrtJdnWeFSnA", "review_count": 51, "categories": [{"alias": "chicken_wings", "title": "Chicken Wings"}, {"alias": "mexican", "title": "Mexican"}, {"alias": "burgers", "title": "Burgers"}], "rating": 4.0, "coordinates": {"latitude": 33.193717956543, "longitude": -117.23127746582}, "transactions": [], "price": "$", "location": {"address1": "962 S Santa Fe Ave", "address2": "", "address3": null, "city": "Vista", "zip_code": "92084", "country": "US", "state": "CA", "display_address": ["962 S Santa Fe Ave", "Vista, CA 92084"]}, "phone": "+17609418691", "display_phone": "(760) 941-8691", "distance": 7920.631729382452}, {"id": "Fklc1_NEVXWvEbG01i-skA", "alias": "rubios-coastal-grill-san-marcos-2", "name": "Rubio's Coastal Grill", "image_url": "https://s3-media1.fl.yelpcdn.com/bphoto/NYKMGvCMIxwfqzrLT18SpA/o.jpg", "is_closed": false, "url": "https://www.yelp.com/biz/rubios-coastal-grill-san-marcos-2?adjust_creative=oncXGL2aPIKrtJdnWeFSnA&utm_campaign=yelp_api_v3&utm_medium=api_v3_business_search&utm_source=oncXGL2aPIKrtJdnWeFSnA", "review_count": 64, "categories": [{"alias": "mexican", "title": "Mexican"}, {"alias": "seafood", "title": "Seafood"}, {"alias": "salad", "title": "Salad"}], "rating": 3.0, "coordinates": {"latitude": 33.13391, "longitude": -117.19256}, "transactions": ["delivery"], "price": "$", "location": {"address1": "1158 W San Marcos Blvd", "address2": "Ste A", "address3": "", "city": "San Marcos", "zip_code": "92069", "country": "US", "state": "CA", "display_address": ["1158 W San Marcos Blvd", "Ste A", "San Marcos, CA 92069"]}, "phone": "+17605103911", "display_phone": "(760) 510-3911", "distance": 1984.1836069521487}, {"id": "kVONLOFIOKIoD79XS_1y3A", "alias": "lourdes-escondido-2", "name": "Lourdes", "image_url": "https://s3-media3.fl.yelpcdn.com/bphoto/z35wIZsO7DGgbIjJV4uRcQ/o.jpg", "is_closed": false, "url": "https://www.yelp.com/biz/lourdes-escondido-2?adjust_creative=oncXGL2aPIKrtJdnWeFSnA&utm_campaign=yelp_api_v3&utm_medium=api_v3_business_search&utm_source=oncXGL2aPIKrtJdnWeFSnA", "review_count": 441, "categories": [{"alias": "mexican", "title": "Mexican"}, {"alias": "breakfast_brunch", "title": "Breakfast & Brunch"}], "rating": 4.0, "coordinates": {"latitude": 33.1154033, "longitude": -117.0805371}, "transactions": [], "price": "$", "location": {"address1": "650 S Escondido Blvd", "address2": "", "address3": "", "city": "Escondido", "zip_code": "92025", "country": "US", "state": "CA", "display_address": ["650 S Escondido Blvd", "Escondido, CA 92025"]}, "phone": "+17607461141", "display_phone": "(760) 746-1141", "distance": 9139.780388159308}, {"id": "6Ge_qt8Ql0H9GUORlv-ryA", "alias": "miramar-fish-tacos-and-beer-oceanside", "name": "Miramar Fish Tacos & Beer", "image_url": "https://s3-media3.fl.yelpcdn.com/bphoto/3LLl3463i_uOHVo2x59Mqw/o.jpg", "is_closed": false, "url": "https://www.yelp.com/biz/miramar-fish-tacos-and-beer-oceanside?adjust_creative=oncXGL2aPIKrtJdnWeFSnA&utm_campaign=yelp_api_v3&utm_medium=api_v3_business_search&utm_source=oncXGL2aPIKrtJdnWeFSnA", "review_count": 961, "categories": [{"alias": "seafood", "title": "Seafood"}, {"alias": "mexican", "title": "Mexican"}, {"alias": "bars", "title": "Bars"}], "rating": 4.5, "coordinates": {"latitude": 33.2266917472111, "longitude": -117.326495720249}, "transactions": [], "price": "$", "location": {"address1": "41 Douglas Dr", "address2": "Ste 100", "address3": "", "city": "Oceanside", "zip_code": "92058", "country": "US", "state": "CA", "display_address": ["41 Douglas Dr", "Ste 100", "Oceanside, CA 92058"]}, "phone": "+17607212147", "display_phone": "(760) 721-2147", "distance": 17113.96843807498}, {"id": "X9_bCqM5MXjZWq7vQR9oHg", "alias": "rigobertos-taco-shop-san-marcos", "name": "Rigoberto's Taco Shop", "image_url": "https://s3-media3.fl.yelpcdn.com/bphoto/S29OXznimWb4yoKc_9JYKA/o.jpg", "is_closed": false, "url": "https://www.yelp.com/biz/rigobertos-taco-shop-san-marcos?adjust_creative=oncXGL2aPIKrtJdnWeFSnA&utm_campaign=yelp_api_v3&utm_medium=api_v3_business_search&utm_source=oncXGL2aPIKrtJdnWeFSnA", "review_count": 154, "categories": [{"alias": "tacos", "title": "Tacos"}], "rating": 3.0, "coordinates": {"latitude": 33.13679, "longitude": -117.13061}, "transactions": [], "price": "$", "location": {"address1": "1310 E Mission Rd", "address2": "", "address3": "", "city": "San Marcos", "zip_code": "92069", "country": "US", "state": "CA", "display_address": ["1310 E Mission Rd", "San Marcos, CA 92069"]}, "phone": "+17604328331", "display_phone": "(760) 432-8331", "distance": 4013.0212700135853}, {"id": "LFeBkWAduHleXQYSSeASDQ", "alias": "el-veganito-escondido", "name": "El Veganito", "image_url": "https://s3-media1.fl.yelpcdn.com/bphoto/yTGjqogV1f_-6LUBsed5mA/o.jpg", "is_closed": false, "url": "https://www.yelp.com/biz/el-veganito-escondido?adjust_creative=oncXGL2aPIKrtJdnWeFSnA&utm_campaign=yelp_api_v3&utm_medium=api_v3_business_search&utm_source=oncXGL2aPIKrtJdnWeFSnA", "review_count": 38, "categories": [{"alias": "vegan", "title": "Vegan"}, {"alias": "mexican", "title": "Mexican"}, {"alias": "foodstands", "title": "Food Stands"}], "rating": 4.5, "coordinates": {"latitude": 33.0844917297363, "longitude": -117.028190612793}, "transactions": [], "price": "$$", "location": {"address1": "", "address2": "", "address3": "", "city": "Escondido", "zip_code": "92025", "country": "US", "state": "CA", "display_address": ["Escondido, CA 92025"]}, "phone": "+17607166420", "display_phone": "(760) 716-6420", "distance": 12821.474235146594}], "total": 389, "region": {"center": {"longitude": -117.17330932617188, "latitude": 33.141533511091374}}}