{"businesses": [{"id": "NxwZGhvfo3clcLrEMVaaKw", "alias": "prep-kitchen-san-marcos-san-marcos-2", "name": "Prep Kitchen - San Marcos", "image_url": "https://s3-media2.fl.yelpcdn.com/bphoto/lnzFvkfcNNX9Doo3whrK7g/o.jpg", "is_closed": false, "url": "https://www.yelp.com/biz/prep-kitchen-san-marcos-san-marcos-2?adjust_creative=oncXGL2aPIKrtJdnWeFSnA&utm_campaign=yelp_api_v3&utm_medium=api_v3_business_search&utm_source=oncXGL2aPIKrtJdnWeFSnA", "review_count": 142, "categories": [{"alias": "newamerican", "title": "American (New)"}], "rating": 4.0, "coordinates": {"latitude": 33.135139, "longitude": -117.159651}, "transactions": [], "price": "$$", "location": {"address1": "250 North City Dr", "address2": null, "address3": "", "city": "San Marcos", "zip_code": "92078", "country": "US", "state": "CA", "display_address": ["250 North City Dr", "San Marcos, CA 92078"]}, "phone": "+17607988778", "display_phone": "(760) 798-8778", "distance": 1456.9962140529326}, {"id": "d-myWt_BI97XhMwdBpZ6bQ", "alias": "decoy-dockside-san-marcos-3", "name": "Decoy Dockside", "image_url": "https://s3-media2.fl.yelpcdn.com/bphoto/6xIi-SlAUBbXA3PpWKgp6g/o.jpg", "is_closed": false, "url": "https://www.yelp.com/biz/decoy-dockside-san-marcos-3?adjust_creative=oncXGL2aPIKrtJdnWeFSnA&utm_campaign=yelp_api_v3&utm_medium=api_v3_business_search&utm_source=oncXGL2aPIKrtJdnWeFSnA", "review_count": 583, "categories": [{"alias": "newamerican", "title": "American (New)"}, {"alias": "breakfast_brunch", "title": "Breakfast & Brunch"}, {"alias": "lounges", "title": "Lounges"}], "rating": 3.5, "coordinates": {"latitude": 33.1246, "longitude": -117.20758}, "transactions": [], "price": "$$$", "location": {"address1": "1025 La Bonita Dr", "address2": "", "address3": "", "city": "San Marcos", "zip_code": "92078", "country": "US", "state": "CA", "display_address": ["1025 La Bonita Dr", "San Marcos, CA 92078"]}, "phone": "+17607440120", "display_phone": "(760) 744-0120", "distance": 3723.088237889063}, {"id": "anGZ06XpNcIgulDcjnhCKg", "alias": "the-wooden-spoon-restaurant-escondido", "name": "The Wooden Spoon Restaurant", "image_url": "https://s3-media3.fl.yelpcdn.com/bphoto/Oi6hfWx3cYGRV1qDFgTkYQ/o.jpg", "is_closed": false, "url": "https://www.yelp.com/biz/the-wooden-spoon-restaurant-escondido?adjust_creative=oncXGL2aPIKrtJdnWeFSnA&utm_campaign=yelp_api_v3&utm_medium=api_v3_business_search&utm_source=oncXGL2aPIKrtJdnWeFSnA", "review_count": 614, "categories": [{"alias": "newamerican", "title": "American (New)"}, {"alias": "comfortfood", "title": "Comfort Food"}, {"alias": "breakfast_brunch", "title": "Breakfast & Brunch"}], "rating": 4.5, "coordinates": {"latitude": 33.12772, "longitude": -117.07219}, "transactions": [], "price": "$$", "location": {"address1": "805 E Valley Pkwy", "address2": null, "address3": "", "city": "Escondido", "zip_code": "92025", "country": "US", "state": "CA", "display_address": ["805 E Valley Pkwy", "Escondido, CA 92025"]}, "phone": "+17607450266", "display_phone": "(760) 745-0266", "distance": 9528.329610320247}, {"id": "eGCM9QgCBlXM81kSo-g5DQ", "alias": "stone-brewing-world-bistro-and-gardens-escondido-escondido-2", "name": "Stone Brewing World Bistro & Gardens Escondido", "image_url": "https://s3-media3.fl.yelpcdn.com/bphoto/5xweQ_wt8f23Ief1unTQog/o.jpg", "is_closed": false, "url": "https://www.yelp.com/biz/stone-brewing-world-bistro-and-gardens-escondido-escondido-2?adjust_creative=oncXGL2aPIKrtJdnWeFSnA&utm_campaign=yelp_api_v3&utm_medium=api_v3_business_search&utm_source=oncXGL2aPIKrtJdnWeFSnA", "review_count": 4216, "categories": [{"alias": "newamerican", "title": "American (New)"}], "rating": 4.0, "coordinates": {"latitude": 33.116948079231, "longitude": -117.119835988409}, "transactions": [], "price": "$$", "location": {"address1": "1999 Citracado Pkwy", "address2": "", "address3": "", "city": "Escondido", "zip_code": "92029", "country": "US", "state": "CA", "display_address": ["1999 Citracado Pkwy", "Escondido, CA 92029"]}, "phone": "+17602947899", "display_phone": "(760) 294-7899", "distance": 5680.471235288554}, {"id": "qWqcvhQLZ82h60SsJLGZ3A", "alias": "beach-plum-kitchen-carlsbad-2", "name": "Beach Plum Kitchen", "image_url": "https://s3-media1.fl.yelpcdn.com/bphoto/FI4TReSs3CWqm_2BSQ9SCg/o.jpg", "is_closed": false, "url": "https://www.yelp.com/biz/beach-plum-kitchen-carlsbad-2?adjust_creative=oncXGL2aPIKrtJdnWeFSnA&utm_campaign=yelp_api_v3&utm_medium=api_v3_business_search&utm_source=oncXGL2aPIKrtJdnWeFSnA", "review_count": 1190, "categories": [{"alias": "newamerican", "title": "American (New)"}, {"alias": "breakfast_brunch", "title": "Breakfast & Brunch"}], "rating": 4.5, "coordinates": {"latitude": 33.104408, "longitude": -117.267566}, "transactions": [], "price": "$$", "location": {"address1": "6971 El Camino Real", "address2": "Ste 201", "address3": "", "city": "Carlsbad", "zip_code": "92009", "country": "US", "state": "CA", "display_address": ["6971 El Camino Real", "Ste 201", "Carlsbad, CA 92009"]}, "phone": "+17609311362", "display_phone": "(760) 931-1362", "distance": 9699.996493599238}, {"id": "c3LuWIdhNxn097O6Ie14UA", "alias": "wildwood-crossing-vista", "name": "WildWood Crossing", "image_url": "https://s3-media4.fl.yelpcdn.com/bphoto/YS6_sXH1HN5aE13RjclZJA/o.jpg", "is_closed": false, "url": "https://www.yelp.com/biz/wildwood-crossing-vista?adjust_creative=oncXGL2aPIKrtJdnWeFSnA&utm_campaign=yelp_api_v3&utm_medium=api_v3_business_search&utm_source=oncXGL2aPIKrtJdnWeFSnA", "review_count": 20, "categories": [{"alias": "newamerican", "title": "American (New)"}, {"alias": "musicvenues", "title": "Music Venues"}, {"alias": "bars", "title": "Bars"}], "rating": 4.0, "coordinates": {"latitude": 33.2048691910313, "longitude": -117.236488660713}, "transactions": [], "location": {"address1": "116 Civic Center Dr", "address2": null, "address3": "", "city": "Vista", "zip_code": "92084", "country": "US", "state": "CA", "display_address": ["116 Civic Center Dr", "Vista, CA 92084"]}, "phone": "+17607581513", "display_phone": "(760) 758-1513", "distance": 9174.719895248338}, {"id": "pBLJIN4ks2eMdtLieikIwg", "alias": "flying-pig-pub-and-kitchen-vista-vista-2", "name": "Flying Pig Pub & Kitchen - Vista", "image_url": "https://s3-media3.fl.yelpcdn.com/bphoto/V6Ervm2X4Jkfh3WnO9C3kA/o.jpg", "is_closed": false, "url": "https://www.yelp.com/biz/flying-pig-pub-and-kitchen-vista-vista-2?adjust_creative=oncXGL2aPIKrtJdnWeFSnA&utm_campaign=yelp_api_v3&utm_medium=api_v3_business_search&utm_source=oncXGL2aPIKrtJdnWeFSnA", "review_count": 629, "categories": [{"alias": "gastropubs", "title": "Gastropubs"}, {"alias": "newamerican", "title": "American (New)"}], "rating": 4.0, "coordinates": {"latitude": 33.20038, "longitude": -117.24194}, "transactions": [], "price": "$$", "location": {"address1": "230 S Santa Fe", "address2": "", "address3": "", "city": "Vista", "zip_code": "92084", "country": "US", "state": "CA", "display_address": ["230 S Santa Fe", "Vista, CA 92084"]}, "phone": "+17606304311", "display_phone": "(760) 630-4311", "distance": 9145.983573523761}, {"id": "3GlVYOnWdZ4LZO7qgzO4gg", "alias": "partake-gastropub-vista", "name": "Partake Gastropub", "image_url": "https://s3-media3.fl.yelpcdn.com/bphoto/cWrr4g7RI2YPiDSt4mouWg/o.jpg", "is_closed": false, "url": "https://www.yelp.com/biz/partake-gastropub-vista?adjust_creative=oncXGL2aPIKrtJdnWeFSnA&utm_campaign=yelp_api_v3&utm_medium=api_v3_business_search&utm_source=oncXGL2aPIKrtJdnWeFSnA", "review_count": 640, "categories": [{"alias": "wine_bars", "title": "Wine Bars"}, {"alias": "newamerican", "title": "American (New)"}, {"alias": "gastropubs", "title": "Gastropubs"}], "rating": 4.5, "coordinates": {"latitude": 33.19483, "longitude": -117.236734}, "transactions": ["delivery", "pickup"], "price": "$$", "location": {"address1": "721 S Santa Fe Ave", "address2": "", "address3": "", "city": "Vista", "zip_code": "92083", "country": "US", "state": "CA", "display_address": ["721 S Santa Fe Ave", "Vista, CA 92083"]}, "phone": "+17604527217", "display_phone": "(760) 452-7217", "distance": 8375.965643716627}, {"id": "g52rUywY2_pyxpqUpBZXyw", "alias": "inland-tavern-san-marcos", "name": "Inland Tavern", "image_url": "https://s3-media3.fl.yelpcdn.com/bphoto/CqWxi7wj5iAPOK1gDhHKRg/o.jpg", "is_closed": false, "url": "https://www.yelp.com/biz/inland-tavern-san-marcos?adjust_creative=oncXGL2aPIKrtJdnWeFSnA&utm_campaign=yelp_api_v3&utm_medium=api_v3_business_search&utm_source=oncXGL2aPIKrtJdnWeFSnA", "review_count": 210, "categories": [{"alias": "newamerican", "title": "American (New)"}, {"alias": "asianfusion", "title": "Asian Fusion"}, {"alias": "bars", "title": "Bars"}], "rating": 3.5, "coordinates": {"latitude": 33.133991, "longitude": -117.188377}, "transactions": [], "price": "$$", "location": {"address1": "1001 W San Marcos Blvd", "address2": "", "address3": "", "city": "San Marcos", "zip_code": "92078", "country": "US", "state": "CA", "display_address": ["1001 W San Marcos Blvd", "San Marcos, CA 92078"]}, "phone": "+17607448782", "display_phone": "(760) 744-8782", "distance": 1649.5776248053444}, {"id": "48dGLRnrAcmFHLTOd55xzQ", "alias": "big-apple-bagels-san-marcos", "name": "Big Apple Bagels", "image_url": "https://s3-media4.fl.yelpcdn.com/bphoto/XkVYcdNTn4MyVKsFpr1qEg/o.jpg", "is_closed": false, "url": "https://www.yelp.com/biz/big-apple-bagels-san-marcos?adjust_creative=oncXGL2aPIKrtJdnWeFSnA&utm_campaign=yelp_api_v3&utm_medium=api_v3_business_search&utm_source=oncXGL2aPIKrtJdnWeFSnA", "review_count": 133, "categories": [{"alias": "bagels", "title": "Bagels"}, {"alias": "newamerican", "title": "American (New)"}], "rating": 3.5, "coordinates": {"latitude": 33.1362, "longitude": -117.1795502}, "transactions": ["pickup"], "price": "$", "location": {"address1": "727 W San Marcos Blvd", "address2": "", "address3": "", "city": "San Marcos", "zip_code": "92078", "country": "US", "state": "CA", "display_address": ["727 W San Marcos Blvd", "San Marcos, CA 92078"]}, "phone": "+17605109190", "display_phone": "(760) 510-9190", "distance": 857.1612523777178}, {"id": "eIUd0dPpd-8oWIQu2ch9gw", "alias": "campfire-carlsbad-2", "name": "Campfire", "image_url": "https://s3-media1.fl.yelpcdn.com/bphoto/FXDX-opcJJjGgSrlnFaVJQ/o.jpg", "is_closed": false, "url": "https://www.yelp.com/biz/campfire-carlsbad-2?adjust_creative=oncXGL2aPIKrtJdnWeFSnA&utm_campaign=yelp_api_v3&utm_medium=api_v3_business_search&utm_source=oncXGL2aPIKrtJdnWeFSnA", "review_count": 1153, "categories": [{"alias": "newamerican", "title": "American (New)"}], "rating": 4.5, "coordinates": {"latitude": 33.16199, "longitude": -117.35105}, "transactions": [], "price": "$$", "location": {"address1": "2725 State St", "address2": "", "address3": null, "city": "Carlsbad", "zip_code": "92008", "country": "US", "state": "CA", "display_address": ["2725 State St", "Carlsbad, CA 92008"]}, "phone": "+17606375121", "display_phone": "(760) 637-5121", "distance": 16702.67182213986}, {"id": "eFxe6iHo5IrsuaPpYtjhOg", "alias": "fish-district-carlsbad", "name": "Fish District", "image_url": "https://s3-media3.fl.yelpcdn.com/bphoto/oMgnb0ei5uTA4-YkYvYE5w/o.jpg", "is_closed": false, "url": "https://www.yelp.com/biz/fish-district-carlsbad?adjust_creative=oncXGL2aPIKrtJdnWeFSnA&utm_campaign=yelp_api_v3&utm_medium=api_v3_business_search&utm_source=oncXGL2aPIKrtJdnWeFSnA", "review_count": 591, "categories": [{"alias": "seafood", "title": "Seafood"}, {"alias": "newamerican", "title": "American (New)"}, {"alias": "fishnchips", "title": "Fish & Chips"}], "rating": 4.0, "coordinates": {"latitude": 33.1270765334925, "longitude": -117.25302350805}, "transactions": [], "price": "$$", "location": {"address1": "2675 Gateway Rd", "address2": "Ste 102", "address3": "", "city": "Carlsbad", "zip_code": "92010", "country": "US", "state": "CA", "display_address": ["2675 Gateway Rd", "Ste 102", "Carlsbad, CA 92010"]}, "phone": "+14422440221", "display_phone": "(442) 244-0221", "distance": 7594.557498396228}, {"id": "p-byXR_TGkZkC6gIq1EWTQ", "alias": "vintana-wine-dine-escondido", "name": "Vintana Wine + Dine", "image_url": "https://s3-media3.fl.yelpcdn.com/bphoto/-wALgW4KBcj3klIHWnkLKw/o.jpg", "is_closed": false, "url": "https://www.yelp.com/biz/vintana-wine-dine-escondido?adjust_creative=oncXGL2aPIKrtJdnWeFSnA&utm_campaign=yelp_api_v3&utm_medium=api_v3_business_search&utm_source=oncXGL2aPIKrtJdnWeFSnA", "review_count": 1783, "categories": [{"alias": "newamerican", "title": "American (New)"}, {"alias": "steak", "title": "Steakhouses"}, {"alias": "bars", "title": "Bars"}], "rating": 4.0, "coordinates": {"latitude": 33.10724, "longitude": -117.09688}, "transactions": [], "price": "$$$", "location": {"address1": "1205 Auto Park Way", "address2": "", "address3": "", "city": "Escondido", "zip_code": "92029", "country": "US", "state": "CA", "display_address": ["1205 Auto Park Way", "Escondido, CA 92029"]}, "phone": "+17607457777", "display_phone": "(760) 745-7777", "distance": 8107.177274370444}, {"id": "ROiheYhZWbyBUxwtrfB2tA", "alias": "shorehouse-kitchen-carlsbad-4", "name": "Shorehouse Kitchen", "image_url": "https://s3-media2.fl.yelpcdn.com/bphoto/_JjgC4-cn37m-biYNdvrWQ/o.jpg", "is_closed": false, "url": "https://www.yelp.com/biz/shorehouse-kitchen-carlsbad-4?adjust_creative=oncXGL2aPIKrtJdnWeFSnA&utm_campaign=yelp_api_v3&utm_medium=api_v3_business_search&utm_source=oncXGL2aPIKrtJdnWeFSnA", "review_count": 170, "categories": [{"alias": "breakfast_brunch", "title": "Breakfast & Brunch"}, {"alias": "coffee", "title": "Coffee & Tea"}, {"alias": "newamerican", "title": "American (New)"}], "rating": 4.5, "coordinates": {"latitude": 33.16092, "longitude": -117.35012}, "transactions": [], "price": "$$", "location": {"address1": "2833 State St", "address2": null, "address3": "", "city": "Carlsbad", "zip_code": "92008", "country": "US", "state": "CA", "display_address": ["2833 State St", "Carlsbad, CA 92008"]}, "phone": "+17607203300", "display_phone": "(760) 720-3300", "distance": 16604.347665700832}, {"id": "h3wp5B3eedtVf6sDuqYvkg", "alias": "flying-pig-pub-and-kitchen-oceanside", "name": "Flying Pig Pub & Kitchen", "image_url": "https://s3-media3.fl.yelpcdn.com/bphoto/q_DLqCqkOtbOi4Ck1nQjkA/o.jpg", "is_closed": false, "url": "https://www.yelp.com/biz/flying-pig-pub-and-kitchen-oceanside?adjust_creative=oncXGL2aPIKrtJdnWeFSnA&utm_campaign=yelp_api_v3&utm_medium=api_v3_business_search&utm_source=oncXGL2aPIKrtJdnWeFSnA", "review_count": 1599, "categories": [{"alias": "pubs", "title": "Pubs"}, {"alias": "newamerican", "title": "American (New)"}], "rating": 4.5, "coordinates": {"latitude": 33.18844, "longitude": -117.37407}, "transactions": [], "price": "$$", "location": {"address1": "626 S Tremont St", "address2": "", "address3": "", "city": "Oceanside", "zip_code": "92054", "country": "US", "state": "CA", "display_address": ["626 S Tremont St", "Oceanside, CA 92054"]}, "phone": "+17604532940", "display_phone": "(760) 453-2940", "distance": 19418.36904848352}, {"id": "6K0wcGtpWx20TMlwFPpf_A", "alias": "ignite-bistro-and-wine-spot-carlsbad-3", "name": "Ignite Bistro & Wine Spot", "image_url": "https://s3-media3.fl.yelpcdn.com/bphoto/-RI4fqtsk7qoH7-h28eObQ/o.jpg", "is_closed": false, "url": "https://www.yelp.com/biz/ignite-bistro-and-wine-spot-carlsbad-3?adjust_creative=oncXGL2aPIKrtJdnWeFSnA&utm_campaign=yelp_api_v3&utm_medium=api_v3_business_search&utm_source=oncXGL2aPIKrtJdnWeFSnA", "review_count": 1232, "categories": [{"alias": "newamerican", "title": "American (New)"}, {"alias": "wine_bars", "title": "Wine Bars"}, {"alias": "burgers", "title": "Burgers"}], "rating": 4.0, "coordinates": {"latitude": 33.1033807915894, "longitude": -117.266123939123}, "transactions": ["restaurant_reservation"], "price": "$$", "location": {"address1": "6996 El Camino Real", "address2": null, "address3": "", "city": "Carlsbad", "zip_code": "92009", "country": "US", "state": "CA", "display_address": ["6996 El Camino Real", "Carlsbad, CA 92009"]}, "phone": "+17604387800", "display_phone": "(760) 438-7800", "distance": 9628.46611634236}, {"id": "zl-NQMxAX4wBrrSjesXzyw", "alias": "compadre-grilled-chicken-san-marcos", "name": "Compadre Grilled Chicken", "image_url": "https://s3-media2.fl.yelpcdn.com/bphoto/3E_iqyI23jss8xCJx2I56A/o.jpg", "is_closed": false, "url": "https://www.yelp.com/biz/compadre-grilled-chicken-san-marcos?adjust_creative=oncXGL2aPIKrtJdnWeFSnA&utm_campaign=yelp_api_v3&utm_medium=api_v3_business_search&utm_source=oncXGL2aPIKrtJdnWeFSnA", "review_count": 121, "categories": [{"alias": "mexican", "title": "Mexican"}, {"alias": "newamerican", "title": "American (New)"}], "rating": 4.0, "coordinates": {"latitude": 33.1342239379883, "longitude": -117.119468688965}, "transactions": [], "price": "$", "location": {"address1": "730 Nordahl Rd", "address2": "Ste 103", "address3": "", "city": "San Marcos", "zip_code": "92069", "country": "US", "state": "CA", "display_address": ["730 Nordahl Rd", "Ste 103", "San Marcos, CA 92069"]}, "phone": "+17607460201", "display_phone": "(760) 746-0201", "distance": 5098.752329041356}, {"id": "d06Yq7qVry8wDjNPj6GpGg", "alias": "karl-strauss-brewing-company-carlsbad", "name": "Karl Strauss Brewing Company", "image_url": "https://s3-media3.fl.yelpcdn.com/bphoto/CK_EnX2581IZcfocP0oRgw/o.jpg", "is_closed": false, "url": "https://www.yelp.com/biz/karl-strauss-brewing-company-carlsbad?adjust_creative=oncXGL2aPIKrtJdnWeFSnA&utm_campaign=yelp_api_v3&utm_medium=api_v3_business_search&utm_source=oncXGL2aPIKrtJdnWeFSnA", "review_count": 1254, "categories": [{"alias": "pubs", "title": "Pubs"}, {"alias": "breweries", "title": "Breweries"}, {"alias": "newamerican", "title": "American (New)"}], "rating": 4.0, "coordinates": {"latitude": 33.1244883, "longitude": -117.3140585}, "transactions": [], "price": "$$", "location": {"address1": "5801 Armada Dr", "address2": "", "address3": "", "city": "Carlsbad", "zip_code": "92008", "country": "US", "state": "CA", "display_address": ["5801 Armada Dr", "Carlsbad, CA 92008"]}, "phone": "+17604312739", "display_phone": "(760) 431-2739", "distance": 13242.194155704627}, {"id": "kPVAW2SLajMrjARuoFoLYg", "alias": "bellamys-restaurant-escondido", "name": "Bellamy's Restaurant", "image_url": "https://s3-media2.fl.yelpcdn.com/bphoto/ONEy3wDnhWTErbQV6T-KGQ/o.jpg", "is_closed": false, "url": "https://www.yelp.com/biz/bellamys-restaurant-escondido?adjust_creative=oncXGL2aPIKrtJdnWeFSnA&utm_campaign=yelp_api_v3&utm_medium=api_v3_business_search&utm_source=oncXGL2aPIKrtJdnWeFSnA", "review_count": 291, "categories": [{"alias": "newamerican", "title": "American (New)"}, {"alias": "french", "title": "French"}], "rating": 4.0, "coordinates": {"latitude": 33.11915, "longitude": -117.08577}, "transactions": [], "price": "$$$", "location": {"address1": "417 W Grand Ave", "address2": "", "address3": "", "city": "Escondido", "zip_code": "92025", "country": "US", "state": "CA", "display_address": ["417 W Grand Ave", "Escondido, CA 92025"]}, "phone": "+17607475000", "display_phone": "(760) 747-5000", "distance": 8511.411081103397}, {"id": "8ud7Mrf64vhptp7LLPdjAg", "alias": "the-patio-on-101-encinitas", "name": "The Patio on 101", "image_url": "https://s3-media1.fl.yelpcdn.com/bphoto/yEZgdou-Tm6s13rmiSV_GQ/o.jpg", "is_closed": false, "url": "https://www.yelp.com/biz/the-patio-on-101-encinitas?adjust_creative=oncXGL2aPIKrtJdnWeFSnA&utm_campaign=yelp_api_v3&utm_medium=api_v3_business_search&utm_source=oncXGL2aPIKrtJdnWeFSnA", "review_count": 89, "categories": [{"alias": "breakfast_brunch", "title": "Breakfast & Brunch"}, {"alias": "newamerican", "title": "American (New)"}], "rating": 3.5, "coordinates": {"latitude": 33.04773, "longitude": -117.29346}, "transactions": [], "price": "$$", "location": {"address1": "345 S Coast Hwy 101", "address2": "", "address3": null, "city": "Encinitas", "zip_code": "92024", "country": "US", "state": "CA", "display_address": ["345 S Coast Hwy 101", "Encinitas, CA 92024"]}, "phone": "+17602091274", "display_phone": "(760) 209-1274", "distance": 15286.165933065671}, {"id": "3hzk6tb8tyZb1OCkCOeicg", "alias": "clara-carlsbad", "name": "Clara", "image_url": "https://s3-media2.fl.yelpcdn.com/bphoto/9xkqEP16h2j6-rf_WDygnA/o.jpg", "is_closed": false, "url": "https://www.yelp.com/biz/clara-carlsbad?adjust_creative=oncXGL2aPIKrtJdnWeFSnA&utm_campaign=yelp_api_v3&utm_medium=api_v3_business_search&utm_source=oncXGL2aPIKrtJdnWeFSnA", "review_count": 71, "categories": [{"alias": "cocktailbars", "title": "Cocktail Bars"}, {"alias": "newamerican", "title": "American (New)"}], "rating": 4.5, "coordinates": {"latitude": 33.15941, "longitude": -117.3505}, "transactions": [], "location": {"address1": "300 Carlsbad Village Dr", "address2": "Ste 213", "address3": "", "city": "Carlsbad", "zip_code": "92008", "country": "US", "state": "CA", "display_address": ["300 Carlsbad Village Dr", "Ste 213", "Carlsbad, CA 92008"]}, "phone": "+17609940699", "display_phone": "(760) 994-0699", "distance": 16599.594261871145}, {"id": "YzSiuv44vbdlf-5LFLgQ4Q", "alias": "the-cheesecake-factory-escondido-2", "name": "The Cheesecake Factory", "image_url": "https://s3-media2.fl.yelpcdn.com/bphoto/DlqzaAc7BcpD6QH8jrUvzw/o.jpg", "is_closed": false, "url": "https://www.yelp.com/biz/the-cheesecake-factory-escondido-2?adjust_creative=oncXGL2aPIKrtJdnWeFSnA&utm_campaign=yelp_api_v3&utm_medium=api_v3_business_search&utm_source=oncXGL2aPIKrtJdnWeFSnA", "review_count": 758, "categories": [{"alias": "newamerican", "title": "American (New)"}, {"alias": "desserts", "title": "Desserts"}], "rating": 3.0, "coordinates": {"latitude": 33.0707036830067, "longitude": -117.066250597805}, "transactions": [], "price": "$$", "location": {"address1": "200 E Via Rancho Pkwy", "address2": "Ste 370", "address3": "", "city": "Escondido", "zip_code": "92025", "country": "US", "state": "CA", "display_address": ["200 E Via Rancho Pkwy", "Ste 370", "Escondido, CA 92025"]}, "phone": "+17607432253", "display_phone": "(760) 743-2253", "distance": 12706.972586996331}, {"id": "r4JVU76Z4dHDEtAGF4AtkQ", "alias": "local-tap-house-and-kitchen-oceanside-2", "name": "Local Tap House & Kitchen", "image_url": "https://s3-media2.fl.yelpcdn.com/bphoto/Gwzdk0JMKDiVWASfDqIRqg/o.jpg", "is_closed": false, "url": "https://www.yelp.com/biz/local-tap-house-and-kitchen-oceanside-2?adjust_creative=oncXGL2aPIKrtJdnWeFSnA&utm_campaign=yelp_api_v3&utm_medium=api_v3_business_search&utm_source=oncXGL2aPIKrtJdnWeFSnA", "review_count": 1711, "categories": [{"alias": "newamerican", "title": "American (New)"}, {"alias": "cocktailbars", "title": "Cocktail Bars"}], "rating": 4.5, "coordinates": {"latitude": 33.192741, "longitude": -117.376506}, "transactions": [], "price": "$$", "location": {"address1": "308 S Coast Hwy", "address2": "", "address3": "", "city": "Oceanside", "zip_code": "92054", "country": "US", "state": "CA", "display_address": ["308 S Coast Hwy", "Oceanside, CA 92054"]}, "phone": "+17605471469", "display_phone": "(760) 547-1469", "distance": 19751.814473665345}, {"id": "4CT1CpSrpp2njcLmIpIf0w", "alias": "draft-republic-carlsbad-carlsbad", "name": "Draft Republic Carlsbad", "image_url": "https://s3-media2.fl.yelpcdn.com/bphoto/Lt_9RHlsRD_uGOgtfufE_A/o.jpg", "is_closed": false, "url": "https://www.yelp.com/biz/draft-republic-carlsbad-carlsbad?adjust_creative=oncXGL2aPIKrtJdnWeFSnA&utm_campaign=yelp_api_v3&utm_medium=api_v3_business_search&utm_source=oncXGL2aPIKrtJdnWeFSnA", "review_count": 399, "categories": [{"alias": "comfortfood", "title": "Comfort Food"}, {"alias": "gastropubs", "title": "Gastropubs"}, {"alias": "newamerican", "title": "American (New)"}], "rating": 4.0, "coordinates": {"latitude": 33.12452, "longitude": -117.3244}, "transactions": [], "price": "$$", "location": {"address1": "5958 Avenida Encinas", "address2": null, "address3": null, "city": "Carlsbad", "zip_code": "92008", "country": "US", "state": "CA", "display_address": ["5958 Avenida Encinas", "Carlsbad, CA 92008"]}, "phone": "+17604484627", "display_phone": "(760) 448-4627", "distance": 14187.29557208964}, {"id": "TRZUrjHFNrc0sImd69YQZA", "alias": "tin-leaf-fresh-kitchen-carlsbad-2", "name": "Tin Leaf Fresh Kitchen", "image_url": "https://s3-media3.fl.yelpcdn.com/bphoto/gzzHQaIpCB48EqKSJv3x2Q/o.jpg", "is_closed": false, "url": "https://www.yelp.com/biz/tin-leaf-fresh-kitchen-carlsbad-2?adjust_creative=oncXGL2aPIKrtJdnWeFSnA&utm_campaign=yelp_api_v3&utm_medium=api_v3_business_search&utm_source=oncXGL2aPIKrtJdnWeFSnA", "review_count": 691, "categories": [{"alias": "newamerican", "title": "American (New)"}, {"alias": "mediterranean", "title": "Mediterranean"}, {"alias": "salad", "title": "Salad"}], "rating": 4.0, "coordinates": {"latitude": 33.1026471015914, "longitude": -117.267359839951}, "transactions": [], "price": "$$", "location": {"address1": "6985 El Camino Real", "address2": "Ste 108", "address3": "", "city": "Carlsbad", "zip_code": "92009", "country": "US", "state": "CA", "display_address": ["6985 El Camino Real", "Ste 108", "Carlsbad, CA 92009"]}, "phone": "+17604315323", "display_phone": "(760) 431-5323", "distance": 9767.79125584591}, {"id": "KpdNbeKmPlMJG3ETA0-Lgw", "alias": "phils-bbq-san-diego-14", "name": "Phil's BBQ", "image_url": "https://s3-media4.fl.yelpcdn.com/bphoto/S-eNr5bDTgGD1moNPKJJQA/o.jpg", "is_closed": false, "url": "https://www.yelp.com/biz/phils-bbq-san-diego-14?adjust_creative=oncXGL2aPIKrtJdnWeFSnA&utm_campaign=yelp_api_v3&utm_medium=api_v3_business_search&utm_source=oncXGL2aPIKrtJdnWeFSnA", "review_count": 896, "categories": [{"alias": "bbq", "title": "Barbeque"}, {"alias": "sportsbars", "title": "Sports Bars"}, {"alias": "newamerican", "title": "American (New)"}], "rating": 4.0, "coordinates": {"latitude": 33.0241979119123, "longitude": -117.080954991213}, "transactions": [], "price": "$$", "location": {"address1": "17051 W Bernardo Dr", "address2": "", "address3": "", "city": "San Diego", "zip_code": "92127", "country": "US", "state": "CA", "display_address": ["17051 W Bernardo Dr", "San Diego, CA 92127"]}, "phone": "+18583126161", "display_phone": "(858) 312-6161", "distance": 15628.949528434847}, {"id": "inl2V2SvIC5pvgrut_juTw", "alias": "yard-house-carlsbad", "name": "Yard House", "image_url": "https://s3-media2.fl.yelpcdn.com/bphoto/llVMVArZat-DhSIwsSW8pA/o.jpg", "is_closed": false, "url": "https://www.yelp.com/biz/yard-house-carlsbad?adjust_creative=oncXGL2aPIKrtJdnWeFSnA&utm_campaign=yelp_api_v3&utm_medium=api_v3_business_search&utm_source=oncXGL2aPIKrtJdnWeFSnA", "review_count": 344, "categories": [{"alias": "newamerican", "title": "American (New)"}, {"alias": "vegetarian", "title": "Vegetarian"}, {"alias": "bars", "title": "Bars"}], "rating": 4.0, "coordinates": {"latitude": 33.1779918493973, "longitude": -117.329820723526}, "transactions": ["delivery", "pickup"], "price": "$$", "location": {"address1": "2525 El Camino Real", "address2": "", "address3": null, "city": "Carlsbad", "zip_code": "92008", "country": "US", "state": "CA", "display_address": ["2525 El Camino Real", "Carlsbad, CA 92008"]}, "phone": "+17604341009", "display_phone": "(760) 434-1009", "distance": 15122.62088829862}, {"id": "My_AvoBs4VvcFI7MQjRe8Q", "alias": "urban-plates-carlsbad", "name": "Urban Plates", "image_url": "https://s3-media2.fl.yelpcdn.com/bphoto/grcUyzF-1hgpQv12q72SfA/o.jpg", "is_closed": false, "url": "https://www.yelp.com/biz/urban-plates-carlsbad?adjust_creative=oncXGL2aPIKrtJdnWeFSnA&utm_campaign=yelp_api_v3&utm_medium=api_v3_business_search&utm_source=oncXGL2aPIKrtJdnWeFSnA", "review_count": 578, "categories": [{"alias": "newamerican", "title": "American (New)"}, {"alias": "sandwiches", "title": "Sandwiches"}, {"alias": "salad", "title": "Salad"}], "rating": 4.0, "coordinates": {"latitude": 33.0721860188668, "longitude": -117.265344641734}, "transactions": [], "price": "$$", "location": {"address1": "1923 Calle Barcelona", "address2": "Ste 148", "address3": "", "city": "Carlsbad", "zip_code": "92009", "country": "US", "state": "CA", "display_address": ["1923 Calle Barcelona", "Ste 148", "Carlsbad, CA 92009"]}, "phone": "+17606525678", "display_phone": "(760) 652-5678", "distance": 11530.268143190608}, {"id": "y5URTzXM6I-1BcXwSXKZ0w", "alias": "union-kitchen-and-tap-encinitas-2", "name": "UNION Kitchen & Tap", "image_url": "https://s3-media4.fl.yelpcdn.com/bphoto/x0-WaFqifR-OpX0H3GiOpA/o.jpg", "is_closed": false, "url": "https://www.yelp.com/biz/union-kitchen-and-tap-encinitas-2?adjust_creative=oncXGL2aPIKrtJdnWeFSnA&utm_campaign=yelp_api_v3&utm_medium=api_v3_business_search&utm_source=oncXGL2aPIKrtJdnWeFSnA", "review_count": 1295, "categories": [{"alias": "newamerican", "title": "American (New)"}, {"alias": "pubs", "title": "Pubs"}, {"alias": "wine_bars", "title": "Wine Bars"}], "rating": 4.0, "coordinates": {"latitude": 33.0378663836296, "longitude": -117.292929715939}, "transactions": ["delivery", "pickup"], "price": "$$", "location": {"address1": "1108 S Coast Hwy 101", "address2": "", "address3": "", "city": "Encinitas", "zip_code": "92024", "country": "US", "state": "CA", "display_address": ["1108 S Coast Hwy 101", "Encinitas, CA 92024"]}, "phone": "+17602302337", "display_phone": "(760) 230-2337", "distance": 16033.238276910895}, {"id": "nIbyL580jzBbldd93YXg3g", "alias": "viewpoint-brewing-del-mar-6", "name": "Viewpoint Brewing", "image_url": "https://s3-media2.fl.yelpcdn.com/bphoto/jaezOHlmmNz64231pBgQig/o.jpg", "is_closed": false, "url": "https://www.yelp.com/biz/viewpoint-brewing-del-mar-6?adjust_creative=oncXGL2aPIKrtJdnWeFSnA&utm_campaign=yelp_api_v3&utm_medium=api_v3_business_search&utm_source=oncXGL2aPIKrtJdnWeFSnA", "review_count": 317, "categories": [{"alias": "newamerican", "title": "American (New)"}, {"alias": "brewpubs", "title": "Brewpubs"}], "rating": 4.0, "coordinates": {"latitude": 32.9700036, "longitude": -117.261944}, "transactions": [], "price": "$$", "location": {"address1": "2201 San Dieguito Dr", "address2": "Ste D", "address3": null, "city": "Del Mar", "zip_code": "92014", "country": "US", "state": "CA", "display_address": ["2201 San Dieguito Dr", "Ste D", "Del Mar, CA 92014"]}, "phone": "+18583569346", "display_phone": "(858) 356-9346", "distance": 20785.175498360444}, {"id": "bgXmLD1lkMBhKvontS_rGw", "alias": "nectarine-grove-encinitas-2", "name": "Nectarine Grove", "image_url": "https://s3-media3.fl.yelpcdn.com/bphoto/QY_aya_gaUtVdBzmiOZpDQ/o.jpg", "is_closed": false, "url": "https://www.yelp.com/biz/nectarine-grove-encinitas-2?adjust_creative=oncXGL2aPIKrtJdnWeFSnA&utm_campaign=yelp_api_v3&utm_medium=api_v3_business_search&utm_source=oncXGL2aPIKrtJdnWeFSnA", "review_count": 241, "categories": [{"alias": "newamerican", "title": "American (New)"}, {"alias": "gluten_free", "title": "Gluten-Free"}, {"alias": "coffee", "title": "Coffee & Tea"}], "rating": 4.5, "coordinates": {"latitude": 33.065256, "longitude": -117.30285}, "transactions": [], "price": "$$", "location": {"address1": "948 N Coast Hwy 101", "address2": null, "address3": "", "city": "Encinitas", "zip_code": "92024", "country": "US", "state": "CA", "display_address": ["948 N Coast Hwy 101", "Encinitas, CA 92024"]}, "phone": "+17609444525", "display_phone": "(760) 944-4525", "distance": 14751.487860276033}, {"id": "f_VUUC0-H0ChB_9nwBPoEQ", "alias": "urge-american-gastropub-san-diego", "name": "Urge American Gastropub", "image_url": "https://s3-media3.fl.yelpcdn.com/bphoto/rCtRQjzR_xNZeUO3VWVPmw/o.jpg", "is_closed": false, "url": "https://www.yelp.com/biz/urge-american-gastropub-san-diego?adjust_creative=oncXGL2aPIKrtJdnWeFSnA&utm_campaign=yelp_api_v3&utm_medium=api_v3_business_search&utm_source=oncXGL2aPIKrtJdnWeFSnA", "review_count": 1204, "categories": [{"alias": "gastropubs", "title": "Gastropubs"}, {"alias": "newamerican", "title": "American (New)"}, {"alias": "beerbar", "title": "Beer Bar"}], "rating": 4.0, "coordinates": {"latitude": 33.017124, "longitude": -117.074322}, "transactions": ["pickup"], "price": "$$", "location": {"address1": "16761 Bernardo Center Dr", "address2": "Ste M1", "address3": "", "city": "San Diego", "zip_code": "92128", "country": "US", "state": "CA", "display_address": ["16761 Bernardo Center Dr", "Ste M1", "San Diego, CA 92128"]}, "phone": "+18586738743", "display_phone": "(858) 673-8743", "distance": 16626.23227382784}, {"id": "0BfHa7dI0S_oGveL7CsR6w", "alias": "pacific-coast-grill-cardiff", "name": "Pacific Coast Grill", "image_url": "https://s3-media3.fl.yelpcdn.com/bphoto/v3Tw31ouM2z3egdPyzzxQw/o.jpg", "is_closed": false, "url": "https://www.yelp.com/biz/pacific-coast-grill-cardiff?adjust_creative=oncXGL2aPIKrtJdnWeFSnA&utm_campaign=yelp_api_v3&utm_medium=api_v3_business_search&utm_source=oncXGL2aPIKrtJdnWeFSnA", "review_count": 1066, "categories": [{"alias": "newamerican", "title": "American (New)"}, {"alias": "lounges", "title": "Lounges"}], "rating": 4.0, "coordinates": {"latitude": 33.013537068211, "longitude": -117.28012237175}, "transactions": [], "price": "$$$", "location": {"address1": "2526 S Coast Hwy 101", "address2": "", "address3": "", "city": "Cardiff", "zip_code": "92007", "country": "US", "state": "CA", "display_address": ["2526 S Coast Hwy 101", "Cardiff, CA 92007"]}, "phone": "+17604790721", "display_phone": "(760) 479-0721", "distance": 17366.946813706374}, {"id": "Q6z1C4VtUj4LiFQ2Ms2T_g", "alias": "bjs-restaurant-and-brewhouse-escondido", "name": "BJ's Restaurant & Brewhouse", "image_url": "https://s3-media4.fl.yelpcdn.com/bphoto/yw5na4aJRTRfAz77_HlowA/o.jpg", "is_closed": false, "url": "https://www.yelp.com/biz/bjs-restaurant-and-brewhouse-escondido?adjust_creative=oncXGL2aPIKrtJdnWeFSnA&utm_campaign=yelp_api_v3&utm_medium=api_v3_business_search&utm_source=oncXGL2aPIKrtJdnWeFSnA", "review_count": 775, "categories": [{"alias": "pizza", "title": "Pizza"}, {"alias": "newamerican", "title": "American (New)"}, {"alias": "breweries", "title": "Breweries"}], "rating": 3.0, "coordinates": {"latitude": 33.0691322, "longitude": -117.06819}, "transactions": ["delivery"], "price": "$$", "location": {"address1": "204 E Via Rancho Pkwy", "address2": "", "address3": "", "city": "Escondido", "zip_code": "92025", "country": "US", "state": "CA", "display_address": ["204 E Via Rancho Pkwy", "Escondido, CA 92025"]}, "phone": "+17604660700", "display_phone": "(760) 466-0700", "distance": 12561.925603534926}, {"id": "G4tCExEOux5t1zfyDLjxcA", "alias": "pure-burger-carlsbad", "name": "Pure Burger", "image_url": "https://s3-media4.fl.yelpcdn.com/bphoto/v0Ht-pC-UFPzuYA-Pi4z5Q/o.jpg", "is_closed": false, "url": "https://www.yelp.com/biz/pure-burger-carlsbad?adjust_creative=oncXGL2aPIKrtJdnWeFSnA&utm_campaign=yelp_api_v3&utm_medium=api_v3_business_search&utm_source=oncXGL2aPIKrtJdnWeFSnA", "review_count": 767, "categories": [{"alias": "burgers", "title": "Burgers"}, {"alias": "hotdogs", "title": "Fast Food"}, {"alias": "newamerican", "title": "American (New)"}], "rating": 4.0, "coordinates": {"latitude": 33.1268903, "longitude": -117.2541476}, "transactions": ["delivery", "pickup"], "price": "$$", "location": {"address1": "2641 Gateway Rd", "address2": null, "address3": "", "city": "Carlsbad", "zip_code": "92009", "country": "US", "state": "CA", "display_address": ["2641 Gateway Rd", "Carlsbad, CA 92009"]}, "phone": "+17606835101", "display_phone": "(760) 683-5101", "distance": 7701.245419761458}, {"id": "d7BWosg1jl0TSI325fFMAw", "alias": "7-mile-kitchen-carlsbad", "name": "7 Mile Kitchen", "image_url": "https://s3-media2.fl.yelpcdn.com/bphoto/-MrjKPdeIX99iMbyxBIVPw/o.jpg", "is_closed": false, "url": "https://www.yelp.com/biz/7-mile-kitchen-carlsbad?adjust_creative=oncXGL2aPIKrtJdnWeFSnA&utm_campaign=yelp_api_v3&utm_medium=api_v3_business_search&utm_source=oncXGL2aPIKrtJdnWeFSnA", "review_count": 85, "categories": [{"alias": "newamerican", "title": "American (New)"}, {"alias": "pizza", "title": "Pizza"}, {"alias": "burgers", "title": "Burgers"}], "rating": 3.5, "coordinates": {"latitude": 33.1327473, "longitude": -117.3118966}, "transactions": [], "price": "$$", "location": {"address1": "5420 Grand Pacific Dr", "address2": null, "address3": "", "city": "Carlsbad", "zip_code": "92008", "country": "US", "state": "CA", "display_address": ["5420 Grand Pacific Dr", "Carlsbad, CA 92008"]}, "phone": "+17608272514", "display_phone": "(760) 827-2514", "distance": 12940.872956340501}, {"id": "lQCE2bXVPdeOXQ4k5eT5-w", "alias": "chicken-plus-greek-cuisine-escondido", "name": "Chicken Plus Greek Cuisine", "image_url": "https://s3-media4.fl.yelpcdn.com/bphoto/zGQ-ch8Hglf9WYIHoQ1Vkw/o.jpg", "is_closed": false, "url": "https://www.yelp.com/biz/chicken-plus-greek-cuisine-escondido?adjust_creative=oncXGL2aPIKrtJdnWeFSnA&utm_campaign=yelp_api_v3&utm_medium=api_v3_business_search&utm_source=oncXGL2aPIKrtJdnWeFSnA", "review_count": 184, "categories": [{"alias": "greek", "title": "Greek"}, {"alias": "newamerican", "title": "American (New)"}, {"alias": "mediterranean", "title": "Mediterranean"}], "rating": 4.0, "coordinates": {"latitude": 33.12857, "longitude": -117.0898}, "transactions": [], "price": "$", "location": {"address1": "309 W Mission Ave", "address2": "", "address3": "", "city": "Escondido", "zip_code": "92025", "country": "US", "state": "CA", "display_address": ["309 W Mission Ave", "Escondido, CA 92025"]}, "phone": "+17604801348", "display_phone": "(760) 480-1348", "distance": 7891.82793263815}, {"id": "Pk1RB_ymVaY1ZK4XcskvYQ", "alias": "bjs-restaurant-and-brewhouse-carlsbad-2", "name": "BJ's Restaurant & Brewhouse", "image_url": "https://s3-media2.fl.yelpcdn.com/bphoto/bpLbi_sIatXNr6NLy87DLg/o.jpg", "is_closed": false, "url": "https://www.yelp.com/biz/bjs-restaurant-and-brewhouse-carlsbad-2?adjust_creative=oncXGL2aPIKrtJdnWeFSnA&utm_campaign=yelp_api_v3&utm_medium=api_v3_business_search&utm_source=oncXGL2aPIKrtJdnWeFSnA", "review_count": 847, "categories": [{"alias": "breweries", "title": "Breweries"}, {"alias": "newamerican", "title": "American (New)"}, {"alias": "pizza", "title": "Pizza"}], "rating": 3.0, "coordinates": {"latitude": 33.127135, "longitude": -117.324024}, "transactions": ["delivery"], "price": "$$", "location": {"address1": "5613 Paseo Del Norte", "address2": "", "address3": "", "city": "Carlsbad", "zip_code": "92008", "country": "US", "state": "CA", "display_address": ["5613 Paseo Del Norte", "Carlsbad, CA 92008"]}, "phone": "+17605794440", "display_phone": "(760) 579-4440", "distance": 14124.612065771364}, {"id": "8cP2v50LCeQF60KIe8rE9A", "alias": "masters-kitchen-and-cocktail-oceanside-2", "name": "Masters Kitchen and Cocktail", "image_url": "https://s3-media2.fl.yelpcdn.com/bphoto/U3eb5z6X5fa2DGjAHdoNdw/o.jpg", "is_closed": false, "url": "https://www.yelp.com/biz/masters-kitchen-and-cocktail-oceanside-2?adjust_creative=oncXGL2aPIKrtJdnWeFSnA&utm_campaign=yelp_api_v3&utm_medium=api_v3_business_search&utm_source=oncXGL2aPIKrtJdnWeFSnA", "review_count": 746, "categories": [{"alias": "newamerican", "title": "American (New)"}, {"alias": "cocktailbars", "title": "Cocktail Bars"}], "rating": 4.0, "coordinates": {"latitude": 33.1940193, "longitude": -117.3775711}, "transactions": [], "price": "$$", "location": {"address1": "208 S Coast Hwy", "address2": null, "address3": "", "city": "Oceanside", "zip_code": "92054", "country": "US", "state": "CA", "display_address": ["208 S Coast Hwy", "Oceanside, CA 92054"]}, "phone": "+17602316278", "display_phone": "(760) 231-6278", "distance": 19891.35693041367}, {"id": "P96s4gA5-weOAG43HXjlHQ", "alias": "seasons-restaurant-carlsbad", "name": "Seasons Restaurant", "image_url": "https://s3-media4.fl.yelpcdn.com/bphoto/frZjy15WxX8B6lAyskK4lg/o.jpg", "is_closed": false, "url": "https://www.yelp.com/biz/seasons-restaurant-carlsbad?adjust_creative=oncXGL2aPIKrtJdnWeFSnA&utm_campaign=yelp_api_v3&utm_medium=api_v3_business_search&utm_source=oncXGL2aPIKrtJdnWeFSnA", "review_count": 63, "categories": [{"alias": "newamerican", "title": "American (New)"}, {"alias": "breakfast_brunch", "title": "Breakfast & Brunch"}], "rating": 4.5, "coordinates": {"latitude": 33.0970027238953, "longitude": -117.283306956832}, "transactions": [], "price": "$$$", "location": {"address1": "7210 Blue Heron Pl", "address2": "", "address3": "", "city": "Carlsbad", "zip_code": "92011", "country": "US", "state": "CA", "display_address": ["7210 Blue Heron Pl", "Carlsbad, CA 92011"]}, "phone": "+17608148677", "display_phone": "(760) 814-8677", "distance": 11377.977491807937}, {"id": "i9ZYCprFuqRnl6EPuU0YcA", "alias": "wrench-and-rodent-seabasstropub-oceanside", "name": "Wrench & Rodent Seabasstropub", "image_url": "https://s3-media2.fl.yelpcdn.com/bphoto/UXVgIOCsAIR2ieooF_EqOg/o.jpg", "is_closed": false, "url": "https://www.yelp.com/biz/wrench-and-rodent-seabasstropub-oceanside?adjust_creative=oncXGL2aPIKrtJdnWeFSnA&utm_campaign=yelp_api_v3&utm_medium=api_v3_business_search&utm_source=oncXGL2aPIKrtJdnWeFSnA", "review_count": 722, "categories": [{"alias": "newamerican", "title": "American (New)"}, {"alias": "seafood", "title": "Seafood"}, {"alias": "sushi", "title": "Sushi Bars"}], "rating": 4.5, "coordinates": {"latitude": 33.174645, "longitude": -117.361908}, "transactions": [], "price": "$$", "location": {"address1": "1815 S Coast Hwy", "address2": "", "address3": "", "city": "Oceanside", "zip_code": "92054", "country": "US", "state": "CA", "display_address": ["1815 S Coast Hwy", "Oceanside, CA 92054"]}, "phone": "+17602710531", "display_phone": "(760) 271-0531", "distance": 17938.250297486495}, {"id": "_4MhOye-WR3Rep1Rp80icA", "alias": "the-barrel-room-san-diego", "name": "The Barrel Room", "image_url": "https://s3-media3.fl.yelpcdn.com/bphoto/ipe05aDIL_5hqunUtAVxxA/o.jpg", "is_closed": false, "url": "https://www.yelp.com/biz/the-barrel-room-san-diego?adjust_creative=oncXGL2aPIKrtJdnWeFSnA&utm_campaign=yelp_api_v3&utm_medium=api_v3_business_search&utm_source=oncXGL2aPIKrtJdnWeFSnA", "review_count": 641, "categories": [{"alias": "wine_bars", "title": "Wine Bars"}, {"alias": "newamerican", "title": "American (New)"}], "rating": 4.0, "coordinates": {"latitude": 33.0177934951854, "longitude": -117.07408464017}, "transactions": ["pickup"], "price": "$$", "location": {"address1": "16765 Bernardo Center Dr", "address2": "", "address3": "", "city": "San Diego", "zip_code": "92128", "country": "US", "state": "CA", "display_address": ["16765 Bernardo Center Dr", "San Diego, CA 92128"]}, "phone": "+18586737512", "display_phone": "(858) 673-7512", "distance": 16576.647128103206}, {"id": "QSwRg-Fqd24S4vohu6r0jg", "alias": "dija-mara-oceanside", "name": "Dija Mara", "image_url": "https://s3-media2.fl.yelpcdn.com/bphoto/lZMCn88Woj9ZBSf0Zinklw/o.jpg", "is_closed": false, "url": "https://www.yelp.com/biz/dija-mara-oceanside?adjust_creative=oncXGL2aPIKrtJdnWeFSnA&utm_campaign=yelp_api_v3&utm_medium=api_v3_business_search&utm_source=oncXGL2aPIKrtJdnWeFSnA", "review_count": 174, "categories": [{"alias": "indonesian", "title": "Indonesian"}, {"alias": "newamerican", "title": "American (New)"}, {"alias": "tapasmallplates", "title": "Tapas/Small Plates"}], "rating": 4.5, "coordinates": {"latitude": 33.19339, "longitude": -117.37706}, "transactions": [], "price": "$$", "location": {"address1": "232 S Coast Hwy", "address2": null, "address3": "", "city": "Oceanside", "zip_code": "92054", "country": "US", "state": "CA", "display_address": ["232 S Coast Hwy", "Oceanside, CA 92054"]}, "phone": "+17602315376", "display_phone": "(760) 231-5376", "distance": 19825.529214809838}, {"id": "hQCz8Z-O2mqUZbeY8IzkWw", "alias": "tommy-vs-urban-kitchen-and-bar-carlsbad", "name": "Tommy V's Urban Kitchen and Bar", "image_url": "https://s3-media3.fl.yelpcdn.com/bphoto/aVLs0YiwvYxX7U-RJ17A8Q/o.jpg", "is_closed": false, "url": "https://www.yelp.com/biz/tommy-vs-urban-kitchen-and-bar-carlsbad?adjust_creative=oncXGL2aPIKrtJdnWeFSnA&utm_campaign=yelp_api_v3&utm_medium=api_v3_business_search&utm_source=oncXGL2aPIKrtJdnWeFSnA", "review_count": 440, "categories": [{"alias": "newamerican", "title": "American (New)"}, {"alias": "bars", "title": "Bars"}], "rating": 3.5, "coordinates": {"latitude": 33.126328799458, "longitude": -117.253651523955}, "transactions": [], "price": "$$", "location": {"address1": "2659 Gateway Rd", "address2": "", "address3": "", "city": "Carlsbad", "zip_code": "92009", "country": "US", "state": "CA", "display_address": ["2659 Gateway Rd", "Carlsbad, CA 92009"]}, "phone": "+17606021949", "display_phone": "(760) 602-1949", "distance": 7669.648828810451}, {"id": "vjGFXOzI1TCLYnnYYjxiXg", "alias": "market-restaurant-bar-del-mar-2", "name": "Market Restaurant + Bar", "image_url": "https://s3-media1.fl.yelpcdn.com/bphoto/SPC_dv2oiZH2mO4ucgzr6w/o.jpg", "is_closed": false, "url": "https://www.yelp.com/biz/market-restaurant-bar-del-mar-2?adjust_creative=oncXGL2aPIKrtJdnWeFSnA&utm_campaign=yelp_api_v3&utm_medium=api_v3_business_search&utm_source=oncXGL2aPIKrtJdnWeFSnA", "review_count": 851, "categories": [{"alias": "newamerican", "title": "American (New)"}, {"alias": "bars", "title": "Bars"}], "rating": 4.5, "coordinates": {"latitude": 32.98317, "longitude": -117.23017}, "transactions": [], "price": "$$$$", "location": {"address1": "3702 Via De La Valle", "address2": "", "address3": "", "city": "Del Mar", "zip_code": "92014", "country": "US", "state": "CA", "display_address": ["3702 Via De La Valle", "Del Mar, CA 92014"]}, "phone": "+18585230007", "display_phone": "(858) 523-0007", "distance": 18401.071941967195}, {"id": "hVoVQuXMqRkS7Z7rDhwP3g", "alias": "the-bridges-at-rancho-santa-fe-clubhouse-grill-rancho-santa-fe", "name": "The Bridges at Rancho Santa Fe - Clubhouse Grill", "image_url": "https://s3-media4.fl.yelpcdn.com/bphoto/fsR4fKgLTC-SSlZaEj0H5w/o.jpg", "is_closed": false, "url": "https://www.yelp.com/biz/the-bridges-at-rancho-santa-fe-clubhouse-grill-rancho-santa-fe?adjust_creative=oncXGL2aPIKrtJdnWeFSnA&utm_campaign=yelp_api_v3&utm_medium=api_v3_business_search&utm_source=oncXGL2aPIKrtJdnWeFSnA", "review_count": 5, "categories": [{"alias": "newamerican", "title": "American (New)"}], "rating": 5.0, "coordinates": {"latitude": 33.0517539978027, "longitude": -117.191215515137}, "transactions": [], "location": {"address1": "18550 Seven Bridges Rd", "address2": "", "address3": "", "city": "Rancho Santa Fe", "zip_code": "92091", "country": "US", "state": "CA", "display_address": ["18550 Seven Bridges Rd", "Rancho Santa Fe, CA 92091"]}, "phone": "+18587568700", "display_phone": "(858) 756-8700", "distance": 10121.369141973433}, {"id": "3xx-Z91-0IrrYOZbG6fybg", "alias": "the-cheesecake-factory-carlsbad", "name": "The Cheesecake Factory", "image_url": "https://s3-media4.fl.yelpcdn.com/bphoto/pgz7HzeE78bPjEW_xHq6fQ/o.jpg", "is_closed": false, "url": "https://www.yelp.com/biz/the-cheesecake-factory-carlsbad?adjust_creative=oncXGL2aPIKrtJdnWeFSnA&utm_campaign=yelp_api_v3&utm_medium=api_v3_business_search&utm_source=oncXGL2aPIKrtJdnWeFSnA", "review_count": 407, "categories": [{"alias": "desserts", "title": "Desserts"}, {"alias": "newamerican", "title": "American (New)"}], "rating": 2.5, "coordinates": {"latitude": 33.178616, "longitude": -117.329964478327}, "transactions": [], "price": "$$", "location": {"address1": "2525 El Camino Real", "address2": "Ste 105", "address3": null, "city": "Carlsbad", "zip_code": "92008", "country": "US", "state": "CA", "display_address": ["2525 El Camino Real", "Ste 105", "Carlsbad, CA 92008"]}, "phone": "+17607309880", "display_phone": "(760) 730-9880", "distance": 15154.199815275098}, {"id": "2s9lq_Nv0e9HYSnNlDkMRQ", "alias": "green-dragon-tavern-and-museum-carlsbad-2", "name": "Green Dragon Tavern & Museum", "image_url": "https://s3-media2.fl.yelpcdn.com/bphoto/Kmvrngqjtsi7hxZU8cAxDQ/o.jpg", "is_closed": false, "url": "https://www.yelp.com/biz/green-dragon-tavern-and-museum-carlsbad-2?adjust_creative=oncXGL2aPIKrtJdnWeFSnA&utm_campaign=yelp_api_v3&utm_medium=api_v3_business_search&utm_source=oncXGL2aPIKrtJdnWeFSnA", "review_count": 560, "categories": [{"alias": "venues", "title": "Venues & Event Spaces"}, {"alias": "newamerican", "title": "American (New)"}, {"alias": "sportsbars", "title": "Sports Bars"}], "rating": 4.0, "coordinates": {"latitude": 33.1203167392517, "longitude": -117.319950885914}, "transactions": [], "price": "$$", "location": {"address1": "6115 Paseo Del Norte", "address2": "", "address3": "", "city": "Carlsbad", "zip_code": "92011", "country": "US", "state": "CA", "display_address": ["6115 Paseo Del Norte", "Carlsbad, CA 92011"]}, "phone": "+17609182421", "display_phone": "(760) 918-2421", "distance": 13857.151539476858}, {"id": "1gtsD9wIHno_ebsZPWzkoQ", "alias": "solace-and-the-moonlight-lounge-encinitas", "name": "Solace and the Moonlight Lounge", "image_url": "https://s3-media2.fl.yelpcdn.com/bphoto/Fqf-PMB9xzV397m4qF1RBg/o.jpg", "is_closed": false, "url": "https://www.yelp.com/biz/solace-and-the-moonlight-lounge-encinitas?adjust_creative=oncXGL2aPIKrtJdnWeFSnA&utm_campaign=yelp_api_v3&utm_medium=api_v3_business_search&utm_source=oncXGL2aPIKrtJdnWeFSnA", "review_count": 848, "categories": [{"alias": "newamerican", "title": "American (New)"}, {"alias": "lounges", "title": "Lounges"}], "rating": 4.0, "coordinates": {"latitude": 33.0444780743168, "longitude": -117.293303310871}, "transactions": [], "price": "$$", "location": {"address1": "25 East E St", "address2": "", "address3": "", "city": "Encinitas", "zip_code": "92024", "country": "US", "state": "CA", "display_address": ["25 East E St", "Encinitas, CA 92024"]}, "phone": "+17607532433", "display_phone": "(760) 753-2433", "distance": 15537.806683670864}, {"id": "YpohND2cTm35aHXiNWZi-A", "alias": "cin\u00e9polis-luxury-cinemas-carlsbad-3", "name": "Cin\u00e9polis Luxury Cinemas", "image_url": "https://s3-media2.fl.yelpcdn.com/bphoto/SRZMjpi-Len0Ie_GIzJDlQ/o.jpg", "is_closed": false, "url": "https://www.yelp.com/biz/cin%C3%A9polis-luxury-cinemas-carlsbad-3?adjust_creative=oncXGL2aPIKrtJdnWeFSnA&utm_campaign=yelp_api_v3&utm_medium=api_v3_business_search&utm_source=oncXGL2aPIKrtJdnWeFSnA", "review_count": 766, "categories": [{"alias": "movietheaters", "title": "Cinema"}, {"alias": "newamerican", "title": "American (New)"}, {"alias": "bars", "title": "Bars"}], "rating": 3.5, "coordinates": {"latitude": 33.10377, "longitude": -117.26814}, "transactions": [], "price": "$$", "location": {"address1": "6941 El Camino Real", "address2": "", "address3": "", "city": "Carlsbad", "zip_code": "92009", "country": "US", "state": "CA", "display_address": ["6941 El Camino Real", "Carlsbad, CA 92009"]}, "phone": "+17608276700", "display_phone": "(760) 827-6700", "distance": 9836.29923704684}], "total": 111, "region": {"center": {"longitude": -117.17330932617188, "latitude": 33.141533511091374}}}