{"businesses": [{"id": "rhVaTqNvOWjZfXlM_siHRg", "alias": "sublime-alehouse-san-marcos", "name": "Sublime AleHouse", "image_url": "https://s3-media1.fl.yelpcdn.com/bphoto/dzJzsNB_Fp2wcoKr-rIazw/o.jpg", "is_closed": false, "url": "https://www.yelp.com/biz/sublime-alehouse-san-marcos?adjust_creative=oncXGL2aPIKrtJdnWeFSnA&utm_campaign=yelp_api_v3&utm_medium=api_v3_business_search&utm_source=oncXGL2aPIKrtJdnWeFSnA", "review_count": 1087, "categories": [{"alias": "pizza", "title": "Pizza"}, {"alias": "burgers", "title": "Burgers"}, {"alias": "bars", "title": "Bars"}], "rating": 4.0, "coordinates": {"latitude": 33.1343623, "longitude": -117.1901704}, "transactions": ["pickup", "delivery"], "price": "$$", "location": {"address1": "1020 W San Marcos Blvd", "address2": "", "address3": "", "city": "San Marcos", "zip_code": "92078", "country": "US", "state": "CA", "display_address": ["1020 W San Marcos Blvd", "San Marcos, CA 92078"]}, "phone": "+17605109220", "display_phone": "(760) 510-9220", "distance": 1760.831977947433}, {"id": "5OTTzfZdp5ld_L5xCN3RAQ", "alias": "cucina-amore-san-marcos-5", "name": "Cucina Amore", "image_url": "https://s3-media2.fl.yelpcdn.com/bphoto/abc7nXpH2KyWcTIO6lnvmg/o.jpg", "is_closed": false, "url": "https://www.yelp.com/biz/cucina-amore-san-marcos-5?adjust_creative=oncXGL2aPIKrtJdnWeFSnA&utm_campaign=yelp_api_v3&utm_medium=api_v3_business_search&utm_source=oncXGL2aPIKrtJdnWeFSnA", "review_count": 245, "categories": [{"alias": "italian", "title": "Italian"}, {"alias": "gelato", "title": "Gelato"}, {"alias": "pizza", "title": "Pizza"}], "rating": 4.0, "coordinates": {"latitude": 33.1318662450634, "longitude": -117.205854914526}, "transactions": ["pickup", "delivery"], "price": "$$", "location": {"address1": "679 S Rancho Santa Fe Rd", "address2": "", "address3": "", "city": "San Marcos", "zip_code": "92078", "country": "US", "state": "CA", "display_address": ["679 S Rancho Santa Fe Rd", "San Marcos, CA 92078"]}, "phone": "+17603046939", "display_phone": "(760) 304-6939", "distance": 3215.363472024143}, {"id": "d4WsOuwHai77upepgywo7Q", "alias": "two-brothers-from-italy-san-marcos", "name": "Two Brothers from Italy", "image_url": "https://s3-media2.fl.yelpcdn.com/bphoto/Ek6xhEcKiBYcAIn3Ero0ag/o.jpg", "is_closed": false, "url": "https://www.yelp.com/biz/two-brothers-from-italy-san-marcos?adjust_creative=oncXGL2aPIKrtJdnWeFSnA&utm_campaign=yelp_api_v3&utm_medium=api_v3_business_search&utm_source=oncXGL2aPIKrtJdnWeFSnA", "review_count": 287, "categories": [{"alias": "pizza", "title": "Pizza"}], "rating": 4.0, "coordinates": {"latitude": 33.13634, "longitude": -117.17656}, "transactions": ["pickup"], "price": "$", "location": {"address1": "591 Grand Ave", "address2": "Ste 101", "address3": "", "city": "San Marcos", "zip_code": "92078", "country": "US", "state": "CA", "display_address": ["591 Grand Ave", "Ste 101", "San Marcos, CA 92078"]}, "phone": "+17605919119", "display_phone": "(760) 591-9119", "distance": 696.7065568556615}, {"id": "rpEjdPH4VsmKkms8mOgfGQ", "alias": "pizza-nova-san-marcos", "name": "Pizza Nova", "image_url": "https://s3-media4.fl.yelpcdn.com/bphoto/6smxMR4tcQdbrky_bQcLZw/o.jpg", "is_closed": false, "url": "https://www.yelp.com/biz/pizza-nova-san-marcos?adjust_creative=oncXGL2aPIKrtJdnWeFSnA&utm_campaign=yelp_api_v3&utm_medium=api_v3_business_search&utm_source=oncXGL2aPIKrtJdnWeFSnA", "review_count": 361, "categories": [{"alias": "italian", "title": "Italian"}, {"alias": "pizza", "title": "Pizza"}], "rating": 4.0, "coordinates": {"latitude": 33.1403236674437, "longitude": -117.162771789562}, "transactions": [], "price": "$$", "location": {"address1": "141 N Twin Oaks Valley Rd", "address2": "", "address3": "", "city": "San Marcos", "zip_code": "92069", "country": "US", "state": "CA", "display_address": ["141 N Twin Oaks Valley Rd", "San Marcos, CA 92069"]}, "phone": "+17607368300", "display_phone": "(760) 736-8300", "distance": 990.2940323001644}, {"id": "pTY7iPqpu-iCGCIQJobj0g", "alias": "sorrentos-pizza-san-marcos-2", "name": "Sorrento's Pizza", "image_url": "https://s3-media2.fl.yelpcdn.com/bphoto/2C_lxwW39Q_Fm8lUuewBCg/o.jpg", "is_closed": false, "url": "https://www.yelp.com/biz/sorrentos-pizza-san-marcos-2?adjust_creative=oncXGL2aPIKrtJdnWeFSnA&utm_campaign=yelp_api_v3&utm_medium=api_v3_business_search&utm_source=oncXGL2aPIKrtJdnWeFSnA", "review_count": 210, "categories": [{"alias": "pizza", "title": "Pizza"}, {"alias": "italian", "title": "Italian"}, {"alias": "sandwiches", "title": "Sandwiches"}], "rating": 4.5, "coordinates": {"latitude": 33.15092, "longitude": -117.19176}, "transactions": [], "price": "$$", "location": {"address1": "1450 W Mission Rd", "address2": "", "address3": "", "city": "San Marcos", "zip_code": "92069", "country": "US", "state": "CA", "display_address": ["1450 W Mission Rd", "San Marcos, CA 92069"]}, "phone": "+17607274091", "display_phone": "(760) 727-4091", "distance": 2034.4712264130128}, {"id": "8OmG2wmVObBolG-jfBF5dg", "alias": "sammys-woodfired-pizza-and-grill-san-marcos", "name": "Sammy's Woodfired Pizza and Grill", "image_url": "https://s3-media3.fl.yelpcdn.com/bphoto/sn_GH0RjjrYMVHU7-kDlHA/o.jpg", "is_closed": false, "url": "https://www.yelp.com/biz/sammys-woodfired-pizza-and-grill-san-marcos?adjust_creative=oncXGL2aPIKrtJdnWeFSnA&utm_campaign=yelp_api_v3&utm_medium=api_v3_business_search&utm_source=oncXGL2aPIKrtJdnWeFSnA", "review_count": 376, "categories": [{"alias": "pizza", "title": "Pizza"}, {"alias": "gluten_free", "title": "Gluten-Free"}, {"alias": "salad", "title": "Salad"}], "rating": 4.0, "coordinates": {"latitude": 33.1423231145245, "longitude": -117.191854865265}, "transactions": [], "price": "$$", "location": {"address1": "121 S Las Posas Rd", "address2": "Ste 104", "address3": "", "city": "San Marcos", "zip_code": "92078", "country": "US", "state": "CA", "display_address": ["121 S Las Posas Rd", "Ste 104", "San Marcos, CA 92078"]}, "phone": "+17605914222", "display_phone": "(760) 591-4222", "distance": 1728.9226079987993}, {"id": "aRacnEURw6oTkrijdeUZXA", "alias": "buona-forchetta-encinitas", "name": "Buona Forchetta", "image_url": "https://s3-media3.fl.yelpcdn.com/bphoto/WXve-tSW9FcOXICtSENE9g/o.jpg", "is_closed": false, "url": "https://www.yelp.com/biz/buona-forchetta-encinitas?adjust_creative=oncXGL2aPIKrtJdnWeFSnA&utm_campaign=yelp_api_v3&utm_medium=api_v3_business_search&utm_source=oncXGL2aPIKrtJdnWeFSnA", "review_count": 29, "categories": [{"alias": "pizza", "title": "Pizza"}, {"alias": "italian", "title": "Italian"}, {"alias": "wine_bars", "title": "Wine Bars"}], "rating": 5.0, "coordinates": {"latitude": 33.05359, "longitude": -117.29659}, "transactions": [], "location": {"address1": "250 N Coast Hwy 101", "address2": "", "address3": null, "city": "Encinitas", "zip_code": "92024", "country": "US", "state": "CA", "display_address": ["250 N Coast Hwy 101", "Encinitas, CA 92024"]}, "phone": "+17607048070", "display_phone": "(760) 704-8070", "distance": 15083.621876646159}, {"id": "UPGYeMQGPyKahAsW0AMorw", "alias": "mangia-e-bevi-oceanside", "name": "Mangia e Bevi", "image_url": "https://s3-media2.fl.yelpcdn.com/bphoto/JyNc7RZ6xSYKdnkOArHM2Q/o.jpg", "is_closed": false, "url": "https://www.yelp.com/biz/mangia-e-bevi-oceanside?adjust_creative=oncXGL2aPIKrtJdnWeFSnA&utm_campaign=yelp_api_v3&utm_medium=api_v3_business_search&utm_source=oncXGL2aPIKrtJdnWeFSnA", "review_count": 16, "categories": [{"alias": "italian", "title": "Italian"}, {"alias": "pizza", "title": "Pizza"}, {"alias": "wine_bars", "title": "Wine Bars"}], "rating": 5.0, "coordinates": {"latitude": 33.21011, "longitude": -117.31162}, "transactions": [], "location": {"address1": "3613 Ocean Ranch Blvd", "address2": "Ste 100", "address3": "", "city": "Oceanside", "zip_code": "92056", "country": "US", "state": "CA", "display_address": ["3613 Ocean Ranch Blvd", "Ste 100", "Oceanside, CA 92056"]}, "phone": "+17602311225", "display_phone": "(760) 231-1225", "distance": 14944.216702816804}, {"id": "tf0EGIrqf0YqdqTyl-F0tA", "alias": "pizzamaniac-vista-5", "name": "Pizzamaniac", "image_url": "https://s3-media1.fl.yelpcdn.com/bphoto/zVzg8bzX3nzhTW2iSBMV8g/o.jpg", "is_closed": false, "url": "https://www.yelp.com/biz/pizzamaniac-vista-5?adjust_creative=oncXGL2aPIKrtJdnWeFSnA&utm_campaign=yelp_api_v3&utm_medium=api_v3_business_search&utm_source=oncXGL2aPIKrtJdnWeFSnA", "review_count": 473, "categories": [{"alias": "pizza", "title": "Pizza"}], "rating": 5.0, "coordinates": {"latitude": 33.2209354, "longitude": -117.2435248}, "transactions": [], "price": "$", "location": {"address1": "1461 N Santa Fe Ave", "address2": null, "address3": "", "city": "Vista", "zip_code": "92084", "country": "US", "state": "CA", "display_address": ["1461 N Santa Fe Ave", "Vista, CA 92084"]}, "phone": "+17609459901", "display_phone": "(760) 945-9901", "distance": 10984.193571915177}, {"id": "gGwsn-jLA5BooVt82zvA7g", "alias": "massachusetts-mikes-pizzeria-san-marcos-2", "name": "Massachusetts Mike's Pizzeria", "image_url": "https://s3-media2.fl.yelpcdn.com/bphoto/LoJlMkvUo0lGFPaRyCNnCA/o.jpg", "is_closed": false, "url": "https://www.yelp.com/biz/massachusetts-mikes-pizzeria-san-marcos-2?adjust_creative=oncXGL2aPIKrtJdnWeFSnA&utm_campaign=yelp_api_v3&utm_medium=api_v3_business_search&utm_source=oncXGL2aPIKrtJdnWeFSnA", "review_count": 216, "categories": [{"alias": "pizza", "title": "Pizza"}], "rating": 4.0, "coordinates": {"latitude": 33.13391, "longitude": -117.19256}, "transactions": ["pickup", "delivery"], "price": "$", "location": {"address1": "1158 W San Marcos Blvd", "address2": "", "address3": "", "city": "San Marcos", "zip_code": "92078", "country": "US", "state": "CA", "display_address": ["1158 W San Marcos Blvd", "San Marcos, CA 92078"]}, "phone": "+17605102750", "display_phone": "(760) 510-2750", "distance": 1984.1836069521487}, {"id": "jtwlX9jrzO-WaX8Vy-ZZ2g", "alias": "shanes-pizza-and-pints-san-marcos", "name": "Shane's Pizza and Pints", "image_url": "https://s3-media1.fl.yelpcdn.com/bphoto/yprYKYElKxS4Bp1bjHpe2Q/o.jpg", "is_closed": false, "url": "https://www.yelp.com/biz/shanes-pizza-and-pints-san-marcos?adjust_creative=oncXGL2aPIKrtJdnWeFSnA&utm_campaign=yelp_api_v3&utm_medium=api_v3_business_search&utm_source=oncXGL2aPIKrtJdnWeFSnA", "review_count": 133, "categories": [{"alias": "pizza", "title": "Pizza"}, {"alias": "italian", "title": "Italian"}, {"alias": "beerbar", "title": "Beer Bar"}], "rating": 4.0, "coordinates": {"latitude": 33.097095, "longitude": -117.200195}, "transactions": ["pickup", "delivery"], "price": "$$", "location": {"address1": "1523 San Elijo Rd S", "address2": "Ste 109", "address3": "", "city": "San Marcos", "zip_code": "92078", "country": "US", "state": "CA", "display_address": ["1523 San Elijo Rd S", "Ste 109", "San Marcos, CA 92078"]}, "phone": "+17607980522", "display_phone": "(760) 798-0522", "distance": 5536.698763890461}, {"id": "uCJeumybpDYN-VIAxjw2XQ", "alias": "flippin-pizza-san-marcos", "name": "Flippin' Pizza", "image_url": "https://s3-media3.fl.yelpcdn.com/bphoto/2MWDq4EfzT4GKi_9_gZNKg/o.jpg", "is_closed": false, "url": "https://www.yelp.com/biz/flippin-pizza-san-marcos?adjust_creative=oncXGL2aPIKrtJdnWeFSnA&utm_campaign=yelp_api_v3&utm_medium=api_v3_business_search&utm_source=oncXGL2aPIKrtJdnWeFSnA", "review_count": 272, "categories": [{"alias": "pizza", "title": "Pizza"}], "rating": 3.5, "coordinates": {"latitude": 33.1303628, "longitude": -117.1650588}, "transactions": [], "price": "$", "location": {"address1": "342 S Twin Oaks Valley Rd", "address2": "", "address3": "", "city": "San Marcos", "zip_code": "92078", "country": "US", "state": "CA", "display_address": ["342 S Twin Oaks Valley Rd", "San Marcos, CA 92078"]}, "phone": "+17607363180", "display_phone": "(760) 736-3180", "distance": 1369.3538684343655}, {"id": "YSyO7Z6yMkRG3knkq40mfQ", "alias": "uncle-tonys-italian-cuisine-vista", "name": "Uncle Tony's Italian Cuisine", "image_url": "https://s3-media3.fl.yelpcdn.com/bphoto/LrfOjSaYknHsKj5BEsHYBQ/o.jpg", "is_closed": false, "url": "https://www.yelp.com/biz/uncle-tonys-italian-cuisine-vista?adjust_creative=oncXGL2aPIKrtJdnWeFSnA&utm_campaign=yelp_api_v3&utm_medium=api_v3_business_search&utm_source=oncXGL2aPIKrtJdnWeFSnA", "review_count": 319, "categories": [{"alias": "italian", "title": "Italian"}, {"alias": "pizza", "title": "Pizza"}, {"alias": "cocktailbars", "title": "Cocktail Bars"}], "rating": 4.0, "coordinates": {"latitude": 33.16353, "longitude": -117.219449}, "transactions": [], "price": "$$", "location": {"address1": "770 Sycamore Ave", "address2": "Ste 121", "address3": "", "city": "Vista", "zip_code": "92083", "country": "US", "state": "CA", "display_address": ["770 Sycamore Ave", "Ste 121", "Vista, CA 92083"]}, "phone": "+17605986669", "display_phone": "(760) 598-6669", "distance": 4942.907626908892}, {"id": "kAJin4HHCoAPEN75JRe2KQ", "alias": "os-american-kitchen-san-marcos", "name": "O's American Kitchen", "image_url": "https://s3-media1.fl.yelpcdn.com/bphoto/Py33--MUUiuZQxBTKTfneQ/o.jpg", "is_closed": false, "url": "https://www.yelp.com/biz/os-american-kitchen-san-marcos?adjust_creative=oncXGL2aPIKrtJdnWeFSnA&utm_campaign=yelp_api_v3&utm_medium=api_v3_business_search&utm_source=oncXGL2aPIKrtJdnWeFSnA", "review_count": 192, "categories": [{"alias": "pizza", "title": "Pizza"}, {"alias": "tradamerican", "title": "American (Traditional)"}, {"alias": "desserts", "title": "Desserts"}], "rating": 3.0, "coordinates": {"latitude": 33.1407661437988, "longitude": -117.191108703613}, "transactions": ["pickup", "delivery"], "price": "$$", "location": {"address1": "137 S Las Posas Rd", "address2": "Ste 153", "address3": "", "city": "San Marcos", "zip_code": "92078", "country": "US", "state": "CA", "display_address": ["137 S Las Posas Rd", "Ste 153", "San Marcos, CA 92078"]}, "phone": "+17607987889", "display_phone": "(760) 798-7889", "distance": 1664.4242471127081}, {"id": "TJAPwTxh7TsmfPd3UcKKhw", "alias": "cuscatlan-comida-salvadore\u00f1a-escondido-3", "name": "Cuscatlan Comida Salvadore\u00f1a", "image_url": "https://s3-media2.fl.yelpcdn.com/bphoto/zN5HhJ00sMKGSbQXd2RfKQ/o.jpg", "is_closed": false, "url": "https://www.yelp.com/biz/cuscatlan-comida-salvadore%C3%B1a-escondido-3?adjust_creative=oncXGL2aPIKrtJdnWeFSnA&utm_campaign=yelp_api_v3&utm_medium=api_v3_business_search&utm_source=oncXGL2aPIKrtJdnWeFSnA", "review_count": 270, "categories": [{"alias": "salvadoran", "title": "Salvadoran"}, {"alias": "pizza", "title": "Pizza"}], "rating": 4.0, "coordinates": {"latitude": 33.1223412, "longitude": -117.0793991}, "transactions": [], "price": "$", "location": {"address1": "221 E Grand Ave", "address2": "", "address3": "", "city": "Escondido", "zip_code": "92025", "country": "US", "state": "CA", "display_address": ["221 E Grand Ave", "Escondido, CA 92025"]}, "phone": "+17602911225", "display_phone": "(760) 291-1225", "distance": 8991.526226234704}, {"id": "gA3O3jcd-6TzLUqJaR4XoQ", "alias": "roccos-pizza-deli-san-marcos", "name": "Rocco's Pizza Deli", "image_url": "https://s3-media3.fl.yelpcdn.com/bphoto/Yj59otQiWDHifPYBFy_sgQ/o.jpg", "is_closed": false, "url": "https://www.yelp.com/biz/roccos-pizza-deli-san-marcos?adjust_creative=oncXGL2aPIKrtJdnWeFSnA&utm_campaign=yelp_api_v3&utm_medium=api_v3_business_search&utm_source=oncXGL2aPIKrtJdnWeFSnA", "review_count": 60, "categories": [{"alias": "pizza", "title": "Pizza"}], "rating": 4.0, "coordinates": {"latitude": 33.14546, "longitude": -117.19959}, "transactions": [], "price": "$$", "location": {"address1": "1641 Grand Ave", "address2": "", "address3": "", "city": "San Marcos", "zip_code": "92069", "country": "US", "state": "CA", "display_address": ["1641 Grand Ave", "San Marcos, CA 92069"]}, "phone": "+17607448012", "display_phone": "(760) 744-8012", "distance": 2482.638085501872}, {"id": "v1H9N_3k3ckng8NcZek6gw", "alias": "fratellis-italian-kitchen-oceanside-5", "name": "Fratelli's Italian Kitchen", "image_url": "https://s3-media1.fl.yelpcdn.com/bphoto/rAUy6VUipaPXVzdSQ-g2lg/o.jpg", "is_closed": false, "url": "https://www.yelp.com/biz/fratellis-italian-kitchen-oceanside-5?adjust_creative=oncXGL2aPIKrtJdnWeFSnA&utm_campaign=yelp_api_v3&utm_medium=api_v3_business_search&utm_source=oncXGL2aPIKrtJdnWeFSnA", "review_count": 680, "categories": [{"alias": "italian", "title": "Italian"}, {"alias": "pizza", "title": "Pizza"}, {"alias": "seafood", "title": "Seafood"}], "rating": 4.5, "coordinates": {"latitude": 33.2281406, "longitude": -117.3245743}, "transactions": ["pickup", "delivery"], "price": "$$", "location": {"address1": "3915 Mission Ave", "address2": "Ste 12", "address3": "", "city": "Oceanside", "zip_code": "92058", "country": "US", "state": "CA", "display_address": ["3915 Mission Ave", "Ste 12", "Oceanside, CA 92058"]}, "phone": "+17606969007", "display_phone": "(760) 696-9007", "distance": 17018.83924988147}, {"id": "iaV-0DI3Mky4WO0uhydohQ", "alias": "grand-slam-pizza-vista", "name": "Grand Slam Pizza", "image_url": "https://s3-media2.fl.yelpcdn.com/bphoto/4H1vJ2M3_tXyylSJFK1bWQ/o.jpg", "is_closed": false, "url": "https://www.yelp.com/biz/grand-slam-pizza-vista?adjust_creative=oncXGL2aPIKrtJdnWeFSnA&utm_campaign=yelp_api_v3&utm_medium=api_v3_business_search&utm_source=oncXGL2aPIKrtJdnWeFSnA", "review_count": 81, "categories": [{"alias": "pizza", "title": "Pizza"}, {"alias": "sportsbars", "title": "Sports Bars"}, {"alias": "italian", "title": "Italian"}], "rating": 5.0, "coordinates": {"latitude": 33.15787, "longitude": -117.24943}, "transactions": ["pickup", "delivery"], "location": {"address1": "1910 Shadowridge Dr", "address2": "Ste 101", "address3": null, "city": "Vista", "zip_code": "92081", "country": "US", "state": "CA", "display_address": ["1910 Shadowridge Dr", "Ste 101", "Vista, CA 92081"]}, "phone": "+17605991199", "display_phone": "(760) 599-1199", "distance": 7278.583237448555}, {"id": "H3XUBtGEFmyKzlk1oET2Wg", "alias": "pieology-pizzeria-escondido", "name": "Pieology Pizzeria", "image_url": "https://s3-media1.fl.yelpcdn.com/bphoto/ebKfmacbotFPLsbHJsFiHw/o.jpg", "is_closed": false, "url": "https://www.yelp.com/biz/pieology-pizzeria-escondido?adjust_creative=oncXGL2aPIKrtJdnWeFSnA&utm_campaign=yelp_api_v3&utm_medium=api_v3_business_search&utm_source=oncXGL2aPIKrtJdnWeFSnA", "review_count": 303, "categories": [{"alias": "pizza", "title": "Pizza"}], "rating": 4.0, "coordinates": {"latitude": 33.1133603804272, "longitude": -117.102172784507}, "transactions": [], "price": "$", "location": {"address1": "1334 West Valley Pkwy", "address2": "", "address3": "", "city": "Escondido", "zip_code": "92029", "country": "US", "state": "CA", "display_address": ["1334 West Valley Pkwy", "Escondido, CA 92029"]}, "phone": "+17604899889", "display_phone": "(760) 489-9889", "distance": 7327.697171119796}, {"id": "3HwghixraHhQaG5GAChmsw", "alias": "bites-pints-taphouse-carlsbad", "name": "Bites + Pints Taphouse", "image_url": "https://s3-media2.fl.yelpcdn.com/bphoto/npuXcrqFlA6N8RsDvTzNlw/o.jpg", "is_closed": false, "url": "https://www.yelp.com/biz/bites-pints-taphouse-carlsbad?adjust_creative=oncXGL2aPIKrtJdnWeFSnA&utm_campaign=yelp_api_v3&utm_medium=api_v3_business_search&utm_source=oncXGL2aPIKrtJdnWeFSnA", "review_count": 23, "categories": [{"alias": "pizza", "title": "Pizza"}, {"alias": "tradamerican", "title": "American (Traditional)"}, {"alias": "salad", "title": "Salad"}], "rating": 3.5, "coordinates": {"latitude": 33.17993, "longitude": -117.32715}, "transactions": ["pickup", "delivery"], "location": {"address1": "2501 El Camino Real", "address2": "Ste 210", "address3": null, "city": "Carlsbad", "zip_code": "92008", "country": "US", "state": "CA", "display_address": ["2501 El Camino Real", "Ste 210", "Carlsbad, CA 92008"]}, "phone": "+17607291904", "display_phone": "(760) 729-1904", "distance": 15069.625259368899}, {"id": "ajVbHmwDRTgprAXA_mHnqw", "alias": "blackstone-pizza-san-marcos-2", "name": "Blackstone Pizza", "image_url": "https://s3-media3.fl.yelpcdn.com/bphoto/R7DT6ZtW5-TmAojQ7ZWyfw/o.jpg", "is_closed": false, "url": "https://www.yelp.com/biz/blackstone-pizza-san-marcos-2?adjust_creative=oncXGL2aPIKrtJdnWeFSnA&utm_campaign=yelp_api_v3&utm_medium=api_v3_business_search&utm_source=oncXGL2aPIKrtJdnWeFSnA", "review_count": 201, "categories": [{"alias": "pizza", "title": "Pizza"}, {"alias": "sandwiches", "title": "Sandwiches"}, {"alias": "salad", "title": "Salad"}], "rating": 3.5, "coordinates": {"latitude": 33.1455089, "longitude": -117.1499292}, "transactions": ["pickup", "delivery"], "price": "$$", "location": {"address1": "574 E Mission Rd", "address2": "Ste A", "address3": "", "city": "San Marcos", "zip_code": "92069", "country": "US", "state": "CA", "display_address": ["574 E Mission Rd", "Ste A", "San Marcos, CA 92069"]}, "phone": "+17607982246", "display_phone": "(760) 798-2246", "distance": 2221.2087460549974}, {"id": "tUMvfEBvvXjOxiQC2XCsYw", "alias": "urbn-vista", "name": "URBN", "image_url": "https://s3-media3.fl.yelpcdn.com/bphoto/GdWL7mWTKOYPLYkIgYVdDQ/o.jpg", "is_closed": false, "url": "https://www.yelp.com/biz/urbn-vista?adjust_creative=oncXGL2aPIKrtJdnWeFSnA&utm_campaign=yelp_api_v3&utm_medium=api_v3_business_search&utm_source=oncXGL2aPIKrtJdnWeFSnA", "review_count": 791, "categories": [{"alias": "pizza", "title": "Pizza"}], "rating": 4.0, "coordinates": {"latitude": 33.202535, "longitude": -117.242428}, "transactions": ["pickup", "delivery"], "price": "$$", "location": {"address1": "203 Main St", "address2": "", "address3": "", "city": "Vista", "zip_code": "92084", "country": "US", "state": "CA", "display_address": ["203 Main St", "Vista, CA 92084"]}, "phone": "+17607248840", "display_phone": "(760) 724-8840", "distance": 9348.517265440647}, {"id": "Q6z1C4VtUj4LiFQ2Ms2T_g", "alias": "bjs-restaurant-and-brewhouse-escondido", "name": "BJ's Restaurant & Brewhouse", "image_url": "https://s3-media4.fl.yelpcdn.com/bphoto/yw5na4aJRTRfAz77_HlowA/o.jpg", "is_closed": false, "url": "https://www.yelp.com/biz/bjs-restaurant-and-brewhouse-escondido?adjust_creative=oncXGL2aPIKrtJdnWeFSnA&utm_campaign=yelp_api_v3&utm_medium=api_v3_business_search&utm_source=oncXGL2aPIKrtJdnWeFSnA", "review_count": 775, "categories": [{"alias": "pizza", "title": "Pizza"}, {"alias": "newamerican", "title": "American (New)"}, {"alias": "breweries", "title": "Breweries"}], "rating": 3.0, "coordinates": {"latitude": 33.0691322, "longitude": -117.06819}, "transactions": ["delivery"], "price": "$$", "location": {"address1": "204 E Via Rancho Pkwy", "address2": "", "address3": "", "city": "Escondido", "zip_code": "92025", "country": "US", "state": "CA", "display_address": ["204 E Via Rancho Pkwy", "Escondido, CA 92025"]}, "phone": "+17604660700", "display_phone": "(760) 466-0700", "distance": 12561.925603534926}, {"id": "d7BWosg1jl0TSI325fFMAw", "alias": "7-mile-kitchen-carlsbad", "name": "7 Mile Kitchen", "image_url": "https://s3-media2.fl.yelpcdn.com/bphoto/-MrjKPdeIX99iMbyxBIVPw/o.jpg", "is_closed": false, "url": "https://www.yelp.com/biz/7-mile-kitchen-carlsbad?adjust_creative=oncXGL2aPIKrtJdnWeFSnA&utm_campaign=yelp_api_v3&utm_medium=api_v3_business_search&utm_source=oncXGL2aPIKrtJdnWeFSnA", "review_count": 85, "categories": [{"alias": "newamerican", "title": "American (New)"}, {"alias": "pizza", "title": "Pizza"}, {"alias": "burgers", "title": "Burgers"}], "rating": 3.5, "coordinates": {"latitude": 33.1327473, "longitude": -117.3118966}, "transactions": [], "price": "$$", "location": {"address1": "5420 Grand Pacific Dr", "address2": null, "address3": "", "city": "Carlsbad", "zip_code": "92008", "country": "US", "state": "CA", "display_address": ["5420 Grand Pacific Dr", "Carlsbad, CA 92008"]}, "phone": "+17608272514", "display_phone": "(760) 827-2514", "distance": 12940.872956340501}, {"id": "fjcn18FhCIx-5_7suhZV5A", "alias": "killer-pizza-from-mars-escondido", "name": "Killer Pizza From Mars", "image_url": "https://s3-media2.fl.yelpcdn.com/bphoto/Iba3yLdPsonDqepMWGmxjw/o.jpg", "is_closed": false, "url": "https://www.yelp.com/biz/killer-pizza-from-mars-escondido?adjust_creative=oncXGL2aPIKrtJdnWeFSnA&utm_campaign=yelp_api_v3&utm_medium=api_v3_business_search&utm_source=oncXGL2aPIKrtJdnWeFSnA", "review_count": 473, "categories": [{"alias": "pizza", "title": "Pizza"}, {"alias": "sandwiches", "title": "Sandwiches"}, {"alias": "sportsbars", "title": "Sports Bars"}], "rating": 4.0, "coordinates": {"latitude": 33.1479681903375, "longitude": -117.107677321906}, "transactions": [], "price": "$$", "location": {"address1": "1040 W El Norte Pkwy", "address2": "", "address3": "", "city": "Escondido", "zip_code": "92026", "country": "US", "state": "CA", "display_address": ["1040 W El Norte Pkwy", "Escondido, CA 92026"]}, "phone": "+17607416277", "display_phone": "(760) 741-6277", "distance": 6152.25221598554}, {"id": "eWIgR7DeS7BnKbFtIp-m4w", "alias": "pizza-port-bressi-ranch-carlsbad", "name": "Pizza Port Bressi Ranch", "image_url": "https://s3-media2.fl.yelpcdn.com/bphoto/I4DZ4hgRvvei0oqrTyvsXQ/o.jpg", "is_closed": false, "url": "https://www.yelp.com/biz/pizza-port-bressi-ranch-carlsbad?adjust_creative=oncXGL2aPIKrtJdnWeFSnA&utm_campaign=yelp_api_v3&utm_medium=api_v3_business_search&utm_source=oncXGL2aPIKrtJdnWeFSnA", "review_count": 518, "categories": [{"alias": "pizza", "title": "Pizza"}, {"alias": "pubs", "title": "Pubs"}], "rating": 3.5, "coordinates": {"latitude": 33.1283833252746, "longitude": -117.25021150388}, "transactions": ["pickup"], "price": "$$", "location": {"address1": "2730 Gateway Rd", "address2": null, "address3": "", "city": "Carlsbad", "zip_code": "92009", "country": "US", "state": "CA", "display_address": ["2730 Gateway Rd", "Carlsbad, CA 92009"]}, "phone": "+17607071655", "display_phone": "(760) 707-1655", "distance": 7308.357936329623}, {"id": "Pk1RB_ymVaY1ZK4XcskvYQ", "alias": "bjs-restaurant-and-brewhouse-carlsbad-2", "name": "BJ's Restaurant & Brewhouse", "image_url": "https://s3-media2.fl.yelpcdn.com/bphoto/bpLbi_sIatXNr6NLy87DLg/o.jpg", "is_closed": false, "url": "https://www.yelp.com/biz/bjs-restaurant-and-brewhouse-carlsbad-2?adjust_creative=oncXGL2aPIKrtJdnWeFSnA&utm_campaign=yelp_api_v3&utm_medium=api_v3_business_search&utm_source=oncXGL2aPIKrtJdnWeFSnA", "review_count": 847, "categories": [{"alias": "breweries", "title": "Breweries"}, {"alias": "newamerican", "title": "American (New)"}, {"alias": "pizza", "title": "Pizza"}], "rating": 3.0, "coordinates": {"latitude": 33.127135, "longitude": -117.324024}, "transactions": ["delivery"], "price": "$$", "location": {"address1": "5613 Paseo Del Norte", "address2": "", "address3": "", "city": "Carlsbad", "zip_code": "92008", "country": "US", "state": "CA", "display_address": ["5613 Paseo Del Norte", "Carlsbad, CA 92008"]}, "phone": "+17605794440", "display_phone": "(760) 579-4440", "distance": 14124.612065771364}, {"id": "nqv_l0D5AsFoL2NHwwMLcg", "alias": "blue-ribbon-artisan-pizzeria-encinitas-2", "name": "Blue Ribbon Artisan Pizzeria", "image_url": "https://s3-media3.fl.yelpcdn.com/bphoto/VYFxOirhj1BV1hBCq4rRQA/o.jpg", "is_closed": false, "url": "https://www.yelp.com/biz/blue-ribbon-artisan-pizzeria-encinitas-2?adjust_creative=oncXGL2aPIKrtJdnWeFSnA&utm_campaign=yelp_api_v3&utm_medium=api_v3_business_search&utm_source=oncXGL2aPIKrtJdnWeFSnA", "review_count": 734, "categories": [{"alias": "pizza", "title": "Pizza"}, {"alias": "salad", "title": "Salad"}, {"alias": "soup", "title": "Soup"}], "rating": 4.0, "coordinates": {"latitude": 33.0421671982666, "longitude": -117.289921863477}, "transactions": ["restaurant_reservation"], "price": "$$", "location": {"address1": "897 S Coast Hwy 101", "address2": "Ste F102", "address3": "", "city": "Encinitas", "zip_code": "92024", "country": "US", "state": "CA", "display_address": ["897 S Coast Hwy 101", "Ste F102", "Encinitas, CA 92024"]}, "phone": "+17606347671", "display_phone": "(760) 634-7671", "distance": 15495.01533408973}, {"id": "5PhVuBy6sz6kTcHMPGCWQw", "alias": "roccos-pizza-and-deli-vista", "name": "Rocco's Pizza And Deli", "image_url": "https://s3-media3.fl.yelpcdn.com/bphoto/eHir9NcPDv914Cm_Kg9mDg/o.jpg", "is_closed": false, "url": "https://www.yelp.com/biz/roccos-pizza-and-deli-vista?adjust_creative=oncXGL2aPIKrtJdnWeFSnA&utm_campaign=yelp_api_v3&utm_medium=api_v3_business_search&utm_source=oncXGL2aPIKrtJdnWeFSnA", "review_count": 59, "categories": [{"alias": "pizza", "title": "Pizza"}, {"alias": "italian", "title": "Italian"}, {"alias": "sandwiches", "title": "Sandwiches"}], "rating": 4.5, "coordinates": {"latitude": 33.1655321353509, "longitude": -117.220746718408}, "transactions": [], "price": "$", "location": {"address1": "749 Shadowridge Dr", "address2": "", "address3": "", "city": "Vista", "zip_code": "92083", "country": "US", "state": "CA", "display_address": ["749 Shadowridge Dr", "Vista, CA 92083"]}, "phone": "+17605977036", "display_phone": "(760) 597-7036", "distance": 5159.741664023373}, {"id": "d1WKFhg5l_LCgnMHs140hQ", "alias": "pieology-pizzeria-carlsbad", "name": "Pieology Pizzeria", "image_url": "https://s3-media2.fl.yelpcdn.com/bphoto/EqC44ep-lYF3vLMwIQNM3Q/o.jpg", "is_closed": false, "url": "https://www.yelp.com/biz/pieology-pizzeria-carlsbad?adjust_creative=oncXGL2aPIKrtJdnWeFSnA&utm_campaign=yelp_api_v3&utm_medium=api_v3_business_search&utm_source=oncXGL2aPIKrtJdnWeFSnA", "review_count": 200, "categories": [{"alias": "pizza", "title": "Pizza"}], "rating": 4.0, "coordinates": {"latitude": 33.1272292, "longitude": -117.253689}, "transactions": [], "price": "$", "location": {"address1": "2647 Gateway Rd", "address2": "Ste 101", "address3": null, "city": "Carlsbad", "zip_code": "92009", "country": "US", "state": "CA", "display_address": ["2647 Gateway Rd", "Ste 101", "Carlsbad, CA 92009"]}, "phone": "+17609308988", "display_phone": "(760) 930-8988", "distance": 7675.004333553405}, {"id": "aHmaM2SYGqEkefUBHIiybA", "alias": "pizza-hut-san-marcos-2", "name": "Pizza Hut", "image_url": "https://s3-media1.fl.yelpcdn.com/bphoto/20nfHR3YoRFrjocfJ7vBbg/o.jpg", "is_closed": false, "url": "https://www.yelp.com/biz/pizza-hut-san-marcos-2?adjust_creative=oncXGL2aPIKrtJdnWeFSnA&utm_campaign=yelp_api_v3&utm_medium=api_v3_business_search&utm_source=oncXGL2aPIKrtJdnWeFSnA", "review_count": 34, "categories": [{"alias": "pizza", "title": "Pizza"}, {"alias": "italian", "title": "Italian"}, {"alias": "chicken_wings", "title": "Chicken Wings"}], "rating": 2.5, "coordinates": {"latitude": 33.1304321289062, "longitude": -117.209907531738}, "transactions": [], "price": "$", "location": {"address1": "1915 W San Marcos Blvd", "address2": "", "address3": "", "city": "San Marcos", "zip_code": "92069", "country": "US", "state": "CA", "display_address": ["1915 W San Marcos Blvd", "San Marcos, CA 92069"]}, "phone": "+17605989900", "display_phone": "(760) 598-9900", "distance": 3627.949951260045}, {"id": "KLKQBH02g9_frEaVZHvhew", "alias": "station-pizza-san-marcos", "name": "Station Pizza", "image_url": "https://s3-media3.fl.yelpcdn.com/bphoto/_ZVICR7NE6g73R0NMMmzpw/o.jpg", "is_closed": false, "url": "https://www.yelp.com/biz/station-pizza-san-marcos?adjust_creative=oncXGL2aPIKrtJdnWeFSnA&utm_campaign=yelp_api_v3&utm_medium=api_v3_business_search&utm_source=oncXGL2aPIKrtJdnWeFSnA", "review_count": 104, "categories": [{"alias": "pizza", "title": "Pizza"}, {"alias": "salad", "title": "Salad"}, {"alias": "sandwiches", "title": "Sandwiches"}], "rating": 3.5, "coordinates": {"latitude": 33.15095, "longitude": -117.19382}, "transactions": [], "price": "$$", "location": {"address1": "1531 W Mission Rd", "address2": "Ste B", "address3": "", "city": "San Marcos", "zip_code": "92069", "country": "US", "state": "CA", "display_address": ["1531 W Mission Rd", "Ste B", "San Marcos, CA 92069"]}, "phone": "+17608910100", "display_phone": "(760) 891-0100", "distance": 2158.391496016129}, {"id": "Hy6IjnaiieEZ8JhtvplIxg", "alias": "little-caesars-san-marcos", "name": "Little Caesars", "image_url": "https://s3-media1.fl.yelpcdn.com/bphoto/GR5TkRY7i4hchzD8_8fl0g/o.jpg", "is_closed": false, "url": "https://www.yelp.com/biz/little-caesars-san-marcos?adjust_creative=oncXGL2aPIKrtJdnWeFSnA&utm_campaign=yelp_api_v3&utm_medium=api_v3_business_search&utm_source=oncXGL2aPIKrtJdnWeFSnA", "review_count": 27, "categories": [{"alias": "pizza", "title": "Pizza"}], "rating": 3.0, "coordinates": {"latitude": 33.14377, "longitude": -117.20105}, "transactions": [], "price": "$", "location": {"address1": "273 S Rancho Santa Fe Rd", "address2": "", "address3": "", "city": "San Marcos", "zip_code": "92078", "country": "US", "state": "CA", "display_address": ["273 S Rancho Santa Fe Rd", "San Marcos, CA 92078"]}, "phone": "+17605109922", "display_phone": "(760) 510-9922", "distance": 2597.548699936937}, {"id": "sfjLl4LfVQS7QlwfyTeUPQ", "alias": "pizza-time-escondido", "name": "Pizza Time", "image_url": "https://s3-media2.fl.yelpcdn.com/bphoto/76YPgMjzpL5semSH5Ajekg/o.jpg", "is_closed": false, "url": "https://www.yelp.com/biz/pizza-time-escondido?adjust_creative=oncXGL2aPIKrtJdnWeFSnA&utm_campaign=yelp_api_v3&utm_medium=api_v3_business_search&utm_source=oncXGL2aPIKrtJdnWeFSnA", "review_count": 58, "categories": [{"alias": "pizza", "title": "Pizza"}], "rating": 4.5, "coordinates": {"latitude": 33.1029, "longitude": -117.07587}, "transactions": [], "price": "$", "location": {"address1": "501 W Felicita Ave", "address2": "", "address3": null, "city": "Escondido", "zip_code": "92025", "country": "US", "state": "CA", "display_address": ["501 W Felicita Ave", "Escondido, CA 92025"]}, "phone": "+17602309445", "display_phone": "(760) 230-9445", "distance": 10049.577334667369}, {"id": "eTiQGScV5TbUfFeH4etwMQ", "alias": "blaze-fast-fired-pizza-carlsbad", "name": "Blaze Fast-Fire'd Pizza", "image_url": "https://s3-media4.fl.yelpcdn.com/bphoto/RdiWPOGfcK5C4bmnuL0MvA/o.jpg", "is_closed": false, "url": "https://www.yelp.com/biz/blaze-fast-fired-pizza-carlsbad?adjust_creative=oncXGL2aPIKrtJdnWeFSnA&utm_campaign=yelp_api_v3&utm_medium=api_v3_business_search&utm_source=oncXGL2aPIKrtJdnWeFSnA", "review_count": 686, "categories": [{"alias": "pizza", "title": "Pizza"}, {"alias": "salad", "title": "Salad"}, {"alias": "hotdogs", "title": "Fast Food"}], "rating": 4.5, "coordinates": {"latitude": 33.1250977336068, "longitude": -117.320182059245}, "transactions": [], "price": "$", "location": {"address1": "5620 Paseo Del Norte", "address2": "", "address3": "", "city": "Carlsbad", "zip_code": "92008", "country": "US", "state": "CA", "display_address": ["5620 Paseo Del Norte", "Carlsbad, CA 92008"]}, "phone": "+17608945029", "display_phone": "(760) 894-5029", "distance": 13797.573145121207}, {"id": "JBeX7kW_p2yWnG0TOYAvzQ", "alias": "dominics-italian-gourmet-escondido", "name": "Dominics Italian Gourmet", "image_url": "https://s3-media3.fl.yelpcdn.com/bphoto/CKOQuATO7dlG7Kc-3v4iHw/o.jpg", "is_closed": false, "url": "https://www.yelp.com/biz/dominics-italian-gourmet-escondido?adjust_creative=oncXGL2aPIKrtJdnWeFSnA&utm_campaign=yelp_api_v3&utm_medium=api_v3_business_search&utm_source=oncXGL2aPIKrtJdnWeFSnA", "review_count": 231, "categories": [{"alias": "italian", "title": "Italian"}, {"alias": "seafood", "title": "Seafood"}, {"alias": "pizza", "title": "Pizza"}], "rating": 4.0, "coordinates": {"latitude": 33.1215956, "longitude": -117.0808957}, "transactions": ["pickup"], "price": "$$", "location": {"address1": "113 E Grand Av", "address2": "", "address3": "", "city": "Escondido", "zip_code": "92025", "country": "US", "state": "CA", "display_address": ["113 E Grand Av", "Escondido, CA 92025"]}, "phone": "+17604801704", "display_phone": "(760) 480-1704", "distance": 8886.230413634035}, {"id": "kBKLaoFLzm_pj1lcwrs-BA", "alias": "little-caesars-pizza-san-marcos-4", "name": "Little Caesar's Pizza", "image_url": "https://s3-media3.fl.yelpcdn.com/bphoto/0bZqKSKlklZ8NXlJlHjNHA/o.jpg", "is_closed": false, "url": "https://www.yelp.com/biz/little-caesars-pizza-san-marcos-4?adjust_creative=oncXGL2aPIKrtJdnWeFSnA&utm_campaign=yelp_api_v3&utm_medium=api_v3_business_search&utm_source=oncXGL2aPIKrtJdnWeFSnA", "review_count": 20, "categories": [{"alias": "pizza", "title": "Pizza"}], "rating": 3.0, "coordinates": {"latitude": 33.14109, "longitude": -117.13898}, "transactions": [], "price": "$", "location": {"address1": "197 Woodland Pkwy", "address2": "Ste 102", "address3": "", "city": "San Marcos", "zip_code": "92069", "country": "US", "state": "CA", "display_address": ["197 Woodland Pkwy", "Ste 102", "San Marcos, CA 92069"]}, "phone": "+17607527900", "display_phone": "(760) 752-7900", "distance": 3201.2960535138004}, {"id": "r53XDut6NW5_bF8TF2dwGA", "alias": "flippin-pizza-vista", "name": "Flippin' Pizza", "image_url": "https://s3-media2.fl.yelpcdn.com/bphoto/Kt3UBw5-JiD-7aMdbNmnqw/o.jpg", "is_closed": false, "url": "https://www.yelp.com/biz/flippin-pizza-vista?adjust_creative=oncXGL2aPIKrtJdnWeFSnA&utm_campaign=yelp_api_v3&utm_medium=api_v3_business_search&utm_source=oncXGL2aPIKrtJdnWeFSnA", "review_count": 246, "categories": [{"alias": "pizza", "title": "Pizza"}], "rating": 4.0, "coordinates": {"latitude": 33.141735, "longitude": -117.242835}, "transactions": ["pickup", "delivery"], "price": "$", "location": {"address1": "2440 S Melrose Dr", "address2": "", "address3": "", "city": "Vista", "zip_code": "92081", "country": "US", "state": "CA", "display_address": ["2440 S Melrose Dr", "Vista, CA 92081"]}, "phone": "+17605988005", "display_phone": "(760) 598-8005", "distance": 6473.283398918566}, {"id": "YNfDnUoHj6JybsNb8KxoaA", "alias": "palomar-pizza-and-pasta-vista", "name": "Palomar Pizza & Pasta", "image_url": "https://s3-media2.fl.yelpcdn.com/bphoto/fQj0wRhwTc2kWQyjytnowA/o.jpg", "is_closed": false, "url": "https://www.yelp.com/biz/palomar-pizza-and-pasta-vista?adjust_creative=oncXGL2aPIKrtJdnWeFSnA&utm_campaign=yelp_api_v3&utm_medium=api_v3_business_search&utm_source=oncXGL2aPIKrtJdnWeFSnA", "review_count": 92, "categories": [{"alias": "pizza", "title": "Pizza"}, {"alias": "italian", "title": "Italian"}], "rating": 3.5, "coordinates": {"latitude": 33.132653, "longitude": -117.229594}, "transactions": [], "price": "$", "location": {"address1": "3265 Business Park Dr", "address2": "", "address3": "", "city": "Vista", "zip_code": "92081", "country": "US", "state": "CA", "display_address": ["3265 Business Park Dr", "Vista, CA 92081"]}, "phone": "+17607275559", "display_phone": "(760) 727-5559", "distance": 5332.920845010879}, {"id": "FvCyJ8ZD3cR5_YCQdlBFjQ", "alias": "dominos-pizza-san-marcos-2", "name": "Domino's Pizza", "image_url": "https://s3-media3.fl.yelpcdn.com/bphoto/cPBMgtt6T-Ia-dxUowVn1A/o.jpg", "is_closed": false, "url": "https://www.yelp.com/biz/dominos-pizza-san-marcos-2?adjust_creative=oncXGL2aPIKrtJdnWeFSnA&utm_campaign=yelp_api_v3&utm_medium=api_v3_business_search&utm_source=oncXGL2aPIKrtJdnWeFSnA", "review_count": 65, "categories": [{"alias": "pizza", "title": "Pizza"}, {"alias": "chicken_wings", "title": "Chicken Wings"}, {"alias": "sandwiches", "title": "Sandwiches"}], "rating": 2.5, "coordinates": {"latitude": 33.135496, "longitude": -117.181891}, "transactions": [], "price": "$", "location": {"address1": "805 W San Marcos Blvd", "address2": "", "address3": "", "city": "San Marcos", "zip_code": "92078", "country": "US", "state": "CA", "display_address": ["805 W San Marcos Blvd", "San Marcos, CA 92078"]}, "phone": "+17604711055", "display_phone": "(760) 471-1055", "distance": 1043.6233062892088}, {"id": "ZKPviNRauaMkmQBojkxXBg", "alias": "mama-n-papas-pizza-grotto-vista-3", "name": "Mama 'n Papa's Pizza Grotto", "image_url": "https://s3-media3.fl.yelpcdn.com/bphoto/Z4rzucXKPawma5UiPEP-Pw/o.jpg", "is_closed": false, "url": "https://www.yelp.com/biz/mama-n-papas-pizza-grotto-vista-3?adjust_creative=oncXGL2aPIKrtJdnWeFSnA&utm_campaign=yelp_api_v3&utm_medium=api_v3_business_search&utm_source=oncXGL2aPIKrtJdnWeFSnA", "review_count": 310, "categories": [{"alias": "pizza", "title": "Pizza"}, {"alias": "italian", "title": "Italian"}], "rating": 4.0, "coordinates": {"latitude": 33.19076, "longitude": -117.23698}, "transactions": [], "price": "$$", "location": {"address1": "988 Civic Center Dr", "address2": "", "address3": "", "city": "Vista", "zip_code": "92083", "country": "US", "state": "CA", "display_address": ["988 Civic Center Dr", "Vista, CA 92083"]}, "phone": "+17609413900", "display_phone": "(760) 941-3900", "distance": 8056.843886799379}, {"id": "VFo1r3Tzcdr-OWsN2awqbg", "alias": "rossis-pizza-and-family-sports-restaurant-san-marcos-2", "name": "Rossi's Pizza & Family Sports Restaurant", "image_url": "https://s3-media3.fl.yelpcdn.com/bphoto/6CP4MC5m6Ex-aHrQ3jcX9A/o.jpg", "is_closed": false, "url": "https://www.yelp.com/biz/rossis-pizza-and-family-sports-restaurant-san-marcos-2?adjust_creative=oncXGL2aPIKrtJdnWeFSnA&utm_campaign=yelp_api_v3&utm_medium=api_v3_business_search&utm_source=oncXGL2aPIKrtJdnWeFSnA", "review_count": 153, "categories": [{"alias": "pizza", "title": "Pizza"}, {"alias": "sportsbars", "title": "Sports Bars"}], "rating": 3.0, "coordinates": {"latitude": 33.14699, "longitude": -117.20038}, "transactions": ["pickup", "delivery"], "price": "$$", "location": {"address1": "156 S Rancho Santa Fe Rd", "address2": "", "address3": "", "city": "San Marcos", "zip_code": "92078", "country": "US", "state": "CA", "display_address": ["156 S Rancho Santa Fe Rd", "San Marcos, CA 92078"]}, "phone": "+17607274747", "display_phone": "(760) 727-4747", "distance": 2563.7372759605323}, {"id": "JcoMV3ZGMAtVauyDlPoUKg", "alias": "leucadia-pizzeria-vista", "name": "Leucadia Pizzeria", "image_url": "https://s3-media1.fl.yelpcdn.com/bphoto/vBD_ze94dKOwn2i54XZ1ng/o.jpg", "is_closed": false, "url": "https://www.yelp.com/biz/leucadia-pizzeria-vista?adjust_creative=oncXGL2aPIKrtJdnWeFSnA&utm_campaign=yelp_api_v3&utm_medium=api_v3_business_search&utm_source=oncXGL2aPIKrtJdnWeFSnA", "review_count": 71, "categories": [{"alias": "pizza", "title": "Pizza"}, {"alias": "italian", "title": "Italian"}, {"alias": "sandwiches", "title": "Sandwiches"}], "rating": 4.0, "coordinates": {"latitude": 33.1459728, "longitude": -117.2423388}, "transactions": ["pickup", "delivery"], "price": "$$", "location": {"address1": "2215 S Melrose Dr", "address2": "Ste 105", "address3": "Melrose Square Center", "city": "Vista", "zip_code": "92081", "country": "US", "state": "CA", "display_address": ["2215 S Melrose Dr", "Ste 105", "Melrose Square Center", "Vista, CA 92081"]}, "phone": "+17607272223", "display_phone": "(760) 727-2223", "distance": 6445.819243990646}, {"id": "cto_W4jjMqI6dU7G7JaKTA", "alias": "pizza-port-carlsbad-3", "name": "Pizza Port", "image_url": "https://s3-media2.fl.yelpcdn.com/bphoto/DT_E8CKJE-BlqKzXfiaDbA/o.jpg", "is_closed": false, "url": "https://www.yelp.com/biz/pizza-port-carlsbad-3?adjust_creative=oncXGL2aPIKrtJdnWeFSnA&utm_campaign=yelp_api_v3&utm_medium=api_v3_business_search&utm_source=oncXGL2aPIKrtJdnWeFSnA", "review_count": 1854, "categories": [{"alias": "pizza", "title": "Pizza"}, {"alias": "breweries", "title": "Breweries"}, {"alias": "beerbar", "title": "Beer Bar"}], "rating": 3.5, "coordinates": {"latitude": 33.1598323, "longitude": -117.3478227}, "transactions": ["pickup"], "price": "$$", "location": {"address1": "571 Carlsbad Village Dr", "address2": "", "address3": "", "city": "Carlsbad", "zip_code": "92008", "country": "US", "state": "CA", "display_address": ["571 Carlsbad Village Dr", "Carlsbad, CA 92008"]}, "phone": "+17607207007", "display_phone": "(760) 720-7007", "distance": 16366.671171376896}, {"id": "ZlPtnaZjKKQMXRj8sRaUgw", "alias": "upper-crust-pizza-vista", "name": "Upper Crust Pizza", "image_url": "https://s3-media4.fl.yelpcdn.com/bphoto/coRwGxSetRx2E1Ekbx4UyQ/o.jpg", "is_closed": false, "url": "https://www.yelp.com/biz/upper-crust-pizza-vista?adjust_creative=oncXGL2aPIKrtJdnWeFSnA&utm_campaign=yelp_api_v3&utm_medium=api_v3_business_search&utm_source=oncXGL2aPIKrtJdnWeFSnA", "review_count": 128, "categories": [{"alias": "pizza", "title": "Pizza"}, {"alias": "salad", "title": "Salad"}], "rating": 4.5, "coordinates": {"latitude": 33.218111, "longitude": -117.225894}, "transactions": [], "price": "$", "location": {"address1": "1330 E Vista Way", "address2": "Ste 2", "address3": "", "city": "Vista", "zip_code": "92084", "country": "US", "state": "CA", "display_address": ["1330 E Vista Way", "Ste 2", "Vista, CA 92084"]}, "phone": "+17609410081", "display_phone": "(760) 941-0081", "distance": 9821.144915718698}, {"id": "FgxdTh9KjrbwxMEZu3xDBA", "alias": "nuccis-italian-cafe-and-pizza-vista", "name": "Nucci's Italian Cafe & Pizza", "image_url": "https://s3-media4.fl.yelpcdn.com/bphoto/zgdsxiPYUvMVIOoANHwSZA/o.jpg", "is_closed": false, "url": "https://www.yelp.com/biz/nuccis-italian-cafe-and-pizza-vista?adjust_creative=oncXGL2aPIKrtJdnWeFSnA&utm_campaign=yelp_api_v3&utm_medium=api_v3_business_search&utm_source=oncXGL2aPIKrtJdnWeFSnA", "review_count": 227, "categories": [{"alias": "pizza", "title": "Pizza"}, {"alias": "italian", "title": "Italian"}], "rating": 4.0, "coordinates": {"latitude": 33.16796875, "longitude": -117.247253417969}, "transactions": [], "price": "$$", "location": {"address1": "1580 S Melrose Dr", "address2": "Ste 108", "address3": "", "city": "Vista", "zip_code": "92081", "country": "US", "state": "CA", "display_address": ["1580 S Melrose Dr", "Ste 108", "Vista, CA 92081"]}, "phone": "+17605981005", "display_phone": "(760) 598-1005", "distance": 7496.064243262677}, {"id": "5ZTs1xhGw_BiJiC43MB5rw", "alias": "papa-johns-pizza-san-marcos-3", "name": "Papa John's Pizza", "image_url": "https://s3-media1.fl.yelpcdn.com/bphoto/kYDYeoiJzvQwHCwi_24aRA/o.jpg", "is_closed": false, "url": "https://www.yelp.com/biz/papa-johns-pizza-san-marcos-3?adjust_creative=oncXGL2aPIKrtJdnWeFSnA&utm_campaign=yelp_api_v3&utm_medium=api_v3_business_search&utm_source=oncXGL2aPIKrtJdnWeFSnA", "review_count": 51, "categories": [{"alias": "pizza", "title": "Pizza"}], "rating": 2.0, "coordinates": {"latitude": 33.1443424522877, "longitude": -117.162502035499}, "transactions": ["pickup", "delivery"], "price": "$", "location": {"address1": "407 N Twin Oaks Valley Rd", "address2": "", "address3": "", "city": "San Marcos", "zip_code": "92078", "country": "US", "state": "CA", "display_address": ["407 N Twin Oaks Valley Rd", "San Marcos, CA 92078"]}, "phone": "+17604719700", "display_phone": "(760) 471-9700", "distance": 1122.8856372737898}, {"id": "n3b6lsqXk3TYSXHuWlangQ", "alias": "piacere-mio-del-sur-san-diego-2", "name": "Piacere Mio Del sur", "image_url": "https://s3-media3.fl.yelpcdn.com/bphoto/CO6pJpZLxDE_WEzvQXlOCA/o.jpg", "is_closed": false, "url": "https://www.yelp.com/biz/piacere-mio-del-sur-san-diego-2?adjust_creative=oncXGL2aPIKrtJdnWeFSnA&utm_campaign=yelp_api_v3&utm_medium=api_v3_business_search&utm_source=oncXGL2aPIKrtJdnWeFSnA", "review_count": 306, "categories": [{"alias": "pizza", "title": "Pizza"}, {"alias": "italian", "title": "Italian"}, {"alias": "bars", "title": "Bars"}], "rating": 4.0, "coordinates": {"latitude": 33.0209346352993, "longitude": -117.124258128689}, "transactions": ["restaurant_reservation"], "price": "$$", "location": {"address1": "16490 Paseo Del Sur", "address2": "Ste 135", "address3": "Del Sur Town Center", "city": "San Diego", "zip_code": "92127", "country": "US", "state": "CA", "display_address": ["16490 Paseo Del Sur", "Ste 135", "Del Sur Town Center", "San Diego, CA 92127"]}, "phone": "+18583128390", "display_phone": "(858) 312-8390", "distance": 14167.320823487653}, {"id": "REs-IYie1ERpX21kkYE8Pw", "alias": "cucina-enoteca-del-mar-del-mar-2", "name": "Cucina Enoteca Del Mar", "image_url": "https://s3-media4.fl.yelpcdn.com/bphoto/mO9Bw_jgW16ilsikoiWMCA/o.jpg", "is_closed": false, "url": "https://www.yelp.com/biz/cucina-enoteca-del-mar-del-mar-2?adjust_creative=oncXGL2aPIKrtJdnWeFSnA&utm_campaign=yelp_api_v3&utm_medium=api_v3_business_search&utm_source=oncXGL2aPIKrtJdnWeFSnA", "review_count": 930, "categories": [{"alias": "italian", "title": "Italian"}, {"alias": "wine_bars", "title": "Wine Bars"}, {"alias": "pizza", "title": "Pizza"}], "rating": 4.0, "coordinates": {"latitude": 32.9810134249869, "longitude": -117.248989232541}, "transactions": [], "price": "$$", "location": {"address1": "2730 Via De La Valle", "address2": "", "address3": "", "city": "Del Mar", "zip_code": "92014", "country": "US", "state": "CA", "display_address": ["2730 Via De La Valle", "Del Mar, CA 92014"]}, "phone": "+18587044500", "display_phone": "(858) 704-4500", "distance": 19191.849184124516}, {"id": "ps6v-yvVD-oRaWsd30qKWA", "alias": "california-pizza-kitchen-at-escondido-escondido", "name": "California Pizza Kitchen at Escondido", "image_url": "https://s3-media3.fl.yelpcdn.com/bphoto/FTNRhlc8bfA9uXGaDNDCOg/o.jpg", "is_closed": false, "url": "https://www.yelp.com/biz/california-pizza-kitchen-at-escondido-escondido?adjust_creative=oncXGL2aPIKrtJdnWeFSnA&utm_campaign=yelp_api_v3&utm_medium=api_v3_business_search&utm_source=oncXGL2aPIKrtJdnWeFSnA", "review_count": 105, "categories": [{"alias": "pizza", "title": "Pizza"}, {"alias": "salad", "title": "Salad"}, {"alias": "newamerican", "title": "American (New)"}], "rating": 3.5, "coordinates": {"latitude": 33.070479, "longitude": -117.065955}, "transactions": ["delivery"], "price": "$$", "location": {"address1": "200 E Via Ranch Pkwy", "address2": null, "address3": null, "city": "Escondido", "zip_code": "92025", "country": "US", "state": "CA", "display_address": ["200 E Via Ranch Pkwy", "Escondido, CA 92025"]}, "phone": "+17605949490", "display_phone": "(760) 594-9490", "distance": 12852.930260787496}], "total": 206, "region": {"center": {"longitude": -117.17330932617188, "latitude": 33.141533511091374}}}