{"businesses": [{"id": "McqFazGIikTn0mNVdsYpRg", "alias": "romeo-and-julieta-wine-cafe-san-diego", "name": "Romeo & Julieta Wine Cafe", "image_url": "https://s3-media2.fl.yelpcdn.com/bphoto/zGsovKzf26anzLUHX_6ayA/o.jpg", "is_closed": false, "url": "https://www.yelp.com/biz/romeo-and-julieta-wine-cafe-san-diego?adjust_creative=oncXGL2aPIKrtJdnWeFSnA&utm_campaign=yelp_api_v3&utm_medium=api_v3_business_search&utm_source=oncXGL2aPIKrtJdnWeFSnA", "review_count": 259, "categories": [{"alias": "polish", "title": "Polish"}, {"alias": "wine_bars", "title": "Wine Bars"}, {"alias": "desserts", "title": "Desserts"}], "rating": 4.5, "coordinates": {"latitude": 32.7589865, "longitude": -117.0926632}, "transactions": [], "price": "$$", "location": {"address1": "4715 Monroe Ave", "address2": null, "address3": "", "city": "San Diego", "zip_code": "92115", "country": "US", "state": "CA", "display_address": ["4715 Monroe Ave", "San Diego, CA 92115"]}, "phone": "+16195466919", "display_phone": "(619) 546-6919", "distance": 43197.69964765527}, {"id": "uDLfC-To7L882h98f8Tneg", "alias": "polish-pierogi-company-san-diego-3", "name": "Polish Pierogi Company", "image_url": "https://s3-media3.fl.yelpcdn.com/bphoto/xuWHOMkCkoe09IUg_3YnCg/o.jpg", "is_closed": false, "url": "https://www.yelp.com/biz/polish-pierogi-company-san-diego-3?adjust_creative=oncXGL2aPIKrtJdnWeFSnA&utm_campaign=yelp_api_v3&utm_medium=api_v3_business_search&utm_source=oncXGL2aPIKrtJdnWeFSnA", "review_count": 5, "categories": [{"alias": "polish", "title": "Polish"}, {"alias": "foodstands", "title": "Food Stands"}], "rating": 5.0, "coordinates": {"latitude": 32.6920499, "longitude": -117.1911749}, "transactions": [], "price": "$", "location": {"address1": "3960 Normal St", "address2": "", "address3": "Hillcrest Farmers Market", "city": "San Diego", "zip_code": "92103", "country": "US", "state": "CA", "display_address": ["3960 Normal St", "Hillcrest Farmers Market", "San Diego, CA 92103"]}, "phone": "+16198471029", "display_phone": "(619) 847-1029", "distance": 50008.05483023944}, {"id": "wWjZThhGYSTKWF4mnpgJaw", "alias": "pierogi-truck-san-diego", "name": "Pierogi Truck", "image_url": "https://s3-media4.fl.yelpcdn.com/bphoto/h_KQQdOdTqapiMShxZhdyw/o.jpg", "is_closed": false, "url": "https://www.yelp.com/biz/pierogi-truck-san-diego?adjust_creative=oncXGL2aPIKrtJdnWeFSnA&utm_campaign=yelp_api_v3&utm_medium=api_v3_business_search&utm_source=oncXGL2aPIKrtJdnWeFSnA", "review_count": 103, "categories": [{"alias": "polish", "title": "Polish"}, {"alias": "foodstands", "title": "Food Stands"}, {"alias": "foodtrucks", "title": "Food Trucks"}], "rating": 4.0, "coordinates": {"latitude": 32.8279, "longitude": -117.15688}, "transactions": [], "price": "$", "location": {"address1": "7595 Vickers St", "address2": "", "address3": "", "city": "San Diego", "zip_code": "92111", "country": "US", "state": "CA", "display_address": ["7595 Vickers St", "San Diego, CA 92111"]}, "phone": "+18582053995", "display_phone": "(858) 205-3995", "distance": 34916.08347968824}, {"id": "TvMmbqHodn5LWnBMPRgBcg", "alias": "pierogi-rulez-tustin", "name": "Pierogi Rulez", "image_url": "https://s3-media3.fl.yelpcdn.com/bphoto/oQmZ9IQSCQVu-NdAxppcEQ/o.jpg", "is_closed": false, "url": "https://www.yelp.com/biz/pierogi-rulez-tustin?adjust_creative=oncXGL2aPIKrtJdnWeFSnA&utm_campaign=yelp_api_v3&utm_medium=api_v3_business_search&utm_source=oncXGL2aPIKrtJdnWeFSnA", "review_count": 8, "categories": [{"alias": "polish", "title": "Polish"}], "rating": 5.0, "coordinates": {"latitude": 33.7315, "longitude": -117.79692}, "transactions": [], "location": {"address1": null, "address2": null, "address3": "", "city": "Tustin", "zip_code": "92782", "country": "US", "state": "CA", "display_address": ["Tustin, CA 92782"]}, "phone": "+17147162724", "display_phone": "(714) 716-2724", "distance": 87486.51889165478}, {"id": "4-sSZ1q8KY01ctMlXBZgqw", "alias": "polka-deli-orange", "name": "Polka Deli", "image_url": "https://s3-media2.fl.yelpcdn.com/bphoto/s8Kf7xUKNnw1Or_qLquCOQ/o.jpg", "is_closed": false, "url": "https://www.yelp.com/biz/polka-deli-orange?adjust_creative=oncXGL2aPIKrtJdnWeFSnA&utm_campaign=yelp_api_v3&utm_medium=api_v3_business_search&utm_source=oncXGL2aPIKrtJdnWeFSnA", "review_count": 65, "categories": [{"alias": "delis", "title": "Delis"}, {"alias": "importedfood", "title": "Imported Food"}, {"alias": "polish", "title": "Polish"}], "rating": 4.5, "coordinates": {"latitude": 33.8163257, "longitude": -117.8360249}, "transactions": [], "price": "$$", "location": {"address1": "1710 N Tustin St", "address2": "", "address3": "", "city": "Orange", "zip_code": "92865", "country": "US", "state": "CA", "display_address": ["1710 N Tustin St", "Orange, CA 92865"]}, "phone": "+17149419460", "display_phone": "(714) 941-9460", "distance": 97060.85199365349}], "total": 5, "region": {"center": {"longitude": -117.17330932617188, "latitude": 33.141533511091374}}}