{"businesses": [{"id": "u6DBNDmKxOZxCJpzEOJ3ng", "alias": "muay-thai-kitchen-san-marcos-2", "name": "Muay Thai Kitchen", "image_url": "https://s3-media3.fl.yelpcdn.com/bphoto/1vfQAxXaIxvkm6UQ0XN9yA/o.jpg", "is_closed": false, "url": "https://www.yelp.com/biz/muay-thai-kitchen-san-marcos-2?adjust_creative=oncXGL2aPIKrtJdnWeFSnA&utm_campaign=yelp_api_v3&utm_medium=api_v3_business_search&utm_source=oncXGL2aPIKrtJdnWeFSnA", "review_count": 211, "categories": [{"alias": "thai", "title": "Thai"}], "rating": 4.5, "coordinates": {"latitude": 33.1343694, "longitude": -117.1198109}, "transactions": ["delivery", "pickup"], "price": "$$", "location": {"address1": "740 Nordahl Rd", "address2": "Ste 118", "address3": "", "city": "San Marcos", "zip_code": "92069", "country": "US", "state": "CA", "display_address": ["740 Nordahl Rd", "Ste 118", "San Marcos, CA 92069"]}, "phone": "+17609753232", "display_phone": "(760) 975-3232", "distance": 5102.583686483095}, {"id": "5hUz-PhMBWjmUgUWwQd3Uw", "alias": "darunee-thai-cuisine-san-marcos", "name": "Darunee Thai Cuisine", "image_url": "https://s3-media1.fl.yelpcdn.com/bphoto/nieK4Dxj_DvS0AbQ3RDrYQ/o.jpg", "is_closed": false, "url": "https://www.yelp.com/biz/darunee-thai-cuisine-san-marcos?adjust_creative=oncXGL2aPIKrtJdnWeFSnA&utm_campaign=yelp_api_v3&utm_medium=api_v3_business_search&utm_source=oncXGL2aPIKrtJdnWeFSnA", "review_count": 227, "categories": [{"alias": "thai", "title": "Thai"}, {"alias": "hawaiian", "title": "Hawaiian"}], "rating": 4.5, "coordinates": {"latitude": 33.13407, "longitude": -117.18837}, "transactions": ["delivery", "pickup"], "price": "$", "location": {"address1": "1001 W San Marcos Blvd", "address2": "Ste 130", "address3": "", "city": "San Marcos", "zip_code": "92078", "country": "US", "state": "CA", "display_address": ["1001 W San Marcos Blvd", "Ste 130", "San Marcos, CA 92078"]}, "phone": "+17607520091", "display_phone": "(760) 752-0091", "distance": 1649.5776248053444}, {"id": "MRml91ivF8RPzTtxH3KzFg", "alias": "sue-thai-om-san-marcos", "name": "Sue Thai Om", "image_url": "https://s3-media4.fl.yelpcdn.com/bphoto/Ho-UsPo4lVeJVxL9aO3FlA/o.jpg", "is_closed": false, "url": "https://www.yelp.com/biz/sue-thai-om-san-marcos?adjust_creative=oncXGL2aPIKrtJdnWeFSnA&utm_campaign=yelp_api_v3&utm_medium=api_v3_business_search&utm_source=oncXGL2aPIKrtJdnWeFSnA", "review_count": 172, "categories": [{"alias": "thai", "title": "Thai"}], "rating": 4.5, "coordinates": {"latitude": 33.1506439761654, "longitude": -117.191712968051}, "transactions": ["delivery", "pickup"], "price": "$$", "location": {"address1": "1450 W. Mission Rd", "address2": "", "address3": "", "city": "San Marcos", "zip_code": "92069", "country": "US", "state": "CA", "display_address": ["1450 W. Mission Rd", "San Marcos, CA 92069"]}, "phone": "+17608427779", "display_phone": "(760) 842-7779", "distance": 1990.4721332502916}, {"id": "Bqm-yiCCf6Y8w6wny3RjcA", "alias": "kinaly-thai-restaurant-san-marcos", "name": "Kinaly Thai Restaurant", "image_url": "https://s3-media4.fl.yelpcdn.com/bphoto/ePRHIgmXDJkDIuapUS5pcQ/o.jpg", "is_closed": false, "url": "https://www.yelp.com/biz/kinaly-thai-restaurant-san-marcos?adjust_creative=oncXGL2aPIKrtJdnWeFSnA&utm_campaign=yelp_api_v3&utm_medium=api_v3_business_search&utm_source=oncXGL2aPIKrtJdnWeFSnA", "review_count": 717, "categories": [{"alias": "thai", "title": "Thai"}], "rating": 4.0, "coordinates": {"latitude": 33.1376203909295, "longitude": -117.131729375937}, "transactions": ["delivery", "pickup"], "price": "$", "location": {"address1": "1220 E Mission Rd", "address2": null, "address3": "", "city": "San Marcos", "zip_code": "92069", "country": "US", "state": "CA", "display_address": ["1220 E Mission Rd", "San Marcos, CA 92069"]}, "phone": "+17604809113", "display_phone": "(760) 480-9113", "distance": 3895.801282500567}, {"id": "l948HoFH990GJAGTm0_s-A", "alias": "onnys-thai-restaurant-san-marcos-3", "name": "Onny's Thai Restaurant", "image_url": "https://s3-media3.fl.yelpcdn.com/bphoto/VF3_cTVXjqOwcN211D8Q-Q/o.jpg", "is_closed": false, "url": "https://www.yelp.com/biz/onnys-thai-restaurant-san-marcos-3?adjust_creative=oncXGL2aPIKrtJdnWeFSnA&utm_campaign=yelp_api_v3&utm_medium=api_v3_business_search&utm_source=oncXGL2aPIKrtJdnWeFSnA", "review_count": 387, "categories": [{"alias": "thai", "title": "Thai"}], "rating": 4.0, "coordinates": {"latitude": 33.1311612, "longitude": -117.2090779}, "transactions": ["delivery", "pickup"], "price": "$$", "location": {"address1": "1903 W San Marcos Blvd", "address2": "Ste 100", "address3": "", "city": "San Marcos", "zip_code": "92078", "country": "US", "state": "CA", "display_address": ["1903 W San Marcos Blvd", "Ste 100", "San Marcos, CA 92078"]}, "phone": "+17605003670", "display_phone": "(760) 500-3670", "distance": 3524.5131378067463}, {"id": "-wLwa2CCxNFTJzeqMh7xpg", "alias": "northern-spirits-san-marcos", "name": "Northern Spirits", "image_url": "https://s3-media1.fl.yelpcdn.com/bphoto/WrnSID88jpbmMKMQ8D3Zeg/o.jpg", "is_closed": false, "url": "https://www.yelp.com/biz/northern-spirits-san-marcos?adjust_creative=oncXGL2aPIKrtJdnWeFSnA&utm_campaign=yelp_api_v3&utm_medium=api_v3_business_search&utm_source=oncXGL2aPIKrtJdnWeFSnA", "review_count": 94, "categories": [{"alias": "jazzandblues", "title": "Jazz & Blues"}, {"alias": "asianfusion", "title": "Asian Fusion"}, {"alias": "thai", "title": "Thai"}], "rating": 4.0, "coordinates": {"latitude": 33.136223, "longitude": -117.179535}, "transactions": [], "price": "$$", "location": {"address1": "727 W San Marcos Blvd", "address2": "Ste 117", "address3": "", "city": "San Marcos", "zip_code": "92069", "country": "US", "state": "CA", "display_address": ["727 W San Marcos Blvd", "Ste 117", "San Marcos, CA 92069"]}, "phone": "+17607369996", "display_phone": "(760) 736-9996", "distance": 827.4677195820243}, {"id": "UPjYdYvxRKHs3xyyNftM9w", "alias": "plum-encinitas-encinitas", "name": "Plum Encinitas", "image_url": "https://s3-media1.fl.yelpcdn.com/bphoto/3CnCOITQJEq_2b498-eFHA/o.jpg", "is_closed": false, "url": "https://www.yelp.com/biz/plum-encinitas-encinitas?adjust_creative=oncXGL2aPIKrtJdnWeFSnA&utm_campaign=yelp_api_v3&utm_medium=api_v3_business_search&utm_source=oncXGL2aPIKrtJdnWeFSnA", "review_count": 22, "categories": [{"alias": "thai", "title": "Thai"}], "rating": 5.0, "coordinates": {"latitude": 33.04551, "longitude": -117.29345}, "transactions": ["delivery", "pickup"], "location": {"address1": "527 S Coast Hwy 101", "address2": "", "address3": null, "city": "Encinitas", "zip_code": "92024", "country": "US", "state": "CA", "display_address": ["527 S Coast Hwy 101", "Encinitas, CA 92024"]}, "phone": "+17604871488", "display_phone": "(760) 487-1488", "distance": 15466.519740032058}, {"id": "JUBqRwODujQr1elKhzfhBw", "alias": "king-and-i-of-san-marcos-san-marcos", "name": "King and I of San Marcos", "image_url": "https://s3-media2.fl.yelpcdn.com/bphoto/76FzSG9nQyXo84NHK0Ywtg/o.jpg", "is_closed": false, "url": "https://www.yelp.com/biz/king-and-i-of-san-marcos-san-marcos?adjust_creative=oncXGL2aPIKrtJdnWeFSnA&utm_campaign=yelp_api_v3&utm_medium=api_v3_business_search&utm_source=oncXGL2aPIKrtJdnWeFSnA", "review_count": 203, "categories": [{"alias": "thai", "title": "Thai"}], "rating": 4.0, "coordinates": {"latitude": 33.1345521822605, "longitude": -117.190563161971}, "transactions": ["delivery", "pickup"], "price": "$$", "location": {"address1": "1020 W San Marcos Blvd", "address2": "Ste 164", "address3": "", "city": "San Marcos", "zip_code": "92078", "country": "US", "state": "CA", "display_address": ["1020 W San Marcos Blvd", "Ste 164", "San Marcos, CA 92078"]}, "phone": "+17607441008", "display_phone": "(760) 744-1008", "distance": 1784.2249993788896}, {"id": "6xkg2JPLKIGy0-shpqm5UA", "alias": "nattiya-san-marcos-2", "name": "Nattiya", "image_url": "https://s3-media2.fl.yelpcdn.com/bphoto/VigPgplKoXHBnL0zquurXA/o.jpg", "is_closed": false, "url": "https://www.yelp.com/biz/nattiya-san-marcos-2?adjust_creative=oncXGL2aPIKrtJdnWeFSnA&utm_campaign=yelp_api_v3&utm_medium=api_v3_business_search&utm_source=oncXGL2aPIKrtJdnWeFSnA", "review_count": 388, "categories": [{"alias": "thai", "title": "Thai"}], "rating": 3.5, "coordinates": {"latitude": 33.1362, "longitude": -117.17955}, "transactions": ["delivery", "pickup"], "price": "$$", "location": {"address1": "727 W San Marcos Blvd", "address2": "Ste 115", "address3": "", "city": "San Marcos", "zip_code": "92078", "country": "US", "state": "CA", "display_address": ["727 W San Marcos Blvd", "Ste 115", "San Marcos, CA 92078"]}, "phone": "+17607369999", "display_phone": "(760) 736-9999", "distance": 857.1612523777178}, {"id": "bh_ICcUwp1jHUsVVEiAixg", "alias": "thai-thai-restaurant-vista", "name": "Thai Thai Restaurant", "image_url": "https://s3-media2.fl.yelpcdn.com/bphoto/1_KO8EMWltDj1bVSbkXdVw/o.jpg", "is_closed": false, "url": "https://www.yelp.com/biz/thai-thai-restaurant-vista?adjust_creative=oncXGL2aPIKrtJdnWeFSnA&utm_campaign=yelp_api_v3&utm_medium=api_v3_business_search&utm_source=oncXGL2aPIKrtJdnWeFSnA", "review_count": 307, "categories": [{"alias": "thai", "title": "Thai"}], "rating": 4.5, "coordinates": {"latitude": 33.22523, "longitude": -117.22529}, "transactions": ["pickup"], "price": "$$", "location": {"address1": "1717 E Vista Way", "address2": "", "address3": "", "city": "Vista", "zip_code": "92084", "country": "US", "state": "CA", "display_address": ["1717 E Vista Way", "Vista, CA 92084"]}, "phone": "+17606439333", "display_phone": "(760) 643-9333", "distance": 10499.039688869065}, {"id": "kADAW7ORY2GS_2epKgch_A", "alias": "chan-dara-thai-caf\u00e9-escondido-5", "name": "Chan Dara Thai Caf\u00e9", "image_url": "https://s3-media1.fl.yelpcdn.com/bphoto/xIJk5fd1qHMzdDfsTWkIeQ/o.jpg", "is_closed": false, "url": "https://www.yelp.com/biz/chan-dara-thai-caf%C3%A9-escondido-5?adjust_creative=oncXGL2aPIKrtJdnWeFSnA&utm_campaign=yelp_api_v3&utm_medium=api_v3_business_search&utm_source=oncXGL2aPIKrtJdnWeFSnA", "review_count": 419, "categories": [{"alias": "thai", "title": "Thai"}], "rating": 4.5, "coordinates": {"latitude": 33.1055098107471, "longitude": -117.074427295814}, "transactions": [], "price": "$$", "location": {"address1": "330 W Felicita Ave", "address2": "", "address3": "", "city": "Escondido", "zip_code": "92025", "country": "US", "state": "CA", "display_address": ["330 W Felicita Ave", "Escondido, CA 92025"]}, "phone": "+17603174455", "display_phone": "(760) 317-4455", "distance": 10041.896812126102}, {"id": "UDmWFiNOCOrImHzCVRwmnQ", "alias": "panya-thai-kitchen-escondido", "name": "Panya Thai Kitchen", "image_url": "https://s3-media3.fl.yelpcdn.com/bphoto/iuAR-cT6p4Ux3fhZ47aumA/o.jpg", "is_closed": false, "url": "https://www.yelp.com/biz/panya-thai-kitchen-escondido?adjust_creative=oncXGL2aPIKrtJdnWeFSnA&utm_campaign=yelp_api_v3&utm_medium=api_v3_business_search&utm_source=oncXGL2aPIKrtJdnWeFSnA", "review_count": 461, "categories": [{"alias": "thai", "title": "Thai"}], "rating": 4.0, "coordinates": {"latitude": 33.11639, "longitude": -117.09655}, "transactions": [], "price": "$$", "location": {"address1": "1101 W Valley Pkwy", "address2": "", "address3": "", "city": "Escondido", "zip_code": "92025", "country": "US", "state": "CA", "display_address": ["1101 W Valley Pkwy", "Escondido, CA 92025"]}, "phone": "+17602911293", "display_phone": "(760) 291-1293", "distance": 7684.8662879274825}, {"id": "d_yH5eKEQQTwsfYS9O7V4g", "alias": "thai-one-on-vista", "name": "Thai One On", "image_url": "https://s3-media1.fl.yelpcdn.com/bphoto/dbWdvB6ICG4cDaZ8G7cY0A/o.jpg", "is_closed": false, "url": "https://www.yelp.com/biz/thai-one-on-vista?adjust_creative=oncXGL2aPIKrtJdnWeFSnA&utm_campaign=yelp_api_v3&utm_medium=api_v3_business_search&utm_source=oncXGL2aPIKrtJdnWeFSnA", "review_count": 538, "categories": [{"alias": "thai", "title": "Thai"}, {"alias": "cocktailbars", "title": "Cocktail Bars"}, {"alias": "seafood", "title": "Seafood"}], "rating": 4.0, "coordinates": {"latitude": 33.18853, "longitude": -117.25433}, "transactions": [], "price": "$$", "location": {"address1": "485 S Melrose Dr", "address2": "", "address3": "", "city": "Vista", "zip_code": "92081", "country": "US", "state": "CA", "display_address": ["485 S Melrose Dr", "Vista, CA 92081"]}, "phone": "+17606431688", "display_phone": "(760) 643-1688", "distance": 9181.869012742745}, {"id": "8NUh_LYFzovyPAH28sLncA", "alias": "one2go-thai-kitchen-encinitas-3", "name": "One2Go Thai Kitchen", "image_url": "https://s3-media2.fl.yelpcdn.com/bphoto/3oW-iGyPt8cR5DEI2EtIAg/o.jpg", "is_closed": false, "url": "https://www.yelp.com/biz/one2go-thai-kitchen-encinitas-3?adjust_creative=oncXGL2aPIKrtJdnWeFSnA&utm_campaign=yelp_api_v3&utm_medium=api_v3_business_search&utm_source=oncXGL2aPIKrtJdnWeFSnA", "review_count": 121, "categories": [{"alias": "thai", "title": "Thai"}, {"alias": "bubbletea", "title": "Bubble Tea"}], "rating": 4.0, "coordinates": {"latitude": 33.04923, "longitude": -117.25926}, "transactions": ["delivery", "pickup"], "price": "$$", "location": {"address1": "191 N El Camino Real", "address2": "Ste 110", "address3": "", "city": "Encinitas", "zip_code": "92024", "country": "US", "state": "CA", "display_address": ["191 N El Camino Real", "Ste 110", "Encinitas, CA 92024"]}, "phone": "+17603345555", "display_phone": "(760) 334-5555", "distance": 13028.697809331486}, {"id": "9VFiQbyOqXL1ZQkomsf7ng", "alias": "pad-thai-restaurant-escondido", "name": "Pad Thai Restaurant", "image_url": "https://s3-media2.fl.yelpcdn.com/bphoto/pVco-azi1JKqQ_NmV-4AXg/o.jpg", "is_closed": false, "url": "https://www.yelp.com/biz/pad-thai-restaurant-escondido?adjust_creative=oncXGL2aPIKrtJdnWeFSnA&utm_campaign=yelp_api_v3&utm_medium=api_v3_business_search&utm_source=oncXGL2aPIKrtJdnWeFSnA", "review_count": 274, "categories": [{"alias": "thai", "title": "Thai"}], "rating": 4.0, "coordinates": {"latitude": 33.1292473856867, "longitude": -117.087437154596}, "transactions": ["delivery"], "price": "$$", "location": {"address1": "205 W Mission Ave", "address2": "", "address3": "", "city": "Escondido", "zip_code": "92025", "country": "US", "state": "CA", "display_address": ["205 W Mission Ave", "Escondido, CA 92025"]}, "phone": "+17604898371", "display_phone": "(760) 489-8371", "distance": 8111.63797441264}, {"id": "qRAixOqhly3x5mezJ1YGsA", "alias": "bkk-thai-kitchen-carlsbad", "name": "BKK Thai Kitchen", "image_url": "https://s3-media3.fl.yelpcdn.com/bphoto/-Y_lqAZpDLSE0sM4VpZC0w/o.jpg", "is_closed": false, "url": "https://www.yelp.com/biz/bkk-thai-kitchen-carlsbad?adjust_creative=oncXGL2aPIKrtJdnWeFSnA&utm_campaign=yelp_api_v3&utm_medium=api_v3_business_search&utm_source=oncXGL2aPIKrtJdnWeFSnA", "review_count": 368, "categories": [{"alias": "thai", "title": "Thai"}], "rating": 4.0, "coordinates": {"latitude": 33.178076366557, "longitude": -117.339937873185}, "transactions": [], "price": "$$", "location": {"address1": "1818 Marron Rd", "address2": "Ste 104", "address3": "", "city": "Carlsbad", "zip_code": "92008", "country": "US", "state": "CA", "display_address": ["1818 Marron Rd", "Ste 104", "Carlsbad, CA 92008"]}, "phone": "+17606223559", "display_phone": "(760) 622-3559", "distance": 16034.28085818442}, {"id": "SDv30y573hEIby0MojH7cg", "alias": "birdseye-kitchen-encinitas", "name": "Birdseye Kitchen", "image_url": "https://s3-media1.fl.yelpcdn.com/bphoto/cVy-x0Z7y7izRk3FJFFxLw/o.jpg", "is_closed": false, "url": "https://www.yelp.com/biz/birdseye-kitchen-encinitas?adjust_creative=oncXGL2aPIKrtJdnWeFSnA&utm_campaign=yelp_api_v3&utm_medium=api_v3_business_search&utm_source=oncXGL2aPIKrtJdnWeFSnA", "review_count": 344, "categories": [{"alias": "vietnamese", "title": "Vietnamese"}, {"alias": "thai", "title": "Thai"}, {"alias": "asianfusion", "title": "Asian Fusion"}], "rating": 4.0, "coordinates": {"latitude": 33.0591018255092, "longitude": -117.300049330005}, "transactions": [], "price": "$$", "location": {"address1": "540 N Coast Hwy 101", "address2": "", "address3": "", "city": "Encinitas", "zip_code": "92024", "country": "US", "state": "CA", "display_address": ["540 N Coast Hwy 101", "Encinitas, CA 92024"]}, "phone": "+17604790488", "display_phone": "(760) 479-0488", "distance": 14946.289767370854}, {"id": "RF8IO54q3HrCVijLOnkiCw", "alias": "savory-thai-oceanside", "name": "Savory Thai", "image_url": "https://s3-media4.fl.yelpcdn.com/bphoto/VBb8L7AMfRpPgtxJCeTugA/o.jpg", "is_closed": false, "url": "https://www.yelp.com/biz/savory-thai-oceanside?adjust_creative=oncXGL2aPIKrtJdnWeFSnA&utm_campaign=yelp_api_v3&utm_medium=api_v3_business_search&utm_source=oncXGL2aPIKrtJdnWeFSnA", "review_count": 235, "categories": [{"alias": "thai", "title": "Thai"}], "rating": 4.5, "coordinates": {"latitude": 33.18181, "longitude": -117.29095}, "transactions": [], "price": "$$", "location": {"address1": "3829 Plaza Dr", "address2": "", "address3": "", "city": "Oceanside", "zip_code": "92056", "country": "US", "state": "CA", "display_address": ["3829 Plaza Dr", "Oceanside, CA 92056"]}, "phone": "+17602957955", "display_phone": "(760) 295-7955", "distance": 11807.89638024337}, {"id": "QF9gTUX5Ir09ek2jBWQMTg", "alias": "bangkok-bay-thai-restaurant-solana-beach-2", "name": "Bangkok Bay Thai Restaurant", "image_url": "https://s3-media4.fl.yelpcdn.com/bphoto/LejQHCJfDg8OrbbaEG8k7A/o.jpg", "is_closed": false, "url": "https://www.yelp.com/biz/bangkok-bay-thai-restaurant-solana-beach-2?adjust_creative=oncXGL2aPIKrtJdnWeFSnA&utm_campaign=yelp_api_v3&utm_medium=api_v3_business_search&utm_source=oncXGL2aPIKrtJdnWeFSnA", "review_count": 642, "categories": [{"alias": "thai", "title": "Thai"}], "rating": 4.0, "coordinates": {"latitude": 32.98228, "longitude": -117.27021}, "transactions": [], "price": "$$", "location": {"address1": "731 S Hwy 101", "address2": "", "address3": "", "city": "Solana Beach", "zip_code": "92075", "country": "US", "state": "CA", "display_address": ["731 S Hwy 101", "Solana Beach, CA 92075"]}, "phone": "+18587922427", "display_phone": "(858) 792-2427", "distance": 19882.750655976422}, {"id": "Eu_D_jqFcJ-VJvgdBJe1Bg", "alias": "thai-table-oceanside", "name": "Thai Table", "image_url": "https://s3-media4.fl.yelpcdn.com/bphoto/YhtEYKEdaD_2Fb9zlJdVkg/o.jpg", "is_closed": false, "url": "https://www.yelp.com/biz/thai-table-oceanside?adjust_creative=oncXGL2aPIKrtJdnWeFSnA&utm_campaign=yelp_api_v3&utm_medium=api_v3_business_search&utm_source=oncXGL2aPIKrtJdnWeFSnA", "review_count": 465, "categories": [{"alias": "thai", "title": "Thai"}], "rating": 4.5, "coordinates": {"latitude": 33.194164276123, "longitude": -117.356056213379}, "transactions": [], "price": "$$", "location": {"address1": "1910 Oceanside Blvd", "address2": "Ste C", "address3": "", "city": "Oceanside", "zip_code": "92054", "country": "US", "state": "CA", "display_address": ["1910 Oceanside Blvd", "Ste C", "Oceanside, CA 92054"]}, "phone": "+17607214850", "display_phone": "(760) 721-4850", "distance": 17995.556238136254}, {"id": "K_ZJlYNkzUhzGh0cd60XHw", "alias": "thai-garden-oceanside", "name": "Thai Garden", "image_url": "https://s3-media1.fl.yelpcdn.com/bphoto/S-cBWnHAaAEq35oI8JJ6bA/o.jpg", "is_closed": false, "url": "https://www.yelp.com/biz/thai-garden-oceanside?adjust_creative=oncXGL2aPIKrtJdnWeFSnA&utm_campaign=yelp_api_v3&utm_medium=api_v3_business_search&utm_source=oncXGL2aPIKrtJdnWeFSnA", "review_count": 269, "categories": [{"alias": "thai", "title": "Thai"}], "rating": 4.0, "coordinates": {"latitude": 33.2167206, "longitude": -117.2717285}, "transactions": [], "price": "$$", "location": {"address1": "4750 Oceanside Blvd", "address2": "", "address3": "", "city": "Oceanside", "zip_code": "92056", "country": "US", "state": "CA", "display_address": ["4750 Oceanside Blvd", "Oceanside, CA 92056"]}, "phone": "+17609401009", "display_phone": "(760) 940-1009", "distance": 12396.012725002749}, {"id": "Jp6zElGdDUxWP9Wul634tg", "alias": "sabai-sabai-thai-kitchen-oceanside", "name": "Sabai Sabai Thai Kitchen", "image_url": "https://s3-media2.fl.yelpcdn.com/bphoto/nYcqM9KgN6SOVv2usjDuKQ/o.jpg", "is_closed": false, "url": "https://www.yelp.com/biz/sabai-sabai-thai-kitchen-oceanside?adjust_creative=oncXGL2aPIKrtJdnWeFSnA&utm_campaign=yelp_api_v3&utm_medium=api_v3_business_search&utm_source=oncXGL2aPIKrtJdnWeFSnA", "review_count": 208, "categories": [{"alias": "thai", "title": "Thai"}], "rating": 4.5, "coordinates": {"latitude": 33.19414, "longitude": -117.35677}, "transactions": [], "price": "$$", "location": {"address1": "1906 Oceanside Blvd", "address2": "Ste J", "address3": "", "city": "Oceanside", "zip_code": "92054", "country": "US", "state": "CA", "display_address": ["1906 Oceanside Blvd", "Ste J", "Oceanside, CA 92054"]}, "phone": "+17605295597", "display_phone": "(760) 529-5597", "distance": 18012.711503938972}, {"id": "4JPIyC7pPQm2JaxvJhuv8w", "alias": "ocean-thai-cuisine-oceanside", "name": "Ocean Thai Cuisine", "image_url": "https://s3-media4.fl.yelpcdn.com/bphoto/Vq7RbP4RU0DnCHr2jLCk7w/o.jpg", "is_closed": false, "url": "https://www.yelp.com/biz/ocean-thai-cuisine-oceanside?adjust_creative=oncXGL2aPIKrtJdnWeFSnA&utm_campaign=yelp_api_v3&utm_medium=api_v3_business_search&utm_source=oncXGL2aPIKrtJdnWeFSnA", "review_count": 407, "categories": [{"alias": "thai", "title": "Thai"}], "rating": 4.0, "coordinates": {"latitude": 33.1826324462891, "longitude": -117.333488464355}, "transactions": [], "price": "$$", "location": {"address1": "2455 Vista Way", "address2": null, "address3": "", "city": "Oceanside", "zip_code": "92054", "country": "US", "state": "CA", "display_address": ["2455 Vista Way", "Oceanside, CA 92054"]}, "phone": "+17607229779", "display_phone": "(760) 722-9779", "distance": 15596.865225676722}, {"id": "Su8JwZpcAlf3dzvSrzSP9w", "alias": "pattaya-thai-restaurant-san-diego", "name": "Pattaya Thai Restaurant", "image_url": "https://s3-media2.fl.yelpcdn.com/bphoto/JPczhUQ_oFLc2-DwGfdYJw/o.jpg", "is_closed": false, "url": "https://www.yelp.com/biz/pattaya-thai-restaurant-san-diego?adjust_creative=oncXGL2aPIKrtJdnWeFSnA&utm_campaign=yelp_api_v3&utm_medium=api_v3_business_search&utm_source=oncXGL2aPIKrtJdnWeFSnA", "review_count": 494, "categories": [{"alias": "thai", "title": "Thai"}, {"alias": "vegetarian", "title": "Vegetarian"}], "rating": 4.0, "coordinates": {"latitude": 32.9928, "longitude": -117.06995}, "transactions": ["pickup"], "price": "$$", "location": {"address1": "12125 Alta Carmel Ct", "address2": "Ste 370", "address3": "", "city": "San Diego", "zip_code": "92128", "country": "US", "state": "CA", "display_address": ["12125 Alta Carmel Ct", "Ste 370", "San Diego, CA 92128"]}, "phone": "+18582176700", "display_phone": "(858) 217-6700", "distance": 19146.10468809822}, {"id": "zDztyj94M0yjpb3SEBw0eA", "alias": "similan-thai-restaurant-solana-beach", "name": "Similan Thai Restaurant", "image_url": "https://s3-media2.fl.yelpcdn.com/bphoto/AM9z-b7yXv4IwMpFm3_PEQ/o.jpg", "is_closed": false, "url": "https://www.yelp.com/biz/similan-thai-restaurant-solana-beach?adjust_creative=oncXGL2aPIKrtJdnWeFSnA&utm_campaign=yelp_api_v3&utm_medium=api_v3_business_search&utm_source=oncXGL2aPIKrtJdnWeFSnA", "review_count": 210, "categories": [{"alias": "thai", "title": "Thai"}], "rating": 4.0, "coordinates": {"latitude": 32.9918860079355, "longitude": -117.269630695671}, "transactions": ["pickup"], "price": "$$", "location": {"address1": "141 Lomas Santa Fe Dr", "address2": "", "address3": "", "city": "Solana Beach", "zip_code": "92075", "country": "US", "state": "CA", "display_address": ["141 Lomas Santa Fe Dr", "Solana Beach, CA 92075"]}, "phone": "+18587920950", "display_phone": "(858) 792-0950", "distance": 18906.454702374987}, {"id": "m6VSZMXGQA9LLaDs3VG_0w", "alias": "charm-thai-kitchen-san-diego", "name": "Charm Thai Kitchen", "image_url": "https://s3-media3.fl.yelpcdn.com/bphoto/0MdRegd6OXVL3tRigypDhg/o.jpg", "is_closed": false, "url": "https://www.yelp.com/biz/charm-thai-kitchen-san-diego?adjust_creative=oncXGL2aPIKrtJdnWeFSnA&utm_campaign=yelp_api_v3&utm_medium=api_v3_business_search&utm_source=oncXGL2aPIKrtJdnWeFSnA", "review_count": 378, "categories": [{"alias": "thai", "title": "Thai"}], "rating": 4.0, "coordinates": {"latitude": 33.0329307678696, "longitude": -117.080294856622}, "transactions": ["delivery", "pickup"], "price": "$$", "location": {"address1": "11627 Duenda Rd", "address2": "", "address3": "", "city": "San Diego", "zip_code": "92127", "country": "US", "state": "CA", "display_address": ["11627 Duenda Rd", "San Diego, CA 92127"]}, "phone": "+18587985126", "display_phone": "(858) 798-5126", "distance": 14863.478701957198}, {"id": "CDwXGkxQAnnn0zIbVTGiHg", "alias": "thai-society-encinitas", "name": "Thai Society", "image_url": "https://s3-media1.fl.yelpcdn.com/bphoto/D7JIzavcxmpHuDZWa0ePEQ/o.jpg", "is_closed": false, "url": "https://www.yelp.com/biz/thai-society-encinitas?adjust_creative=oncXGL2aPIKrtJdnWeFSnA&utm_campaign=yelp_api_v3&utm_medium=api_v3_business_search&utm_source=oncXGL2aPIKrtJdnWeFSnA", "review_count": 309, "categories": [{"alias": "thai", "title": "Thai"}, {"alias": "salad", "title": "Salad"}, {"alias": "soup", "title": "Soup"}], "rating": 3.5, "coordinates": {"latitude": 33.0669937133789, "longitude": -117.263328552246}, "transactions": [], "price": "$$", "location": {"address1": "1070 N El Camino Real", "address2": "Ste B", "address3": "", "city": "Encinitas", "zip_code": "92024", "country": "US", "state": "CA", "display_address": ["1070 N El Camino Real", "Ste B", "Encinitas, CA 92024"]}, "phone": "+17606328770", "display_phone": "(760) 632-8770", "distance": 11772.77936765306}, {"id": "mbpH2qqhsc0V37UkY4Hp-g", "alias": "cafe-de-thai-and-sushi-oceanside", "name": "Cafe de Thai & Sushi", "image_url": "https://s3-media1.fl.yelpcdn.com/bphoto/SF215PklAeMmMbdCKXe2Yw/o.jpg", "is_closed": false, "url": "https://www.yelp.com/biz/cafe-de-thai-and-sushi-oceanside?adjust_creative=oncXGL2aPIKrtJdnWeFSnA&utm_campaign=yelp_api_v3&utm_medium=api_v3_business_search&utm_source=oncXGL2aPIKrtJdnWeFSnA", "review_count": 421, "categories": [{"alias": "thai", "title": "Thai"}, {"alias": "sushi", "title": "Sushi Bars"}, {"alias": "japanese", "title": "Japanese"}], "rating": 4.0, "coordinates": {"latitude": 33.207398, "longitude": -117.2852966}, "transactions": [], "price": "$$", "location": {"address1": "4196 Oceanside Blvd", "address2": "", "address3": "", "city": "Oceanside", "zip_code": "92056", "country": "US", "state": "CA", "display_address": ["4196 Oceanside Blvd", "Oceanside, CA 92056"]}, "phone": "+17609455533", "display_phone": "(760) 945-5533", "distance": 12833.484329226985}, {"id": "Kr8bESowm6mWJMFLsQ4M9w", "alias": "lotus-thai-bistro-restaurant-carlsbad", "name": "Lotus Thai Bistro Restaurant", "image_url": "https://s3-media3.fl.yelpcdn.com/bphoto/fcUSzfOuA8mqa8HwZeWW7Q/o.jpg", "is_closed": false, "url": "https://www.yelp.com/biz/lotus-thai-bistro-restaurant-carlsbad?adjust_creative=oncXGL2aPIKrtJdnWeFSnA&utm_campaign=yelp_api_v3&utm_medium=api_v3_business_search&utm_source=oncXGL2aPIKrtJdnWeFSnA", "review_count": 343, "categories": [{"alias": "thai", "title": "Thai"}, {"alias": "vegetarian", "title": "Vegetarian"}, {"alias": "gourmet", "title": "Specialty Food"}], "rating": 3.5, "coordinates": {"latitude": 33.16313, "longitude": -117.34067}, "transactions": [], "price": "$$", "location": {"address1": "3050 Pio Pico Dr", "address2": "", "address3": "", "city": "Carlsbad", "zip_code": "92008", "country": "US", "state": "CA", "display_address": ["3050 Pio Pico Dr", "Carlsbad, CA 92008"]}, "phone": "+17607303345", "display_phone": "(760) 730-3345", "distance": 15777.646910073607}, {"id": "DIgH_-65DnEwNlOPmZOkUA", "alias": "gor-gai-thai-eatery-san-diego", "name": "Gor Gai Thai Eatery", "image_url": "https://s3-media2.fl.yelpcdn.com/bphoto/_9wh6WHoYZtmMnE1zCDqCA/o.jpg", "is_closed": false, "url": "https://www.yelp.com/biz/gor-gai-thai-eatery-san-diego?adjust_creative=oncXGL2aPIKrtJdnWeFSnA&utm_campaign=yelp_api_v3&utm_medium=api_v3_business_search&utm_source=oncXGL2aPIKrtJdnWeFSnA", "review_count": 133, "categories": [{"alias": "thai", "title": "Thai"}], "rating": 4.0, "coordinates": {"latitude": 33.0209805, "longitude": -117.1239263}, "transactions": ["delivery", "pickup"], "price": "$$", "location": {"address1": "16490 Paseo Del Sur", "address2": "Ste 125", "address3": null, "city": "San Diego", "zip_code": "92127", "country": "US", "state": "CA", "display_address": ["16490 Paseo Del Sur", "Ste 125", "San Diego, CA 92127"]}, "phone": "+18587989462", "display_phone": "(858) 798-9462", "distance": 14141.049282798218}, {"id": "U4CU9PtDbCm8wil95P8ROA", "alias": "thai-pasta-carlsbad", "name": "Thai Pasta", "image_url": "https://s3-media4.fl.yelpcdn.com/bphoto/HRQ8MDWYMikc0rPqPWk91A/o.jpg", "is_closed": false, "url": "https://www.yelp.com/biz/thai-pasta-carlsbad?adjust_creative=oncXGL2aPIKrtJdnWeFSnA&utm_campaign=yelp_api_v3&utm_medium=api_v3_business_search&utm_source=oncXGL2aPIKrtJdnWeFSnA", "review_count": 177, "categories": [{"alias": "thai", "title": "Thai"}, {"alias": "wine_bars", "title": "Wine Bars"}], "rating": 2.5, "coordinates": {"latitude": 33.0863848, "longitude": -117.2685509}, "transactions": ["delivery", "pickup"], "price": "$", "location": {"address1": "7680 El Camino Real", "address2": "", "address3": "", "city": "Carlsbad", "zip_code": "92009", "country": "US", "state": "CA", "display_address": ["7680 El Camino Real", "Carlsbad, CA 92009"]}, "phone": "+17606341196", "display_phone": "(760) 634-1196", "distance": 10788.0710850296}, {"id": "ITeHTHYUU8qOVm914dn5nw", "alias": "wow-cafe-san-marcos", "name": "Wow Cafe", "image_url": "", "is_closed": false, "url": "https://www.yelp.com/biz/wow-cafe-san-marcos?adjust_creative=oncXGL2aPIKrtJdnWeFSnA&utm_campaign=yelp_api_v3&utm_medium=api_v3_business_search&utm_source=oncXGL2aPIKrtJdnWeFSnA", "review_count": 6, "categories": [{"alias": "tradamerican", "title": "American (Traditional)"}, {"alias": "thai", "title": "Thai"}, {"alias": "wineries", "title": "Wineries"}], "rating": 1.5, "coordinates": {"latitude": 33.1274719, "longitude": -117.1650543}, "transactions": [], "location": {"address1": "California State University- San Marcos", "address2": "", "address3": "333 S Twin Oaks Valley", "city": "San Marcos", "zip_code": "92078", "country": "US", "state": "CA", "display_address": ["California State University- San Marcos", "333 S Twin Oaks Valley", "San Marcos, CA 92078"]}, "phone": "+17607504764", "display_phone": "(760) 750-4764", "distance": 1917.5990846936584}, {"id": "hjHGY1WtFPGVpzykxhTcUA", "alias": "thai-pan-encinitas", "name": "Thai Pan", "image_url": "https://s3-media4.fl.yelpcdn.com/bphoto/sSyd30lhjkHr-xK2hlMqgA/o.jpg", "is_closed": false, "url": "https://www.yelp.com/biz/thai-pan-encinitas?adjust_creative=oncXGL2aPIKrtJdnWeFSnA&utm_campaign=yelp_api_v3&utm_medium=api_v3_business_search&utm_source=oncXGL2aPIKrtJdnWeFSnA", "review_count": 12, "categories": [{"alias": "thai", "title": "Thai"}], "rating": 3.5, "coordinates": {"latitude": 33.047828213769, "longitude": -117.260795945448}, "transactions": [], "price": "$", "location": {"address1": "El Camino Real", "address2": "", "address3": "", "city": "Encinitas", "zip_code": "92024", "country": "US", "state": "CA", "display_address": ["El Camino Real", "Encinitas, CA 92024"]}, "phone": "", "display_phone": "", "distance": 13228.272143558548}, {"id": "bdm-NKsEI-ilzFe6zj205A", "alias": "ocean-thai-cuisine-oceanside-2", "name": "Ocean Thai Cuisine", "image_url": "https://s3-media2.fl.yelpcdn.com/bphoto/yM0tJNrn0DqIrULIVfdiwg/o.jpg", "is_closed": false, "url": "https://www.yelp.com/biz/ocean-thai-cuisine-oceanside-2?adjust_creative=oncXGL2aPIKrtJdnWeFSnA&utm_campaign=yelp_api_v3&utm_medium=api_v3_business_search&utm_source=oncXGL2aPIKrtJdnWeFSnA", "review_count": 243, "categories": [{"alias": "thai", "title": "Thai"}], "rating": 4.0, "coordinates": {"latitude": 33.227245, "longitude": -117.330673}, "transactions": [], "price": "$$", "location": {"address1": "3846 Mission Ave", "address2": "Ste A3", "address3": "", "city": "Oceanside", "zip_code": "92054", "country": "US", "state": "CA", "display_address": ["3846 Mission Ave", "Ste A3", "Oceanside, CA 92054"]}, "phone": "+17609679901", "display_phone": "(760) 967-9901", "distance": 17473.125591096537}, {"id": "y5cp6Qa9dMF4hxUHL_rxJQ", "alias": "pailin-thai-cafe-san-diego", "name": "Pailin Thai Cafe", "image_url": "https://s3-media2.fl.yelpcdn.com/bphoto/jF4delOlxE3jcOC7X37Lbg/o.jpg", "is_closed": false, "url": "https://www.yelp.com/biz/pailin-thai-cafe-san-diego?adjust_creative=oncXGL2aPIKrtJdnWeFSnA&utm_campaign=yelp_api_v3&utm_medium=api_v3_business_search&utm_source=oncXGL2aPIKrtJdnWeFSnA", "review_count": 168, "categories": [{"alias": "thai", "title": "Thai"}, {"alias": "noodles", "title": "Noodles"}, {"alias": "soup", "title": "Soup"}], "rating": 4.0, "coordinates": {"latitude": 33.012244, "longitude": -117.07827317214}, "transactions": ["pickup"], "price": "$$", "location": {"address1": "16441 Bernardo Center Dr", "address2": "", "address3": "", "city": "San Diego", "zip_code": "92128", "country": "US", "state": "CA", "display_address": ["16441 Bernardo Center Dr", "San Diego, CA 92128"]}, "phone": "+18586744665", "display_phone": "(858) 674-4665", "distance": 16884.565153381394}, {"id": "TdGtWLjZ-y760XOnBLic5w", "alias": "thai-pan-cuisine-encinitas", "name": "Thai Pan Cuisine", "image_url": "https://s3-media2.fl.yelpcdn.com/bphoto/PN_uhSdo62TMjiHpM1vy-g/o.jpg", "is_closed": false, "url": "https://www.yelp.com/biz/thai-pan-cuisine-encinitas?adjust_creative=oncXGL2aPIKrtJdnWeFSnA&utm_campaign=yelp_api_v3&utm_medium=api_v3_business_search&utm_source=oncXGL2aPIKrtJdnWeFSnA", "review_count": 315, "categories": [{"alias": "thai", "title": "Thai"}], "rating": 3.5, "coordinates": {"latitude": 33.047660832662, "longitude": -117.26129311919}, "transactions": [], "price": "$$", "location": {"address1": "138 N El Camino Real", "address2": "", "address3": "", "city": "Encinitas", "zip_code": "92024", "country": "US", "state": "CA", "display_address": ["138 N El Camino Real", "Encinitas, CA 92024"]}, "phone": "+17606328800", "display_phone": "(760) 632-8800", "distance": 13271.494729194412}, {"id": "_e5QrU1FLFfzm_kveItIeQ", "alias": "thai-go-escondido", "name": "Thai Go!", "image_url": "https://s3-media2.fl.yelpcdn.com/bphoto/fKHq8g0kjF-rEaNpMD71KQ/o.jpg", "is_closed": false, "url": "https://www.yelp.com/biz/thai-go-escondido?adjust_creative=oncXGL2aPIKrtJdnWeFSnA&utm_campaign=yelp_api_v3&utm_medium=api_v3_business_search&utm_source=oncXGL2aPIKrtJdnWeFSnA", "review_count": 16, "categories": [{"alias": "thai", "title": "Thai"}], "rating": 2.0, "coordinates": {"latitude": 33.0705807005335, "longitude": -117.065241439396}, "transactions": [], "price": "$", "location": {"address1": "272 E Via Rancho Pkwy", "address2": "", "address3": "Westfield North County Mall", "city": "Escondido", "zip_code": "92025", "country": "US", "state": "CA", "display_address": ["272 E Via Rancho Pkwy", "Westfield North County Mall", "Escondido, CA 92025"]}, "phone": "", "display_phone": "", "distance": 12789.306285495637}, {"id": "khWebNi2NQ-G1s0-ytSwYw", "alias": "taste-of-thai-del-mar", "name": "Taste of Thai", "image_url": "https://s3-media4.fl.yelpcdn.com/bphoto/ivDJhvQIETZvLxZ8m7zSmw/o.jpg", "is_closed": false, "url": "https://www.yelp.com/biz/taste-of-thai-del-mar?adjust_creative=oncXGL2aPIKrtJdnWeFSnA&utm_campaign=yelp_api_v3&utm_medium=api_v3_business_search&utm_source=oncXGL2aPIKrtJdnWeFSnA", "review_count": 456, "categories": [{"alias": "thai", "title": "Thai"}], "rating": 3.5, "coordinates": {"latitude": 32.9818012918228, "longitude": -117.248530034417}, "transactions": ["delivery", "pickup"], "price": "$$", "location": {"address1": "15770 San Andres Dr", "address2": "", "address3": "", "city": "Del Mar", "zip_code": "92014", "country": "US", "state": "CA", "display_address": ["15770 San Andres Dr", "Del Mar, CA 92014"]}, "phone": "+18587939695", "display_phone": "(858) 793-9695", "distance": 19094.63658691078}, {"id": "TRY_8qoWXKUpuyZfIleaUw", "alias": "mae-ploy-thai-cuisine-san-diego-4", "name": "Mae Ploy Thai Cuisine", "image_url": "https://s3-media1.fl.yelpcdn.com/bphoto/tXQlUq1oYJYlgDK_pLF-IA/o.jpg", "is_closed": false, "url": "https://www.yelp.com/biz/mae-ploy-thai-cuisine-san-diego-4?adjust_creative=oncXGL2aPIKrtJdnWeFSnA&utm_campaign=yelp_api_v3&utm_medium=api_v3_business_search&utm_source=oncXGL2aPIKrtJdnWeFSnA", "review_count": 39, "categories": [{"alias": "thai", "title": "Thai"}], "rating": 3.5, "coordinates": {"latitude": 33.0183258, "longitude": -117.0752802}, "transactions": ["delivery", "pickup"], "price": "$$", "location": {"address1": "16769 Bernardo Center Dr", "address2": "Ste K8", "address3": null, "city": "San Diego", "zip_code": "92128", "country": "US", "state": "CA", "display_address": ["16769 Bernardo Center Dr", "Ste K8", "San Diego, CA 92128"]}, "phone": "+18586182428", "display_phone": "(858) 618-2428", "distance": 16615.978982264714}], "total": 39, "region": {"center": {"longitude": -117.17330932617188, "latitude": 33.141533511091374}}}