{"businesses": [{"id": "EOwMRB6nZm5r0wW8cWIFTQ", "alias": "medii-kitchen-anaheim-hills", "name": "Medii Kitchen", "image_url": "https://s3-media1.fl.yelpcdn.com/bphoto/QHFG8yAaepT9j0DqC6EJRg/o.jpg", "is_closed": false, "url": "https://www.yelp.com/biz/medii-kitchen-anaheim-hills?adjust_creative=oncXGL2aPIKrtJdnWeFSnA&utm_campaign=yelp_api_v3&utm_medium=api_v3_business_search&utm_source=oncXGL2aPIKrtJdnWeFSnA", "review_count": 532, "categories": [{"alias": "mediterranean", "title": "Mediterranean"}, {"alias": "mideastern", "title": "Middle Eastern"}, {"alias": "armenian", "title": "Armenian"}], "rating": 4.5, "coordinates": {"latitude": 33.8574274526785, "longitude": -117.769505669881}, "transactions": ["pickup"], "price": "$$", "location": {"address1": "116 S Fairmont Blvd", "address2": "", "address3": "", "city": "Anaheim Hills", "zip_code": "92808", "country": "US", "state": "CA", "display_address": ["116 S Fairmont Blvd", "Anaheim Hills, CA 92808"]}, "phone": "+17149744633", "display_phone": "(714) 974-4633", "distance": 81725.0608149108}, {"id": "c7PEqvKDBcoT2azcNbctFw", "alias": "oc-armenian-center-santa-ana", "name": "OC Armenian Center", "image_url": "", "is_closed": false, "url": "https://www.yelp.com/biz/oc-armenian-center-santa-ana?adjust_creative=oncXGL2aPIKrtJdnWeFSnA&utm_campaign=yelp_api_v3&utm_medium=api_v3_business_search&utm_source=oncXGL2aPIKrtJdnWeFSnA", "review_count": 2, "categories": [{"alias": "armenian", "title": "Armenian"}], "rating": 5.0, "coordinates": {"latitude": 33.73886, "longitude": -117.93802}, "transactions": [], "location": {"address1": "5305 W McFadden Ave", "address2": "", "address3": null, "city": "Santa Ana", "zip_code": "92704", "country": "US", "state": "CA", "display_address": ["5305 W McFadden Ave", "Santa Ana, CA 92704"]}, "phone": "+17148395858", "display_phone": "(714) 839-5858", "distance": 80953.07832920084}, {"id": "mpUUh-dak8d5hvRgjPVkFg", "alias": "zankou-chicken-anaheim", "name": "Zankou Chicken", "image_url": "https://s3-media1.fl.yelpcdn.com/bphoto/cMwRhI90kRg88buNvZOdVA/o.jpg", "is_closed": false, "url": "https://www.yelp.com/biz/zankou-chicken-anaheim?adjust_creative=oncXGL2aPIKrtJdnWeFSnA&utm_campaign=yelp_api_v3&utm_medium=api_v3_business_search&utm_source=oncXGL2aPIKrtJdnWeFSnA", "review_count": 1694, "categories": [{"alias": "mediterranean", "title": "Mediterranean"}, {"alias": "lebanese", "title": "Lebanese"}, {"alias": "armenian", "title": "Armenian"}], "rating": 4.0, "coordinates": {"latitude": 33.8172, "longitude": -117.96904}, "transactions": [], "price": "$", "location": {"address1": "2424 W Ball Rd", "address2": "", "address3": "", "city": "Anaheim", "zip_code": "92804", "country": "US", "state": "CA", "display_address": ["2424 W Ball Rd", "Anaheim, CA 92804"]}, "phone": "+17142292060", "display_phone": "(714) 229-2060", "distance": 89202.4042277581}, {"id": "HqzSKY6L0Ngqju5vNsuKRw", "alias": "mamas-kabab-stanton", "name": "Mama's Kabab", "image_url": "https://s3-media3.fl.yelpcdn.com/bphoto/8dbjP_LRIeauPL_2APEx6A/o.jpg", "is_closed": false, "url": "https://www.yelp.com/biz/mamas-kabab-stanton?adjust_creative=oncXGL2aPIKrtJdnWeFSnA&utm_campaign=yelp_api_v3&utm_medium=api_v3_business_search&utm_source=oncXGL2aPIKrtJdnWeFSnA", "review_count": 487, "categories": [{"alias": "armenian", "title": "Armenian"}, {"alias": "mediterranean", "title": "Mediterranean"}, {"alias": "mideastern", "title": "Middle Eastern"}], "rating": 4.5, "coordinates": {"latitude": 33.802991732955, "longitude": -118.010370433331}, "transactions": ["delivery", "pickup"], "price": "$", "location": {"address1": "7027 Katella Ave", "address2": null, "address3": "", "city": "Stanton", "zip_code": "90680", "country": "US", "state": "CA", "display_address": ["7027 Katella Ave", "Stanton, CA 90680"]}, "phone": "+17142290100", "display_phone": "(714) 229-0100", "distance": 90741.15404114328}], "total": 4, "region": {"center": {"longitude": -117.31819152832031, "latitude": 33.226009439623446}}}