{"businesses": [{"id": "S4VR-89OVC5FEcKh9fu3xg", "alias": "miss-kims-by-that-boy-good-oceanside", "name": "Miss Kim's by That Boy Good", "image_url": "https://s3-media3.fl.yelpcdn.com/bphoto/ehPsdtO0TqF2qW90jeQurw/o.jpg", "is_closed": false, "url": "https://www.yelp.com/biz/miss-kims-by-that-boy-good-oceanside?adjust_creative=oncXGL2aPIKrtJdnWeFSnA&utm_campaign=yelp_api_v3&utm_medium=api_v3_business_search&utm_source=oncXGL2aPIKrtJdnWeFSnA", "review_count": 1731, "categories": [{"alias": "bbq", "title": "Barbeque"}, {"alias": "southern", "title": "Southern"}, {"alias": "soulfood", "title": "Soul Food"}], "rating": 4.5, "coordinates": {"latitude": 33.1960428, "longitude": -117.3800083}, "transactions": [], "price": "$$", "location": {"address1": "207 N Coast Hwy", "address2": "", "address3": "", "city": "Oceanside", "zip_code": "92054", "country": "US", "state": "CA", "display_address": ["207 N Coast Hwy", "Oceanside, CA 92054"]}, "phone": "+17607541275", "display_phone": "(760) 754-1275", "distance": 6646.539969297486}, {"id": "SpW49-IyQImLJB5iTBVV7g", "alias": "maru-restaurant-oceanside", "name": "Maru Restaurant", "image_url": "https://s3-media2.fl.yelpcdn.com/bphoto/m6F0DSKOrZPJyjK1tQ_-BA/o.jpg", "is_closed": false, "url": "https://www.yelp.com/biz/maru-restaurant-oceanside?adjust_creative=oncXGL2aPIKrtJdnWeFSnA&utm_campaign=yelp_api_v3&utm_medium=api_v3_business_search&utm_source=oncXGL2aPIKrtJdnWeFSnA", "review_count": 207, "categories": [{"alias": "japanese", "title": "Japanese"}, {"alias": "korean", "title": "Korean"}, {"alias": "bbq", "title": "Barbeque"}], "rating": 4.0, "coordinates": {"latitude": 33.2250326620505, "longitude": -117.333364449441}, "transactions": ["restaurant_reservation"], "price": "$$", "location": {"address1": "3744 Mission Ave", "address2": "", "address3": null, "city": "Oceanside", "zip_code": "92058", "country": "US", "state": "CA", "display_address": ["3744 Mission Ave", "Oceanside, CA 92058"]}, "phone": "+14426157438", "display_phone": "(442) 615-7438", "distance": 1415.5083566125054}, {"id": "v8YZ85Bx0P_HJXclLeIjgQ", "alias": "felixs-bbq-with-soul-oceanside", "name": "Felix's BBQ With Soul", "image_url": "https://s3-media2.fl.yelpcdn.com/bphoto/5R0e7-wtzb64DcSTfAka8A/o.jpg", "is_closed": false, "url": "https://www.yelp.com/biz/felixs-bbq-with-soul-oceanside?adjust_creative=oncXGL2aPIKrtJdnWeFSnA&utm_campaign=yelp_api_v3&utm_medium=api_v3_business_search&utm_source=oncXGL2aPIKrtJdnWeFSnA", "review_count": 1456, "categories": [{"alias": "southern", "title": "Southern"}, {"alias": "bbq", "title": "Barbeque"}, {"alias": "soulfood", "title": "Soul Food"}], "rating": 4.5, "coordinates": {"latitude": 33.210161, "longitude": -117.311183}, "transactions": [], "price": "$$", "location": {"address1": "3613 Ocean Ranch Blvd", "address2": "", "address3": null, "city": "Oceanside", "zip_code": "92056", "country": "US", "state": "CA", "display_address": ["3613 Ocean Ranch Blvd", "Oceanside, CA 92056"]}, "phone": "+17604397072", "display_phone": "(760) 439-7072", "distance": 1878.998163944712}, {"id": "bo_MkHA5nc6jkBDDQjhVxQ", "alias": "one-love-island-cuisine-oceanside", "name": "One Love Island Cuisine", "image_url": "https://s3-media3.fl.yelpcdn.com/bphoto/iwp1eSLGrQe64ePCF9sGEA/o.jpg", "is_closed": false, "url": "https://www.yelp.com/biz/one-love-island-cuisine-oceanside?adjust_creative=oncXGL2aPIKrtJdnWeFSnA&utm_campaign=yelp_api_v3&utm_medium=api_v3_business_search&utm_source=oncXGL2aPIKrtJdnWeFSnA", "review_count": 311, "categories": [{"alias": "caribbean", "title": "Caribbean"}, {"alias": "bbq", "title": "Barbeque"}, {"alias": "seafood", "title": "Seafood"}], "rating": 4.5, "coordinates": {"latitude": 33.207439, "longitude": -117.2833753}, "transactions": ["pickup"], "price": "$", "location": {"address1": "4225 Oceanside Blvd", "address2": "Ste K", "address3": "", "city": "Oceanside", "zip_code": "92056", "country": "US", "state": "CA", "display_address": ["4225 Oceanside Blvd", "Ste K", "Oceanside, CA 92056"]}, "phone": "+17606854618", "display_phone": "(760) 685-4618", "distance": 3873.750111577762}, {"id": "-P6SNjK8HjMv94JzZCHtAA", "alias": "guahan-grill-oceanside", "name": "Guahan Grill", "image_url": "https://s3-media4.fl.yelpcdn.com/bphoto/g4TGtuPeRHhMOS-_IirE1g/o.jpg", "is_closed": false, "url": "https://www.yelp.com/biz/guahan-grill-oceanside?adjust_creative=oncXGL2aPIKrtJdnWeFSnA&utm_campaign=yelp_api_v3&utm_medium=api_v3_business_search&utm_source=oncXGL2aPIKrtJdnWeFSnA", "review_count": 707, "categories": [{"alias": "bbq", "title": "Barbeque"}, {"alias": "guamanian", "title": "Guamanian"}], "rating": 4.5, "coordinates": {"latitude": 33.2085638, "longitude": -117.2810813}, "transactions": ["delivery", "pickup"], "price": "$$", "location": {"address1": "4259 Oceanside Blvd", "address2": "Ste 104", "address3": "", "city": "Oceanside", "zip_code": "92056", "country": "US", "state": "CA", "display_address": ["4259 Oceanside Blvd", "Ste 104", "Oceanside, CA 92056"]}, "phone": "+17608064826", "display_phone": "(760) 806-4826", "distance": 4023.8461366003785}, {"id": "oTCWNR4gpJ7kkQkffELdog", "alias": "enzos-bbq-and-alehouse-oceanside", "name": "Enzo's BBQ & Alehouse", "image_url": "https://s3-media1.fl.yelpcdn.com/bphoto/6EGkg0HRbvWh_yzl2oDyfw/o.jpg", "is_closed": false, "url": "https://www.yelp.com/biz/enzos-bbq-and-alehouse-oceanside?adjust_creative=oncXGL2aPIKrtJdnWeFSnA&utm_campaign=yelp_api_v3&utm_medium=api_v3_business_search&utm_source=oncXGL2aPIKrtJdnWeFSnA", "review_count": 504, "categories": [{"alias": "bbq", "title": "Barbeque"}, {"alias": "gourmet", "title": "Specialty Food"}], "rating": 4.0, "coordinates": {"latitude": 33.20575, "longitude": -117.28834}, "transactions": [], "price": "$$", "location": {"address1": "4121 Oceanside Blvd", "address2": "", "address3": "", "city": "Oceanside", "zip_code": "92056", "country": "US", "state": "CA", "display_address": ["4121 Oceanside Blvd", "Oceanside, CA 92056"]}, "phone": "+17606439602", "display_phone": "(760) 643-9602", "distance": 3567.7614720321712}, {"id": "zEAiA-azaeJAy2NDWbmuCA", "alias": "that-boy-good-oceanside-3", "name": "That Boy Good", "image_url": "https://s3-media4.fl.yelpcdn.com/bphoto/5FTzrgceBjh5vRo9Vauhmg/o.jpg", "is_closed": false, "url": "https://www.yelp.com/biz/that-boy-good-oceanside-3?adjust_creative=oncXGL2aPIKrtJdnWeFSnA&utm_campaign=yelp_api_v3&utm_medium=api_v3_business_search&utm_source=oncXGL2aPIKrtJdnWeFSnA", "review_count": 70, "categories": [{"alias": "bbq", "title": "Barbeque"}, {"alias": "soulfood", "title": "Soul Food"}, {"alias": "southern", "title": "Southern"}], "rating": 4.0, "coordinates": {"latitude": 33.19979, "longitude": -117.37674}, "transactions": [], "price": "$$", "location": {"address1": "326 N Horne St", "address2": "", "address3": null, "city": "Oceanside", "zip_code": "92054", "country": "US", "state": "CA", "display_address": ["326 N Horne St", "Oceanside, CA 92054"]}, "phone": "+17607541275", "display_phone": "(760) 754-1275", "distance": 6191.43752705301}, {"id": "EOfdLZwH_MRhRHrAA7pA2Q", "alias": "m-bbq-oceanside", "name": "M. BBQ", "image_url": "https://s3-media1.fl.yelpcdn.com/bphoto/8eUi3KhZZw_3ZhCpnUXcmw/o.jpg", "is_closed": false, "url": "https://www.yelp.com/biz/m-bbq-oceanside?adjust_creative=oncXGL2aPIKrtJdnWeFSnA&utm_campaign=yelp_api_v3&utm_medium=api_v3_business_search&utm_source=oncXGL2aPIKrtJdnWeFSnA", "review_count": 55, "categories": [{"alias": "korean", "title": "Korean"}, {"alias": "bbq", "title": "Barbeque"}, {"alias": "buffets", "title": "Buffets"}], "rating": 3.5, "coordinates": {"latitude": 33.18548, "longitude": -117.32733}, "transactions": [], "price": "$$", "location": {"address1": "2216 S El Camino Real", "address2": "108  109", "address3": "", "city": "Oceanside", "zip_code": "92054", "country": "US", "state": "CA", "display_address": ["2216 S El Camino Real", "108  109", "Oceanside, CA 92054"]}, "phone": "+17604331888", "display_phone": "(760) 433-1888", "distance": 4509.169490137718}, {"id": "6utGqV1guoaj3qng-NEg7w", "alias": "oink-and-moo-burgers-and-bbq-fallbrook-2", "name": "Oink and Moo Burgers & BBQ", "image_url": "https://s3-media2.fl.yelpcdn.com/bphoto/pRt4QP-Z3JpOrJ5LKU-iIQ/o.jpg", "is_closed": false, "url": "https://www.yelp.com/biz/oink-and-moo-burgers-and-bbq-fallbrook-2?adjust_creative=oncXGL2aPIKrtJdnWeFSnA&utm_campaign=yelp_api_v3&utm_medium=api_v3_business_search&utm_source=oncXGL2aPIKrtJdnWeFSnA", "review_count": 721, "categories": [{"alias": "burgers", "title": "Burgers"}, {"alias": "bbq", "title": "Barbeque"}, {"alias": "beerbar", "title": "Beer Bar"}], "rating": 4.5, "coordinates": {"latitude": 33.382518, "longitude": -117.252249}, "transactions": [], "price": "$$", "location": {"address1": "121 N Pico Ave", "address2": "", "address3": "", "city": "Fallbrook", "zip_code": "92028", "country": "US", "state": "CA", "display_address": ["121 N Pico Ave", "Fallbrook, CA 92028"]}, "phone": "+17604516005", "display_phone": "(760) 451-6005", "distance": 18450.40427381646}, {"id": "qM5NeJk4A8tSfdosbgUAdQ", "alias": "l-and-l-hawaiian-barbecue-oceanside-2", "name": "L&L Hawaiian Barbecue", "image_url": "https://s3-media2.fl.yelpcdn.com/bphoto/jWipNNKBB4ZCetHL1Qaalw/o.jpg", "is_closed": false, "url": "https://www.yelp.com/biz/l-and-l-hawaiian-barbecue-oceanside-2?adjust_creative=oncXGL2aPIKrtJdnWeFSnA&utm_campaign=yelp_api_v3&utm_medium=api_v3_business_search&utm_source=oncXGL2aPIKrtJdnWeFSnA", "review_count": 131, "categories": [{"alias": "bbq", "title": "Barbeque"}, {"alias": "hawaiian", "title": "Hawaiian"}], "rating": 4.0, "coordinates": {"latitude": 33.2065510147543, "longitude": -117.283936571967}, "transactions": [], "price": "$", "location": {"address1": "4225 Oceanside Blvd", "address2": "Ste E", "address3": null, "city": "Oceanside", "zip_code": "92056", "country": "US", "state": "CA", "display_address": ["4225 Oceanside Blvd", "Ste E", "Oceanside, CA 92056"]}, "phone": "+17607260888", "display_phone": "(760) 726-0888", "distance": 3851.757986750646}, {"id": "XO-6NGi_q8nJCJ5YGNFanQ", "alias": "the-bbq-bus-oceanside", "name": "The BBQ Bus", "image_url": "https://s3-media3.fl.yelpcdn.com/bphoto/IYIKGkUFb3coNn5iqTFgiA/o.jpg", "is_closed": false, "url": "https://www.yelp.com/biz/the-bbq-bus-oceanside?adjust_creative=oncXGL2aPIKrtJdnWeFSnA&utm_campaign=yelp_api_v3&utm_medium=api_v3_business_search&utm_source=oncXGL2aPIKrtJdnWeFSnA", "review_count": 6, "categories": [{"alias": "foodtrucks", "title": "Food Trucks"}, {"alias": "catering", "title": "Caterers"}, {"alias": "bbq", "title": "Barbeque"}], "rating": 5.0, "coordinates": {"latitude": 33.18951, "longitude": -117.37193}, "transactions": [], "location": {"address1": "", "address2": "", "address3": "", "city": "Oceanside", "zip_code": "92054", "country": "US", "state": "CA", "display_address": ["Oceanside, CA 92054"]}, "phone": "+19496424235", "display_phone": "(949) 642-4235", "distance": 5915.220459531363}, {"id": "4OUnF6Oq5hf5Ye4CO94LeA", "alias": "primo-foods-oceanside", "name": "Primo Foods", "image_url": "https://s3-media1.fl.yelpcdn.com/bphoto/ut8ENfr89bZ3I858uQEDsA/o.jpg", "is_closed": false, "url": "https://www.yelp.com/biz/primo-foods-oceanside?adjust_creative=oncXGL2aPIKrtJdnWeFSnA&utm_campaign=yelp_api_v3&utm_medium=api_v3_business_search&utm_source=oncXGL2aPIKrtJdnWeFSnA", "review_count": 246, "categories": [{"alias": "grocery", "title": "Grocery"}, {"alias": "bbq", "title": "Barbeque"}], "rating": 4.0, "coordinates": {"latitude": 33.17918, "longitude": -117.36406}, "transactions": ["delivery", "pickup"], "price": "$", "location": {"address1": "606 Morse St", "address2": "", "address3": "", "city": "Oceanside", "zip_code": "92054", "country": "US", "state": "CA", "display_address": ["606 Morse St", "Oceanside, CA 92054"]}, "phone": "+17604398711", "display_phone": "(760) 439-8711", "distance": 6726.5390330299915}, {"id": "tkQS0Ffox1NKL4p8ISVzPA", "alias": "manna-korean-bbq-san-marcos", "name": "Manna Korean BBQ", "image_url": "https://s3-media3.fl.yelpcdn.com/bphoto/jIY7G0wX-y9MG4NXIiU55g/o.jpg", "is_closed": false, "url": "https://www.yelp.com/biz/manna-korean-bbq-san-marcos?adjust_creative=oncXGL2aPIKrtJdnWeFSnA&utm_campaign=yelp_api_v3&utm_medium=api_v3_business_search&utm_source=oncXGL2aPIKrtJdnWeFSnA", "review_count": 790, "categories": [{"alias": "korean", "title": "Korean"}, {"alias": "bbq", "title": "Barbeque"}], "rating": 4.0, "coordinates": {"latitude": 33.1344023, "longitude": -117.1197782}, "transactions": [], "price": "$$", "location": {"address1": "740 Nordahl Rd", "address2": "", "address3": "", "city": "San Marcos", "zip_code": "92069", "country": "US", "state": "CA", "display_address": ["740 Nordahl Rd", "San Marcos, CA 92069"]}, "phone": "+17607433300", "display_phone": "(760) 743-3300", "distance": 21136.296792760222}, {"id": "crl2aOL0NiFcPT7spXXVrA", "alias": "maui-hawaiian-bbq-oceanside", "name": "Maui Hawaiian BBQ", "image_url": "https://s3-media2.fl.yelpcdn.com/bphoto/SXP21OoXVeEdvMb_IGTsFQ/o.jpg", "is_closed": false, "url": "https://www.yelp.com/biz/maui-hawaiian-bbq-oceanside?adjust_creative=oncXGL2aPIKrtJdnWeFSnA&utm_campaign=yelp_api_v3&utm_medium=api_v3_business_search&utm_source=oncXGL2aPIKrtJdnWeFSnA", "review_count": 181, "categories": [{"alias": "hawaiian", "title": "Hawaiian"}, {"alias": "bbq", "title": "Barbeque"}], "rating": 3.0, "coordinates": {"latitude": 33.1826324462891, "longitude": -117.333488464355}, "transactions": [], "price": "$", "location": {"address1": "2455 Vista Way", "address2": "Ste D", "address3": "", "city": "Oceanside", "zip_code": "92054", "country": "US", "state": "CA", "display_address": ["2455 Vista Way", "Ste D", "Oceanside, CA 92054"]}, "phone": "+17607228383", "display_phone": "(760) 722-8383", "distance": 5022.853046013988}, {"id": "G5PHpm1yNrTvpXv0xcpDQA", "alias": "when-pigs-fly-bbq-vista-3", "name": "When Pigs Fly BBQ", "image_url": "https://s3-media1.fl.yelpcdn.com/bphoto/NTwL6G47bQWJWFPIgQq-Lw/o.jpg", "is_closed": false, "url": "https://www.yelp.com/biz/when-pigs-fly-bbq-vista-3?adjust_creative=oncXGL2aPIKrtJdnWeFSnA&utm_campaign=yelp_api_v3&utm_medium=api_v3_business_search&utm_source=oncXGL2aPIKrtJdnWeFSnA", "review_count": 330, "categories": [{"alias": "bbq", "title": "Barbeque"}, {"alias": "tradamerican", "title": "American (Traditional)"}, {"alias": "comfortfood", "title": "Comfort Food"}], "rating": 4.0, "coordinates": {"latitude": 33.21763, "longitude": -117.225423}, "transactions": [], "price": "$$", "location": {"address1": "1211 E Vista Way", "address2": null, "address3": "", "city": "Vista", "zip_code": "92084", "country": "US", "state": "CA", "display_address": ["1211 E Vista Way", "Vista, CA 92084"]}, "phone": "+17609457828", "display_phone": "(760) 945-7828", "distance": 8679.545116145848}, {"id": "ZVIYF78mykOlT5jDSpPWKA", "alias": "da-big-show-bbq-oceanside", "name": "Da Big Show BBQ", "image_url": "https://s3-media2.fl.yelpcdn.com/bphoto/lsNgp5RcqrnVJS3ysR_tVA/o.jpg", "is_closed": false, "url": "https://www.yelp.com/biz/da-big-show-bbq-oceanside?adjust_creative=oncXGL2aPIKrtJdnWeFSnA&utm_campaign=yelp_api_v3&utm_medium=api_v3_business_search&utm_source=oncXGL2aPIKrtJdnWeFSnA", "review_count": 4, "categories": [{"alias": "bbq", "title": "Barbeque"}, {"alias": "caribbean", "title": "Caribbean"}, {"alias": "foodtrucks", "title": "Food Trucks"}], "rating": 5.0, "coordinates": {"latitude": 33.18951, "longitude": -117.37193}, "transactions": [], "location": {"address1": "", "address2": "", "address3": null, "city": "Oceanside", "zip_code": "92054", "country": "US", "state": "CA", "display_address": ["Oceanside, CA 92054"]}, "phone": "+16198529129", "display_phone": "(619) 852-9129", "distance": 5915.220459531363}, {"id": "E4odb7GTXjC8sEmFu7Jw8w", "alias": "phils-bbq-san-marcos", "name": "Phil's BBQ", "image_url": "https://s3-media1.fl.yelpcdn.com/bphoto/Ybgs15rzYKPwz6nz7Uc8Pg/o.jpg", "is_closed": false, "url": "https://www.yelp.com/biz/phils-bbq-san-marcos?adjust_creative=oncXGL2aPIKrtJdnWeFSnA&utm_campaign=yelp_api_v3&utm_medium=api_v3_business_search&utm_source=oncXGL2aPIKrtJdnWeFSnA", "review_count": 2343, "categories": [{"alias": "bbq", "title": "Barbeque"}, {"alias": "sportsbars", "title": "Sports Bars"}, {"alias": "burgers", "title": "Burgers"}], "rating": 4.0, "coordinates": {"latitude": 33.137024, "longitude": -117.176707}, "transactions": [], "price": "$$", "location": {"address1": "579 Grand Ave", "address2": "", "address3": "", "city": "San Marcos", "zip_code": "92078", "country": "US", "state": "CA", "display_address": ["579 Grand Ave", "San Marcos, CA 92078"]}, "phone": "+17607591400", "display_phone": "(760) 759-1400", "distance": 16470.469248517158}, {"id": "sGMtRclRTJgUzDgjyc8e3A", "alias": "the-rib-shack-fallbrook", "name": "The Rib Shack", "image_url": "https://s3-media1.fl.yelpcdn.com/bphoto/jOCKv5tQHECxrOrLwAVsgg/o.jpg", "is_closed": false, "url": "https://www.yelp.com/biz/the-rib-shack-fallbrook?adjust_creative=oncXGL2aPIKrtJdnWeFSnA&utm_campaign=yelp_api_v3&utm_medium=api_v3_business_search&utm_source=oncXGL2aPIKrtJdnWeFSnA", "review_count": 208, "categories": [{"alias": "bbq", "title": "Barbeque"}, {"alias": "tradamerican", "title": "American (Traditional)"}], "rating": 4.5, "coordinates": {"latitude": 33.3327464, "longitude": -117.1614814}, "transactions": [], "price": "$$", "location": {"address1": "3235 Old Hwy 395", "address2": "", "address3": "", "city": "Fallbrook", "zip_code": "92028", "country": "US", "state": "CA", "display_address": ["3235 Old Hwy 395", "Fallbrook, CA 92028"]}, "phone": "+17607319133", "display_phone": "(760) 731-9133", "distance": 18717.412033138433}, {"id": "Mg-dCDwJ9pqTaGNXb5OhNg", "alias": "park-101-carlsbad", "name": "Park 101", "image_url": "https://s3-media1.fl.yelpcdn.com/bphoto/PUcvZJSEe74i7F8pN17AGw/o.jpg", "is_closed": false, "url": "https://www.yelp.com/biz/park-101-carlsbad?adjust_creative=oncXGL2aPIKrtJdnWeFSnA&utm_campaign=yelp_api_v3&utm_medium=api_v3_business_search&utm_source=oncXGL2aPIKrtJdnWeFSnA", "review_count": 399, "categories": [{"alias": "bars", "title": "Bars"}, {"alias": "bbq", "title": "Barbeque"}, {"alias": "coffee", "title": "Coffee & Tea"}], "rating": 3.5, "coordinates": {"latitude": 33.157541081537, "longitude": -117.350573629938}, "transactions": [], "price": "$$", "location": {"address1": "3040 Carlsbad Blvd", "address2": "", "address3": null, "city": "Carlsbad", "zip_code": "92008", "country": "US", "state": "CA", "display_address": ["3040 Carlsbad Blvd", "Carlsbad, CA 92008"]}, "phone": "+17604342217", "display_phone": "(760) 434-2217", "distance": 8187.937997402856}, {"id": "AVXXhtP1RlSOm6hDd7_5og", "alias": "when-pigs-fly-bbq-vista-8", "name": "When Pigs Fly BBQ", "image_url": "https://s3-media1.fl.yelpcdn.com/bphoto/4_lb67MzQSW8ImruZYrsEQ/o.jpg", "is_closed": false, "url": "https://www.yelp.com/biz/when-pigs-fly-bbq-vista-8?adjust_creative=oncXGL2aPIKrtJdnWeFSnA&utm_campaign=yelp_api_v3&utm_medium=api_v3_business_search&utm_source=oncXGL2aPIKrtJdnWeFSnA", "review_count": 128, "categories": [{"alias": "bbq", "title": "Barbeque"}, {"alias": "desserts", "title": "Desserts"}, {"alias": "sandwiches", "title": "Sandwiches"}], "rating": 4.0, "coordinates": {"latitude": 33.2027859, "longitude": -117.2419369}, "transactions": [], "price": "$$", "location": {"address1": "230 Main St", "address2": "", "address3": null, "city": "Vista", "zip_code": "92084", "country": "US", "state": "CA", "display_address": ["230 Main St", "Vista, CA 92084"]}, "phone": "+17602957993", "display_phone": "(760) 295-7993", "distance": 7549.255863605664}, {"id": "nRKvaT9vmo_XwTRw6QK16Q", "alias": "surf-brothers-teriyaki-carlsbad", "name": "Surf Brothers Teriyaki", "image_url": "https://s3-media4.fl.yelpcdn.com/bphoto/Qw6in2aB9moeBBHhMa4LYQ/o.jpg", "is_closed": false, "url": "https://www.yelp.com/biz/surf-brothers-teriyaki-carlsbad?adjust_creative=oncXGL2aPIKrtJdnWeFSnA&utm_campaign=yelp_api_v3&utm_medium=api_v3_business_search&utm_source=oncXGL2aPIKrtJdnWeFSnA", "review_count": 251, "categories": [{"alias": "hawaiian", "title": "Hawaiian"}, {"alias": "bbq", "title": "Barbeque"}, {"alias": "hotdogs", "title": "Fast Food"}], "rating": 4.0, "coordinates": {"latitude": 33.13106, "longitude": -117.260566}, "transactions": [], "price": "$", "location": {"address1": "2708 Loker Ave W", "address2": "Ste 103", "address3": "", "city": "Carlsbad", "zip_code": "92010", "country": "US", "state": "CA", "display_address": ["2708 Loker Ave W", "Ste 103", "Carlsbad, CA 92010"]}, "phone": "+17604597973", "display_phone": "(760) 459-7973", "distance": 11841.909945375348}, {"id": "8SnzXDzn1LIJYdEMN7AzaQ", "alias": "smokey-jakes-bbq-vista", "name": "Smokey Jake's BBQ", "image_url": "https://s3-media3.fl.yelpcdn.com/bphoto/CZ_g3dtT-nRyiBzk0whyhg/o.jpg", "is_closed": false, "url": "https://www.yelp.com/biz/smokey-jakes-bbq-vista?adjust_creative=oncXGL2aPIKrtJdnWeFSnA&utm_campaign=yelp_api_v3&utm_medium=api_v3_business_search&utm_source=oncXGL2aPIKrtJdnWeFSnA", "review_count": 12, "categories": [{"alias": "foodstands", "title": "Food Stands"}, {"alias": "bbq", "title": "Barbeque"}], "rating": 4.5, "coordinates": {"latitude": 33.1679534912109, "longitude": -117.225868225098}, "transactions": [], "location": {"address1": "", "address2": "", "address3": "", "city": "Vista", "zip_code": "92081", "country": "US", "state": "CA", "display_address": ["Vista, CA 92081"]}, "phone": "+17604405475", "display_phone": "(760) 440-5475", "distance": 8059.596549460822}, {"id": "mCndS28CnQC_kzmZJ8YMHw", "alias": "firehouse-que-and-brew-fallbrook", "name": "Firehouse Que & Brew", "image_url": "https://s3-media4.fl.yelpcdn.com/bphoto/cqn8f4tFMZmSxtpHu49HQA/o.jpg", "is_closed": false, "url": "https://www.yelp.com/biz/firehouse-que-and-brew-fallbrook?adjust_creative=oncXGL2aPIKrtJdnWeFSnA&utm_campaign=yelp_api_v3&utm_medium=api_v3_business_search&utm_source=oncXGL2aPIKrtJdnWeFSnA", "review_count": 198, "categories": [{"alias": "bbq", "title": "Barbeque"}, {"alias": "sandwiches", "title": "Sandwiches"}, {"alias": "beerbar", "title": "Beer Bar"}], "rating": 4.5, "coordinates": {"latitude": 33.37354, "longitude": -117.25198}, "transactions": [], "price": "$$", "location": {"address1": "1019 S Main Ave", "address2": "", "address3": "", "city": "Fallbrook", "zip_code": "92028", "country": "US", "state": "CA", "display_address": ["1019 S Main Ave", "Fallbrook, CA 92028"]}, "phone": "+17606453729", "display_phone": "(760) 645-3729", "distance": 17524.12048419841}, {"id": "iTkh5PmsoaLL-Dwjsbda1A", "alias": "ohana-hawaiian-bbq-vista", "name": "Ohana Hawaiian BBQ", "image_url": "https://s3-media2.fl.yelpcdn.com/bphoto/NLqFvenrfLGzyGim88sC8A/o.jpg", "is_closed": false, "url": "https://www.yelp.com/biz/ohana-hawaiian-bbq-vista?adjust_creative=oncXGL2aPIKrtJdnWeFSnA&utm_campaign=yelp_api_v3&utm_medium=api_v3_business_search&utm_source=oncXGL2aPIKrtJdnWeFSnA", "review_count": 117, "categories": [{"alias": "hawaiian", "title": "Hawaiian"}, {"alias": "bbq", "title": "Barbeque"}], "rating": 4.0, "coordinates": {"latitude": 33.1886176834493, "longitude": -117.254448160529}, "transactions": [], "price": "$", "location": {"address1": "485 S Melrose Dr", "address2": "", "address3": "", "city": "Vista", "zip_code": "92081", "country": "US", "state": "CA", "display_address": ["485 S Melrose Dr", "Vista, CA 92081"]}, "phone": "+17606431226", "display_phone": "(760) 643-1226", "distance": 7242.725188850148}, {"id": "tr2FMU5HeKIXNAj8Wzn8Gw", "alias": "up-skewerz-oceanside", "name": "Up Skewerz", "image_url": "https://s3-media1.fl.yelpcdn.com/bphoto/Oi3D-79e_8iTgV5yxHxElQ/o.jpg", "is_closed": false, "url": "https://www.yelp.com/biz/up-skewerz-oceanside?adjust_creative=oncXGL2aPIKrtJdnWeFSnA&utm_campaign=yelp_api_v3&utm_medium=api_v3_business_search&utm_source=oncXGL2aPIKrtJdnWeFSnA", "review_count": 13, "categories": [{"alias": "bbq", "title": "Barbeque"}, {"alias": "foodstands", "title": "Food Stands"}], "rating": 4.5, "coordinates": {"latitude": 33.18951, "longitude": -117.37193}, "transactions": [], "location": {"address1": "", "address2": "", "address3": null, "city": "Oceanside", "zip_code": "92054", "country": "US", "state": "CA", "display_address": ["Oceanside, CA 92054"]}, "phone": "", "display_phone": "", "distance": 5915.220459531363}, {"id": "UMvSHdFYA3x6LR8ZWKf_DQ", "alias": "koko-beach-carlsbad", "name": "KoKo Beach", "image_url": "https://s3-media3.fl.yelpcdn.com/bphoto/g8TppTfWWsjTpTCjXMhL8Q/o.jpg", "is_closed": false, "url": "https://www.yelp.com/biz/koko-beach-carlsbad?adjust_creative=oncXGL2aPIKrtJdnWeFSnA&utm_campaign=yelp_api_v3&utm_medium=api_v3_business_search&utm_source=oncXGL2aPIKrtJdnWeFSnA", "review_count": 448, "categories": [{"alias": "seafood", "title": "Seafood"}, {"alias": "steak", "title": "Steakhouses"}, {"alias": "bbq", "title": "Barbeque"}], "rating": 3.5, "coordinates": {"latitude": 33.1598, "longitude": -117.35186}, "transactions": [], "price": "$$", "location": {"address1": "2858 Carlsbad Blvd", "address2": "", "address3": "", "city": "Carlsbad", "zip_code": "92008", "country": "US", "state": "CA", "display_address": ["2858 Carlsbad Blvd", "Carlsbad, CA 92008"]}, "phone": "+17604346868", "display_phone": "(760) 434-6868", "distance": 8015.513689435191}, {"id": "Sh6Kmko8EUiuWWiW7sTutg", "alias": "holy-smokes-bbq-fallbrook-5", "name": "Holy Smokes BBQ", "image_url": "https://s3-media4.fl.yelpcdn.com/bphoto/qoOIb9gbq4zsJf2IB5VMyQ/o.jpg", "is_closed": false, "url": "https://www.yelp.com/biz/holy-smokes-bbq-fallbrook-5?adjust_creative=oncXGL2aPIKrtJdnWeFSnA&utm_campaign=yelp_api_v3&utm_medium=api_v3_business_search&utm_source=oncXGL2aPIKrtJdnWeFSnA", "review_count": 11, "categories": [{"alias": "catering", "title": "Caterers"}, {"alias": "bbq", "title": "Barbeque"}], "rating": 4.5, "coordinates": {"latitude": 33.381912, "longitude": -117.2517}, "transactions": [], "price": "$", "location": {"address1": "", "address2": "", "address3": "", "city": "Fallbrook", "zip_code": "92028", "country": "US", "state": "CA", "display_address": ["Fallbrook, CA 92028"]}, "phone": "+17607267255", "display_phone": "(760) 726-7255", "distance": 18403.9341405938}, {"id": "L3uofdExs33e1UtiQ_leeg", "alias": "sunset-29-bbq-san-francisco", "name": "Sunset 29 BBQ", "image_url": "https://s3-media4.fl.yelpcdn.com/bphoto/FGnxRKegNllHI9D9BiwO0A/o.jpg", "is_closed": false, "url": "https://www.yelp.com/biz/sunset-29-bbq-san-francisco?adjust_creative=oncXGL2aPIKrtJdnWeFSnA&utm_campaign=yelp_api_v3&utm_medium=api_v3_business_search&utm_source=oncXGL2aPIKrtJdnWeFSnA", "review_count": 6, "categories": [{"alias": "bbq", "title": "Barbeque"}], "rating": 5.0, "coordinates": {"latitude": 37.727274, "longitude": -122.365613}, "transactions": [], "location": {"address1": "103 Horne Ave", "address2": "", "address3": null, "city": "San Francisco", "zip_code": "94116", "country": "US", "state": "CA", "display_address": ["103 Horne Ave", "San Francisco, CA 94116"]}, "phone": "+14157232929", "display_phone": "(415) 723-2929", "distance": 6195.9018197953155}, {"id": "dpL_tWbqwiUhk4wU0tewqw", "alias": "dickeys-barbecue-pit-san-marcos-5", "name": "Dickey's Barbecue Pit", "image_url": "https://s3-media1.fl.yelpcdn.com/bphoto/r7a5VgkLfuk84KhGfxxmoA/o.jpg", "is_closed": false, "url": "https://www.yelp.com/biz/dickeys-barbecue-pit-san-marcos-5?adjust_creative=oncXGL2aPIKrtJdnWeFSnA&utm_campaign=yelp_api_v3&utm_medium=api_v3_business_search&utm_source=oncXGL2aPIKrtJdnWeFSnA", "review_count": 62, "categories": [{"alias": "bbq", "title": "Barbeque"}, {"alias": "tradamerican", "title": "American (Traditional)"}, {"alias": "southern", "title": "Southern"}], "rating": 3.0, "coordinates": {"latitude": 33.1300776, "longitude": -117.1651111}, "transactions": ["delivery", "pickup"], "price": "$$", "location": {"address1": "344 S Twin Oaks Valley Rd", "address2": "", "address3": null, "city": "San Marcos", "zip_code": "92078", "country": "US", "state": "CA", "display_address": ["344 S Twin Oaks Valley Rd", "San Marcos, CA 92078"]}, "phone": "+17609992115", "display_phone": "(760) 999-2115", "distance": 17666.89430491992}, {"id": "uAeJ8izgv-RiHDzxiPLANA", "alias": "knights-table-barbecue-carlsbad", "name": "Knights Table Barbecue", "image_url": "https://s3-media3.fl.yelpcdn.com/bphoto/QadBEV93lwFwfUA4c6Y4TA/o.jpg", "is_closed": false, "url": "https://www.yelp.com/biz/knights-table-barbecue-carlsbad?adjust_creative=oncXGL2aPIKrtJdnWeFSnA&utm_campaign=yelp_api_v3&utm_medium=api_v3_business_search&utm_source=oncXGL2aPIKrtJdnWeFSnA", "review_count": 37, "categories": [{"alias": "bbq", "title": "Barbeque"}], "rating": 3.0, "coordinates": {"latitude": 33.1262168884277, "longitude": -117.311088562012}, "transactions": [], "price": "$$", "location": {"address1": "1 Legoland Dr", "address2": "", "address3": "", "city": "Carlsbad", "zip_code": "92008", "country": "US", "state": "CA", "display_address": ["1 Legoland Dr", "Carlsbad, CA 92008"]}, "phone": "+17609185346", "display_phone": "(760) 918-5346", "distance": 11108.10242421993}, {"id": "ACvedwCO6bqwEBSPRU8xYQ", "alias": "l-and-l-hawaiian-barbecue-san-marcos", "name": "L&L Hawaiian Barbecue", "image_url": "https://s3-media2.fl.yelpcdn.com/bphoto/TqnybThRajAuC52rtwQfnw/o.jpg", "is_closed": false, "url": "https://www.yelp.com/biz/l-and-l-hawaiian-barbecue-san-marcos?adjust_creative=oncXGL2aPIKrtJdnWeFSnA&utm_campaign=yelp_api_v3&utm_medium=api_v3_business_search&utm_source=oncXGL2aPIKrtJdnWeFSnA", "review_count": 216, "categories": [{"alias": "hawaiian", "title": "Hawaiian"}, {"alias": "bbq", "title": "Barbeque"}], "rating": 3.0, "coordinates": {"latitude": 33.140768, "longitude": -117.191111}, "transactions": ["delivery", "pickup"], "price": "$", "location": {"address1": "137 S Las Posas Rd", "address2": "Ste 152", "address3": "", "city": "San Marcos", "zip_code": "92078", "country": "US", "state": "CA", "display_address": ["137 S Las Posas Rd", "Ste 152", "San Marcos, CA 92078"]}, "phone": "+17602903036", "display_phone": "(760) 290-3036", "distance": 15097.183920324074}, {"id": "9NsJltQmA_3AreOy4FVKUw", "alias": "dickeys-barbecue-pit-san-marcos", "name": "Dickey's Barbecue Pit", "image_url": "https://s3-media3.fl.yelpcdn.com/bphoto/YfyPKA2gdcXIRht9p1vjQg/o.jpg", "is_closed": false, "url": "https://www.yelp.com/biz/dickeys-barbecue-pit-san-marcos?adjust_creative=oncXGL2aPIKrtJdnWeFSnA&utm_campaign=yelp_api_v3&utm_medium=api_v3_business_search&utm_source=oncXGL2aPIKrtJdnWeFSnA", "review_count": 256, "categories": [{"alias": "bbq", "title": "Barbeque"}, {"alias": "tradamerican", "title": "American (Traditional)"}, {"alias": "southern", "title": "Southern"}], "rating": 3.5, "coordinates": {"latitude": 33.135226, "longitude": -117.120621}, "transactions": ["pickup", "delivery"], "price": "$$", "location": {"address1": "763 Center Dr", "address2": "Ste 103", "address3": "", "city": "San Marcos", "zip_code": "92069", "country": "US", "state": "CA", "display_address": ["763 Center Dr", "Ste 103", "San Marcos, CA 92069"]}, "phone": "+17607388900", "display_phone": "(760) 738-8900", "distance": 20975.59678376452}, {"id": "okfpAclrSbJCXt3854GOQA", "alias": "up-in-smoke-escondido", "name": "Up In Smoke", "image_url": "https://s3-media3.fl.yelpcdn.com/bphoto/XpGBhkK6iaT4oKTvTKVquQ/o.jpg", "is_closed": false, "url": "https://www.yelp.com/biz/up-in-smoke-escondido?adjust_creative=oncXGL2aPIKrtJdnWeFSnA&utm_campaign=yelp_api_v3&utm_medium=api_v3_business_search&utm_source=oncXGL2aPIKrtJdnWeFSnA", "review_count": 20, "categories": [{"alias": "foodtrucks", "title": "Food Trucks"}, {"alias": "bbq", "title": "Barbeque"}, {"alias": "catering", "title": "Caterers"}], "rating": 4.5, "coordinates": {"latitude": 33.12692, "longitude": -117.07505}, "transactions": [], "price": "$$", "location": {"address1": "", "address2": null, "address3": "", "city": "Escondido", "zip_code": "92025", "country": "US", "state": "CA", "display_address": ["Escondido, CA 92025"]}, "phone": "+17322458051", "display_phone": "(732) 245-8051", "distance": 29173.69229705974}, {"id": "UBrKT5LH6r9wqLry_WTgiw", "alias": "devil-dogs-bbq-catering-san-marcos", "name": "Devil Dogs BBQ Catering", "image_url": "https://s3-media3.fl.yelpcdn.com/bphoto/k4oleDyEcLoPzV3QYOFIYQ/o.jpg", "is_closed": false, "url": "https://www.yelp.com/biz/devil-dogs-bbq-catering-san-marcos?adjust_creative=oncXGL2aPIKrtJdnWeFSnA&utm_campaign=yelp_api_v3&utm_medium=api_v3_business_search&utm_source=oncXGL2aPIKrtJdnWeFSnA", "review_count": 32, "categories": [{"alias": "foodtrucks", "title": "Food Trucks"}, {"alias": "bbq", "title": "Barbeque"}, {"alias": "catering", "title": "Caterers"}], "rating": 4.0, "coordinates": {"latitude": 33.1471019, "longitude": -117.197672}, "transactions": [], "price": "$$", "location": {"address1": "139 Pawnee St", "address2": null, "address3": "", "city": "San Marcos", "zip_code": "92078", "country": "US", "state": "CA", "display_address": ["139 Pawnee St", "San Marcos, CA 92078"]}, "phone": "+17608144776", "display_phone": "(760) 814-4776", "distance": 14239.675465834234}, {"id": "KWINE0_f0GeKIN--IGfPxw", "alias": "knights-smokehouse-bbq-carlsbad", "name": "Knights' Smokehouse BBQ", "image_url": "https://s3-media1.fl.yelpcdn.com/bphoto/1zRTYqE_oYmRv2wDuoN6Zg/o.jpg", "is_closed": false, "url": "https://www.yelp.com/biz/knights-smokehouse-bbq-carlsbad?adjust_creative=oncXGL2aPIKrtJdnWeFSnA&utm_campaign=yelp_api_v3&utm_medium=api_v3_business_search&utm_source=oncXGL2aPIKrtJdnWeFSnA", "review_count": 38, "categories": [{"alias": "bbq", "title": "Barbeque"}], "rating": 3.0, "coordinates": {"latitude": 33.1293883124575, "longitude": -117.310397380673}, "transactions": [], "price": "$$", "location": {"address1": "1 Legoland Dr", "address2": "", "address3": "", "city": "Carlsbad", "zip_code": "92008", "country": "US", "state": "CA", "display_address": ["1 Legoland Dr", "Carlsbad, CA 92008"]}, "phone": "", "display_phone": "", "distance": 10768.22702416535}, {"id": "ovxe1v4k6D4XHwyTogvhEQ", "alias": "relics-bbq-fallbrook", "name": "Relics BBQ", "image_url": "https://s3-media3.fl.yelpcdn.com/bphoto/Gu_OnGLUscInxIuGiaI_EA/o.jpg", "is_closed": false, "url": "https://www.yelp.com/biz/relics-bbq-fallbrook?adjust_creative=oncXGL2aPIKrtJdnWeFSnA&utm_campaign=yelp_api_v3&utm_medium=api_v3_business_search&utm_source=oncXGL2aPIKrtJdnWeFSnA", "review_count": 1, "categories": [{"alias": "foodtrucks", "title": "Food Trucks"}, {"alias": "catering", "title": "Caterers"}, {"alias": "bbq", "title": "Barbeque"}], "rating": 5.0, "coordinates": {"latitude": 33.37679, "longitude": -117.25271}, "transactions": [], "location": {"address1": "", "address2": "", "address3": null, "city": "Fallbrook", "zip_code": "92028", "country": "US", "state": "CA", "display_address": ["Fallbrook, CA 92028"]}, "phone": "+17604056290", "display_phone": "(760) 405-6290", "distance": 17847.798245499544}, {"id": "_PddrzVKfVFXBKo4JNrKCA", "alias": "tropical-vibes-caribbean-soul-and-bbq-riverside-3", "name": "Tropical Vibes Caribbean Soul & BBQ", "image_url": "https://s3-media3.fl.yelpcdn.com/bphoto/aNCy0VArbRY1ev1gDx7E-w/o.jpg", "is_closed": false, "url": "https://www.yelp.com/biz/tropical-vibes-caribbean-soul-and-bbq-riverside-3?adjust_creative=oncXGL2aPIKrtJdnWeFSnA&utm_campaign=yelp_api_v3&utm_medium=api_v3_business_search&utm_source=oncXGL2aPIKrtJdnWeFSnA", "review_count": 5, "categories": [{"alias": "bbq", "title": "Barbeque"}, {"alias": "caribbean", "title": "Caribbean"}, {"alias": "foodtrucks", "title": "Food Trucks"}], "rating": 5.0, "coordinates": {"latitude": 33.9816284179688, "longitude": -117.373878479004}, "transactions": [], "price": "$", "location": {"address1": "", "address2": null, "address3": "", "city": "Riverside", "zip_code": "92518", "country": "US", "state": "CA", "display_address": ["Riverside, CA 92518"]}, "phone": "+16198529129", "display_phone": "(619) 852-9129", "distance": 73735.12841956927}, {"id": "Iq2GPvEYNgEqBEKUZxLr9w", "alias": "caliente-bbq-catering-spring-valley-2", "name": "Caliente BBQ catering", "image_url": "https://s3-media3.fl.yelpcdn.com/bphoto/gLAvaRuy0zp_ZPE1BePHqQ/o.jpg", "is_closed": false, "url": "https://www.yelp.com/biz/caliente-bbq-catering-spring-valley-2?adjust_creative=oncXGL2aPIKrtJdnWeFSnA&utm_campaign=yelp_api_v3&utm_medium=api_v3_business_search&utm_source=oncXGL2aPIKrtJdnWeFSnA", "review_count": 20, "categories": [{"alias": "catering", "title": "Caterers"}, {"alias": "bbq", "title": "Barbeque"}, {"alias": "foodtrucks", "title": "Food Trucks"}], "rating": 5.0, "coordinates": {"latitude": 32.73364, "longitude": -116.96531}, "transactions": [], "location": {"address1": "", "address2": "", "address3": null, "city": "Spring Valley", "zip_code": "91978", "country": "US", "state": "CA", "display_address": ["Spring Valley, CA 91978"]}, "phone": "+16192440112", "display_phone": "(619) 244-0112", "distance": 65083.53754128408}, {"id": "yOrqm0_Dk8_xF6VbCuSMCg", "alias": "son-of-a-butcher-craft-fire-upland-12", "name": "Son of a Butcher Craft Fire", "image_url": "https://s3-media4.fl.yelpcdn.com/bphoto/BvtrbuRyA6dcTZcd2IBbIQ/o.jpg", "is_closed": false, "url": "https://www.yelp.com/biz/son-of-a-butcher-craft-fire-upland-12?adjust_creative=oncXGL2aPIKrtJdnWeFSnA&utm_campaign=yelp_api_v3&utm_medium=api_v3_business_search&utm_source=oncXGL2aPIKrtJdnWeFSnA", "review_count": 15, "categories": [{"alias": "bbq", "title": "Barbeque"}, {"alias": "foodtrucks", "title": "Food Trucks"}, {"alias": "popuprestaurants", "title": "Pop-Up Restaurants"}], "rating": 4.5, "coordinates": {"latitude": 34.9592083, "longitude": -116.419389}, "transactions": [], "location": {"address1": "", "address2": null, "address3": "", "city": "Upland", "zip_code": "91784", "country": "US", "state": "CA", "display_address": ["Upland, CA 91784"]}, "phone": "+18337623473", "display_phone": "(833) 762-3473", "distance": 108608.62779529067}], "total": 39, "region": {"center": {"longitude": -117.31819152832031, "latitude": 33.226009439623446}}}