{"businesses": [{"id": "RDRfj1NOUB96_6KWC_5bqQ", "alias": "tys-burger-house-oceanside", "name": "Ty's Burger House", "image_url": "https://s3-media2.fl.yelpcdn.com/bphoto/DOMtweaBdmPE1e_xy22t-Q/o.jpg", "is_closed": false, "url": "https://www.yelp.com/biz/tys-burger-house-oceanside?adjust_creative=oncXGL2aPIKrtJdnWeFSnA&utm_campaign=yelp_api_v3&utm_medium=api_v3_business_search&utm_source=oncXGL2aPIKrtJdnWeFSnA", "review_count": 958, "categories": [{"alias": "burgers", "title": "Burgers"}, {"alias": "salad", "title": "Salad"}, {"alias": "sandwiches", "title": "Sandwiches"}], "rating": 4.5, "coordinates": {"latitude": 33.1962198, "longitude": -117.3789608}, "transactions": [], "price": "$", "location": {"address1": "515 Mission Ave", "address2": "", "address3": "", "city": "Oceanside", "zip_code": "92054", "country": "US", "state": "CA", "display_address": ["515 Mission Ave", "Oceanside, CA 92054"]}, "phone": "+17607575890", "display_phone": "(760) 757-5890", "distance": 6552.425348045413}, {"id": "nomK5lKuHfvHknZpbtHzVg", "alias": "pit-stop-diner-oceanside", "name": "Pit Stop Diner", "image_url": "https://s3-media2.fl.yelpcdn.com/bphoto/q7n5rdX0o5zG4T5BsjrVaQ/o.jpg", "is_closed": false, "url": "https://www.yelp.com/biz/pit-stop-diner-oceanside?adjust_creative=oncXGL2aPIKrtJdnWeFSnA&utm_campaign=yelp_api_v3&utm_medium=api_v3_business_search&utm_source=oncXGL2aPIKrtJdnWeFSnA", "review_count": 648, "categories": [{"alias": "diners", "title": "Diners"}, {"alias": "burgers", "title": "Burgers"}, {"alias": "sandwiches", "title": "Sandwiches"}], "rating": 4.0, "coordinates": {"latitude": 33.2259000485521, "longitude": -117.330345550927}, "transactions": ["delivery", "pickup"], "price": "$", "location": {"address1": "3825 Mission Ave", "address2": "Ste D1", "address3": "", "city": "Oceanside", "zip_code": "92058", "country": "US", "state": "CA", "display_address": ["3825 Mission Ave", "Ste D1", "Oceanside, CA 92058"]}, "phone": "+17609014299", "display_phone": "(760) 901-4299", "distance": 1130.5870705895354}, {"id": "vOUKxlmBnWqrRdJSh7F9RQ", "alias": "the-cheesesteak-grill-oceanside", "name": "The Cheesesteak Grill", "image_url": "https://s3-media2.fl.yelpcdn.com/bphoto/FafaS9wkcpYhKhc9I_xwgQ/o.jpg", "is_closed": false, "url": "https://www.yelp.com/biz/the-cheesesteak-grill-oceanside?adjust_creative=oncXGL2aPIKrtJdnWeFSnA&utm_campaign=yelp_api_v3&utm_medium=api_v3_business_search&utm_source=oncXGL2aPIKrtJdnWeFSnA", "review_count": 414, "categories": [{"alias": "cheesesteaks", "title": "Cheesesteaks"}, {"alias": "sandwiches", "title": "Sandwiches"}, {"alias": "burgers", "title": "Burgers"}], "rating": 4.5, "coordinates": {"latitude": 33.1905986462851, "longitude": -117.359504374066}, "transactions": [], "price": "$$", "location": {"address1": "1771 S Oceanside Blvd", "address2": "Ste C", "address3": "", "city": "Oceanside", "zip_code": "92054", "country": "US", "state": "CA", "display_address": ["1771 S Oceanside Blvd", "Ste C", "Oceanside, CA 92054"]}, "phone": "+17605290077", "display_phone": "(760) 529-0077", "distance": 5502.4253845552}, {"id": "QeRDb6cx-8xvTyJS3n6hiQ", "alias": "o-side-sports-bar-and-grill-oceanside", "name": "O'side Sports Bar & Grill", "image_url": "https://s3-media1.fl.yelpcdn.com/bphoto/_Tq0Uwd9h-j3S7gTGLMsQA/o.jpg", "is_closed": false, "url": "https://www.yelp.com/biz/o-side-sports-bar-and-grill-oceanside?adjust_creative=oncXGL2aPIKrtJdnWeFSnA&utm_campaign=yelp_api_v3&utm_medium=api_v3_business_search&utm_source=oncXGL2aPIKrtJdnWeFSnA", "review_count": 153, "categories": [{"alias": "sportsbars", "title": "Sports Bars"}, {"alias": "burgers", "title": "Burgers"}], "rating": 5.0, "coordinates": {"latitude": 33.194526, "longitude": -117.378585}, "transactions": [], "price": "$", "location": {"address1": "113 S Coast Hwy", "address2": "", "address3": "", "city": "Oceanside", "zip_code": "92054", "country": "US", "state": "CA", "display_address": ["113 S Coast Hwy", "Oceanside, CA 92054"]}, "phone": "+14425001090", "display_phone": "(442) 500-1090", "distance": 6619.971446858742}, {"id": "sDSy2h6z2OR9Ga9FmR7nlg", "alias": "rubys-diner-oceanside", "name": "Ruby's Diner", "image_url": "https://s3-media4.fl.yelpcdn.com/bphoto/i0W4dnFp7e8eudgG1VcLFg/o.jpg", "is_closed": false, "url": "https://www.yelp.com/biz/rubys-diner-oceanside?adjust_creative=oncXGL2aPIKrtJdnWeFSnA&utm_campaign=yelp_api_v3&utm_medium=api_v3_business_search&utm_source=oncXGL2aPIKrtJdnWeFSnA", "review_count": 588, "categories": [{"alias": "tradamerican", "title": "American (Traditional)"}, {"alias": "diners", "title": "Diners"}, {"alias": "burgers", "title": "Burgers"}], "rating": 3.5, "coordinates": {"latitude": 33.191724, "longitude": -117.388711}, "transactions": [], "price": "$$", "location": {"address1": "1 Oceanside Pier", "address2": "", "address3": "", "city": "Oceanside", "zip_code": "92054", "country": "US", "state": "CA", "display_address": ["1 Oceanside Pier", "Oceanside, CA 92054"]}, "phone": "+17604337829", "display_phone": "(760) 433-7829", "distance": 7587.976657070395}, {"id": "7G3t0QUHpa3mXDqTCQLPeA", "alias": "red-rooster-oceanside", "name": "Red Rooster", "image_url": "https://s3-media2.fl.yelpcdn.com/bphoto/7GhFlWatVWR_QWkG94iIhA/o.jpg", "is_closed": false, "url": "https://www.yelp.com/biz/red-rooster-oceanside?adjust_creative=oncXGL2aPIKrtJdnWeFSnA&utm_campaign=yelp_api_v3&utm_medium=api_v3_business_search&utm_source=oncXGL2aPIKrtJdnWeFSnA", "review_count": 222, "categories": [{"alias": "divebars", "title": "Dive Bars"}, {"alias": "burgers", "title": "Burgers"}], "rating": 4.0, "coordinates": {"latitude": 33.1949272155762, "longitude": -117.353462219238}, "transactions": [], "price": "$", "location": {"address1": "1985 Oceanside Blvd", "address2": "", "address3": "", "city": "Oceanside", "zip_code": "92054", "country": "US", "state": "CA", "display_address": ["1985 Oceanside Blvd", "Oceanside, CA 92054"]}, "phone": "+17607548383", "display_phone": "(760) 754-8383", "distance": 4770.506879708087}, {"id": "D-X8nhs2y1YtCckUrPjuPQ", "alias": "angelos-burgers-oceanside-7", "name": "Angelo's Burgers", "image_url": "https://s3-media3.fl.yelpcdn.com/bphoto/U5ClXjM8YwPIMhtTBOX-5w/o.jpg", "is_closed": false, "url": "https://www.yelp.com/biz/angelos-burgers-oceanside-7?adjust_creative=oncXGL2aPIKrtJdnWeFSnA&utm_campaign=yelp_api_v3&utm_medium=api_v3_business_search&utm_source=oncXGL2aPIKrtJdnWeFSnA", "review_count": 431, "categories": [{"alias": "burgers", "title": "Burgers"}, {"alias": "breakfast_brunch", "title": "Breakfast & Brunch"}, {"alias": "greek", "title": "Greek"}], "rating": 4.0, "coordinates": {"latitude": 33.17065, "longitude": -117.35869}, "transactions": ["delivery", "pickup"], "price": "$", "location": {"address1": "2035 S Coast Hwy", "address2": "", "address3": "", "city": "Oceanside", "zip_code": "92054", "country": "US", "state": "CA", "display_address": ["2035 S Coast Hwy", "Oceanside, CA 92054"]}, "phone": "+17609679911", "display_phone": "(760) 967-9911", "distance": 7227.908937401405}, {"id": "ctS39NJGyWm73ITyvNLfzA", "alias": "pch-sports-bar-and-grill-oceanside", "name": "PCH Sports Bar & Grill", "image_url": "https://s3-media3.fl.yelpcdn.com/bphoto/hGFCg3xvolYAyQ1MijfJ4A/o.jpg", "is_closed": false, "url": "https://www.yelp.com/biz/pch-sports-bar-and-grill-oceanside?adjust_creative=oncXGL2aPIKrtJdnWeFSnA&utm_campaign=yelp_api_v3&utm_medium=api_v3_business_search&utm_source=oncXGL2aPIKrtJdnWeFSnA", "review_count": 268, "categories": [{"alias": "burgers", "title": "Burgers"}, {"alias": "sportsbars", "title": "Sports Bars"}, {"alias": "tradamerican", "title": "American (Traditional)"}], "rating": 4.5, "coordinates": {"latitude": 33.17379, "longitude": -117.36134}, "transactions": [], "price": "$$", "location": {"address1": "1835 S Coast Hwy", "address2": null, "address3": "", "city": "Oceanside", "zip_code": "92054", "country": "US", "state": "CA", "display_address": ["1835 S Coast Hwy", "Oceanside, CA 92054"]}, "phone": "+17607213955", "display_phone": "(760) 721-3955", "distance": 7058.762020098052}, {"id": "6utGqV1guoaj3qng-NEg7w", "alias": "oink-and-moo-burgers-and-bbq-fallbrook-2", "name": "Oink and Moo Burgers & BBQ", "image_url": "https://s3-media2.fl.yelpcdn.com/bphoto/pRt4QP-Z3JpOrJ5LKU-iIQ/o.jpg", "is_closed": false, "url": "https://www.yelp.com/biz/oink-and-moo-burgers-and-bbq-fallbrook-2?adjust_creative=oncXGL2aPIKrtJdnWeFSnA&utm_campaign=yelp_api_v3&utm_medium=api_v3_business_search&utm_source=oncXGL2aPIKrtJdnWeFSnA", "review_count": 721, "categories": [{"alias": "burgers", "title": "Burgers"}, {"alias": "bbq", "title": "Barbeque"}, {"alias": "beerbar", "title": "Beer Bar"}], "rating": 4.5, "coordinates": {"latitude": 33.382518, "longitude": -117.252249}, "transactions": [], "price": "$$", "location": {"address1": "121 N Pico Ave", "address2": "", "address3": "", "city": "Fallbrook", "zip_code": "92028", "country": "US", "state": "CA", "display_address": ["121 N Pico Ave", "Fallbrook, CA 92028"]}, "phone": "+17604516005", "display_phone": "(760) 451-6005", "distance": 18450.40427381646}, {"id": "OVAO2XkGwTp_TidI8YSDxw", "alias": "ohana-hawaiian-bbq-oceanside", "name": "Ohana Hawaiian BBQ", "image_url": "https://s3-media2.fl.yelpcdn.com/bphoto/buWhiT7GNPSD3Y-Q2iZovQ/o.jpg", "is_closed": false, "url": "https://www.yelp.com/biz/ohana-hawaiian-bbq-oceanside?adjust_creative=oncXGL2aPIKrtJdnWeFSnA&utm_campaign=yelp_api_v3&utm_medium=api_v3_business_search&utm_source=oncXGL2aPIKrtJdnWeFSnA", "review_count": 125, "categories": [{"alias": "hawaiian", "title": "Hawaiian"}, {"alias": "seafood", "title": "Seafood"}, {"alias": "burgers", "title": "Burgers"}], "rating": 3.5, "coordinates": {"latitude": 33.2452381392478, "longitude": -117.293055949074}, "transactions": [], "price": "$", "location": {"address1": "459 College Blvd", "address2": "", "address3": "", "city": "Oceanside", "zip_code": "92057", "country": "US", "state": "CA", "display_address": ["459 College Blvd", "Oceanside, CA 92057"]}, "phone": "+17606306800", "display_phone": "(760) 630-6800", "distance": 3168.0787178168107}, {"id": "h56qPysQoTz09vdn-jligw", "alias": "the-habit-burger-grill-oceanside", "name": "The Habit Burger Grill", "image_url": "https://s3-media2.fl.yelpcdn.com/bphoto/okWqGcGioCF2-1U0X8DE_g/o.jpg", "is_closed": false, "url": "https://www.yelp.com/biz/the-habit-burger-grill-oceanside?adjust_creative=oncXGL2aPIKrtJdnWeFSnA&utm_campaign=yelp_api_v3&utm_medium=api_v3_business_search&utm_source=oncXGL2aPIKrtJdnWeFSnA", "review_count": 262, "categories": [{"alias": "burgers", "title": "Burgers"}], "rating": 4.0, "coordinates": {"latitude": 33.184288, "longitude": -117.327908}, "transactions": [], "price": "$", "location": {"address1": "2267 S El Camino Real", "address2": null, "address3": "", "city": "Oceanside", "zip_code": "92054", "country": "US", "state": "CA", "display_address": ["2267 S El Camino Real", "Oceanside, CA 92054"]}, "phone": "+17604333390", "display_phone": "(760) 433-3390", "distance": 4726.464697929544}, {"id": "Li5i83xVhK2HfM5J0JHY6Q", "alias": "in-n-out-burger-oceanside", "name": "In-N-Out Burger", "image_url": "https://s3-media3.fl.yelpcdn.com/bphoto/OSJuAZ2mwEdROgVQB7iIrQ/o.jpg", "is_closed": false, "url": "https://www.yelp.com/biz/in-n-out-burger-oceanside?adjust_creative=oncXGL2aPIKrtJdnWeFSnA&utm_campaign=yelp_api_v3&utm_medium=api_v3_business_search&utm_source=oncXGL2aPIKrtJdnWeFSnA", "review_count": 164, "categories": [{"alias": "hotdogs", "title": "Fast Food"}, {"alias": "burgers", "title": "Burgers"}], "rating": 4.0, "coordinates": {"latitude": 33.2378799, "longitude": -117.29921}, "transactions": [], "price": "$", "location": {"address1": "4605 Frazee Rd", "address2": "", "address3": "", "city": "Oceanside", "zip_code": "92057", "country": "US", "state": "CA", "display_address": ["4605 Frazee Rd", "Oceanside, CA 92057"]}, "phone": "+18007861000", "display_phone": "(800) 786-1000", "distance": 2188.710997389508}, {"id": "FynGCJz11Z8bsIP1BpHrng", "alias": "z-cafe-bonsall", "name": "Z Cafe", "image_url": "https://s3-media4.fl.yelpcdn.com/bphoto/aCjgO_G6ZzndZc2g9BbE9A/o.jpg", "is_closed": false, "url": "https://www.yelp.com/biz/z-cafe-bonsall?adjust_creative=oncXGL2aPIKrtJdnWeFSnA&utm_campaign=yelp_api_v3&utm_medium=api_v3_business_search&utm_source=oncXGL2aPIKrtJdnWeFSnA", "review_count": 411, "categories": [{"alias": "breakfast_brunch", "title": "Breakfast & Brunch"}, {"alias": "seafood", "title": "Seafood"}, {"alias": "burgers", "title": "Burgers"}], "rating": 4.0, "coordinates": {"latitude": 33.297085, "longitude": -117.223246}, "transactions": [], "price": "$$", "location": {"address1": "5256 S Mission Rd", "address2": "", "address3": "", "city": "Bonsall", "zip_code": "92003", "country": "US", "state": "CA", "display_address": ["5256 S Mission Rd", "Bonsall, CA 92003"]}, "phone": "+17609401751", "display_phone": "(760) 940-1751", "distance": 11848.736744116075}, {"id": "7lZChHE-_Hl9oAtoUKgYsQ", "alias": "pauls-place-oceanside", "name": "Paul's Place", "image_url": "https://s3-media3.fl.yelpcdn.com/bphoto/yhu_kS7NR6xWUiBox_Hkgg/o.jpg", "is_closed": false, "url": "https://www.yelp.com/biz/pauls-place-oceanside?adjust_creative=oncXGL2aPIKrtJdnWeFSnA&utm_campaign=yelp_api_v3&utm_medium=api_v3_business_search&utm_source=oncXGL2aPIKrtJdnWeFSnA", "review_count": 148, "categories": [{"alias": "breakfast_brunch", "title": "Breakfast & Brunch"}, {"alias": "burgers", "title": "Burgers"}, {"alias": "sandwiches", "title": "Sandwiches"}], "rating": 3.5, "coordinates": {"latitude": 33.2237099, "longitude": -117.33293}, "transactions": [], "price": "$", "location": {"address1": "3671 Mission Ave", "address2": "", "address3": "", "city": "Oceanside", "zip_code": "92054", "country": "US", "state": "CA", "display_address": ["3671 Mission Ave", "Oceanside, CA 92054"]}, "phone": "+17607210124", "display_phone": "(760) 721-0124", "distance": 1386.4931717118284}, {"id": "okZZffUQuh0JK6mhJkIGyA", "alias": "in-n-out-burger-oceanside-2", "name": "In-N-Out Burger", "image_url": "https://s3-media1.fl.yelpcdn.com/bphoto/_qkxgqBAaCVnel-XMQikbA/o.jpg", "is_closed": false, "url": "https://www.yelp.com/biz/in-n-out-burger-oceanside-2?adjust_creative=oncXGL2aPIKrtJdnWeFSnA&utm_campaign=yelp_api_v3&utm_medium=api_v3_business_search&utm_source=oncXGL2aPIKrtJdnWeFSnA", "review_count": 110, "categories": [{"alias": "burgers", "title": "Burgers"}, {"alias": "hotdogs", "title": "Fast Food"}], "rating": 4.5, "coordinates": {"latitude": 33.2029384011908, "longitude": -117.384183262118}, "transactions": [], "price": "$", "location": {"address1": "936 N Coast Hwy", "address2": "", "address3": "", "city": "Oceanside", "zip_code": "92054", "country": "US", "state": "CA", "display_address": ["936 N Coast Hwy", "Oceanside, CA 92054"]}, "phone": "+18007861000", "display_phone": "(800) 786-1000", "distance": 6596.523363558078}, {"id": "_wiNZz2Ngu0TzUmiZJ6Alg", "alias": "dog-haus-vista-3", "name": "Dog Haus", "image_url": "https://s3-media3.fl.yelpcdn.com/bphoto/3gCZV2g3US0jzHcV8HtMxg/o.jpg", "is_closed": false, "url": "https://www.yelp.com/biz/dog-haus-vista-3?adjust_creative=oncXGL2aPIKrtJdnWeFSnA&utm_campaign=yelp_api_v3&utm_medium=api_v3_business_search&utm_source=oncXGL2aPIKrtJdnWeFSnA", "review_count": 32, "categories": [{"alias": "burgers", "title": "Burgers"}, {"alias": "icecream", "title": "Ice Cream & Frozen Yogurt"}, {"alias": "hotdog", "title": "Hot Dogs"}], "rating": 4.5, "coordinates": {"latitude": 33.2013620637667, "longitude": -117.241241395701}, "transactions": [], "location": {"address1": "227 East Broadway", "address2": null, "address3": null, "city": "Vista", "zip_code": "92084", "country": "US", "state": "CA", "display_address": ["227 East Broadway", "Vista, CA 92084"]}, "phone": "+17605363544", "display_phone": "(760) 536-3544", "distance": 7665.311973203571}, {"id": "d7BWosg1jl0TSI325fFMAw", "alias": "7-mile-kitchen-carlsbad", "name": "7 Mile Kitchen", "image_url": "https://s3-media2.fl.yelpcdn.com/bphoto/-MrjKPdeIX99iMbyxBIVPw/o.jpg", "is_closed": false, "url": "https://www.yelp.com/biz/7-mile-kitchen-carlsbad?adjust_creative=oncXGL2aPIKrtJdnWeFSnA&utm_campaign=yelp_api_v3&utm_medium=api_v3_business_search&utm_source=oncXGL2aPIKrtJdnWeFSnA", "review_count": 85, "categories": [{"alias": "newamerican", "title": "American (New)"}, {"alias": "pizza", "title": "Pizza"}, {"alias": "burgers", "title": "Burgers"}], "rating": 3.5, "coordinates": {"latitude": 33.1327473, "longitude": -117.3118966}, "transactions": [], "price": "$$", "location": {"address1": "5420 Grand Pacific Dr", "address2": null, "address3": "", "city": "Carlsbad", "zip_code": "92008", "country": "US", "state": "CA", "display_address": ["5420 Grand Pacific Dr", "Carlsbad, CA 92008"]}, "phone": "+17608272514", "display_phone": "(760) 827-2514", "distance": 10386.799929205781}, {"id": "iTXF2vvptNkQ78dMgz3sXA", "alias": "big-jims-395-grill-vista", "name": "Big Jim's 395 Grill", "image_url": "https://s3-media1.fl.yelpcdn.com/bphoto/c35kAhWbLTXGO87nwh4noQ/o.jpg", "is_closed": false, "url": "https://www.yelp.com/biz/big-jims-395-grill-vista?adjust_creative=oncXGL2aPIKrtJdnWeFSnA&utm_campaign=yelp_api_v3&utm_medium=api_v3_business_search&utm_source=oncXGL2aPIKrtJdnWeFSnA", "review_count": 145, "categories": [{"alias": "burgers", "title": "Burgers"}, {"alias": "breakfast_brunch", "title": "Breakfast & Brunch"}, {"alias": "sandwiches", "title": "Sandwiches"}], "rating": 4.5, "coordinates": {"latitude": 33.2088415151738, "longitude": -117.234552204646}, "transactions": [], "price": "$", "location": {"address1": "777 E Vista Way", "address2": "Ste 204", "address3": "", "city": "Vista", "zip_code": "92084", "country": "US", "state": "CA", "display_address": ["777 E Vista Way", "Ste 204", "Vista, CA 92084"]}, "phone": "+17608427303", "display_phone": "(760) 842-7303", "distance": 8011.339622756935}, {"id": "CaZOqyNaNQ1emoyP8Fozug", "alias": "craft-burger-carlsbad", "name": "Craft Burger", "image_url": "https://s3-media2.fl.yelpcdn.com/bphoto/8-on234WqdNmFoX5gNrGEQ/o.jpg", "is_closed": false, "url": "https://www.yelp.com/biz/craft-burger-carlsbad?adjust_creative=oncXGL2aPIKrtJdnWeFSnA&utm_campaign=yelp_api_v3&utm_medium=api_v3_business_search&utm_source=oncXGL2aPIKrtJdnWeFSnA", "review_count": 432, "categories": [{"alias": "burgers", "title": "Burgers"}, {"alias": "beergardens", "title": "Beer Gardens"}], "rating": 4.0, "coordinates": {"latitude": 33.1591658135293, "longitude": -117.35065815}, "transactions": [], "price": "$$", "location": {"address1": "300 Carlsbad Village Dr", "address2": "Ste 120", "address3": "", "city": "Carlsbad", "zip_code": "92008", "country": "US", "state": "CA", "display_address": ["300 Carlsbad Village Dr", "Ste 120", "Carlsbad, CA 92008"]}, "phone": "+17604537974", "display_phone": "(760) 453-7974", "distance": 8023.177894954109}, {"id": "pozDmSMbeESq3oIqhu7Fbg", "alias": "ihop-oceanside-3", "name": "IHOP", "image_url": "https://s3-media3.fl.yelpcdn.com/bphoto/-ZK-0WT1KBlNESISH85SKg/o.jpg", "is_closed": false, "url": "https://www.yelp.com/biz/ihop-oceanside-3?adjust_creative=oncXGL2aPIKrtJdnWeFSnA&utm_campaign=yelp_api_v3&utm_medium=api_v3_business_search&utm_source=oncXGL2aPIKrtJdnWeFSnA", "review_count": 113, "categories": [{"alias": "breakfast_brunch", "title": "Breakfast & Brunch"}, {"alias": "tradamerican", "title": "American (Traditional)"}, {"alias": "burgers", "title": "Burgers"}], "rating": 3.0, "coordinates": {"latitude": 33.192589177805, "longitude": -117.35871}, "transactions": [], "price": "$$", "location": {"address1": "1806 Oceanside Blvd", "address2": null, "address3": null, "city": "Oceanside", "zip_code": "92054", "country": "US", "state": "CA", "display_address": ["1806 Oceanside Blvd", "Oceanside, CA 92054"]}, "phone": "+17607216282", "display_phone": "(760) 721-6282", "distance": 5293.361677706325}, {"id": "E4odb7GTXjC8sEmFu7Jw8w", "alias": "phils-bbq-san-marcos", "name": "Phil's BBQ", "image_url": "https://s3-media1.fl.yelpcdn.com/bphoto/Ybgs15rzYKPwz6nz7Uc8Pg/o.jpg", "is_closed": false, "url": "https://www.yelp.com/biz/phils-bbq-san-marcos?adjust_creative=oncXGL2aPIKrtJdnWeFSnA&utm_campaign=yelp_api_v3&utm_medium=api_v3_business_search&utm_source=oncXGL2aPIKrtJdnWeFSnA", "review_count": 2343, "categories": [{"alias": "bbq", "title": "Barbeque"}, {"alias": "sportsbars", "title": "Sports Bars"}, {"alias": "burgers", "title": "Burgers"}], "rating": 4.0, "coordinates": {"latitude": 33.137024, "longitude": -117.176707}, "transactions": [], "price": "$$", "location": {"address1": "579 Grand Ave", "address2": "", "address3": "", "city": "San Marcos", "zip_code": "92078", "country": "US", "state": "CA", "display_address": ["579 Grand Ave", "San Marcos, CA 92078"]}, "phone": "+17607591400", "display_phone": "(760) 759-1400", "distance": 16470.469248517158}, {"id": "6K0wcGtpWx20TMlwFPpf_A", "alias": "ignite-bistro-and-wine-spot-carlsbad-3", "name": "Ignite Bistro & Wine Spot", "image_url": "https://s3-media3.fl.yelpcdn.com/bphoto/-RI4fqtsk7qoH7-h28eObQ/o.jpg", "is_closed": false, "url": "https://www.yelp.com/biz/ignite-bistro-and-wine-spot-carlsbad-3?adjust_creative=oncXGL2aPIKrtJdnWeFSnA&utm_campaign=yelp_api_v3&utm_medium=api_v3_business_search&utm_source=oncXGL2aPIKrtJdnWeFSnA", "review_count": 1232, "categories": [{"alias": "newamerican", "title": "American (New)"}, {"alias": "wine_bars", "title": "Wine Bars"}, {"alias": "burgers", "title": "Burgers"}], "rating": 4.0, "coordinates": {"latitude": 33.1033807915894, "longitude": -117.266123939123}, "transactions": ["restaurant_reservation"], "price": "$$", "location": {"address1": "6996 El Camino Real", "address2": null, "address3": "", "city": "Carlsbad", "zip_code": "92009", "country": "US", "state": "CA", "display_address": ["6996 El Camino Real", "Carlsbad, CA 92009"]}, "phone": "+17604387800", "display_phone": "(760) 438-7800", "distance": 14471.357874513726}, {"id": "AXnr7kyjwJyasaPyvCuJ_g", "alias": "ihop-oceanside", "name": "IHOP", "image_url": "https://s3-media2.fl.yelpcdn.com/bphoto/xdf0Jc59g6JKYv-_NdByNw/o.jpg", "is_closed": false, "url": "https://www.yelp.com/biz/ihop-oceanside?adjust_creative=oncXGL2aPIKrtJdnWeFSnA&utm_campaign=yelp_api_v3&utm_medium=api_v3_business_search&utm_source=oncXGL2aPIKrtJdnWeFSnA", "review_count": 122, "categories": [{"alias": "breakfast_brunch", "title": "Breakfast & Brunch"}, {"alias": "tradamerican", "title": "American (Traditional)"}, {"alias": "burgers", "title": "Burgers"}], "rating": 2.5, "coordinates": {"latitude": 33.20858, "longitude": -117.281}, "transactions": [], "price": "$$", "location": {"address1": "4253 Oceanside Blvd", "address2": "", "address3": "", "city": "Oceanside", "zip_code": "92056", "country": "US", "state": "CA", "display_address": ["4253 Oceanside Blvd", "Oceanside, CA 92056"]}, "phone": "+17606301460", "display_phone": "(760) 630-1460", "distance": 3965.6047419257993}, {"id": "-lOl6VHPFbCGK_R6r4MTxA", "alias": "applebees-grill-bar-oceanside", "name": "Applebee's Grill + Bar", "image_url": "https://s3-media2.fl.yelpcdn.com/bphoto/0zXuMynvWpHLwHphg3trqQ/o.jpg", "is_closed": false, "url": "https://www.yelp.com/biz/applebees-grill-bar-oceanside?adjust_creative=oncXGL2aPIKrtJdnWeFSnA&utm_campaign=yelp_api_v3&utm_medium=api_v3_business_search&utm_source=oncXGL2aPIKrtJdnWeFSnA", "review_count": 179, "categories": [{"alias": "tradamerican", "title": "American (Traditional)"}, {"alias": "sportsbars", "title": "Sports Bars"}, {"alias": "burgers", "title": "Burgers"}], "rating": 2.5, "coordinates": {"latitude": 33.181524, "longitude": -117.344069}, "transactions": [], "price": "$$", "location": {"address1": "2146 Vista Way", "address2": "", "address3": "", "city": "Oceanside", "zip_code": "92054", "country": "US", "state": "CA", "display_address": ["2146 Vista Way", "Oceanside, CA 92054"]}, "phone": "+17607575848", "display_phone": "(760) 757-5848", "distance": 5501.369250892196}, {"id": "nRTglEyZdfyursQIV598oQ", "alias": "nessy-burgers-fallbrook-3", "name": "Nessy Burgers", "image_url": "https://s3-media1.fl.yelpcdn.com/bphoto/Bxw_rP63qAtFjcHQ5qqnCw/o.jpg", "is_closed": false, "url": "https://www.yelp.com/biz/nessy-burgers-fallbrook-3?adjust_creative=oncXGL2aPIKrtJdnWeFSnA&utm_campaign=yelp_api_v3&utm_medium=api_v3_business_search&utm_source=oncXGL2aPIKrtJdnWeFSnA", "review_count": 531, "categories": [{"alias": "burgers", "title": "Burgers"}, {"alias": "foodstands", "title": "Food Stands"}], "rating": 4.0, "coordinates": {"latitude": 33.332287, "longitude": -117.1620891}, "transactions": [], "price": "$", "location": {"address1": "3235 Old Hwy 395", "address2": "", "address3": "", "city": "Fallbrook", "zip_code": "92028", "country": "US", "state": "CA", "display_address": ["3235 Old Hwy 395", "Fallbrook, CA 92028"]}, "phone": "+17605059955", "display_phone": "(760) 505-9955", "distance": 18714.409379587298}, {"id": "2_H8YgT0o0sNsWNPW7O7Fw", "alias": "slaters-50-50-san-marcos-san-marcos", "name": "Slater's 50/50 - San Marcos", "image_url": "https://s3-media2.fl.yelpcdn.com/bphoto/vSv6syM5SXjd06QkmwdGGw/o.jpg", "is_closed": false, "url": "https://www.yelp.com/biz/slaters-50-50-san-marcos-san-marcos?adjust_creative=oncXGL2aPIKrtJdnWeFSnA&utm_campaign=yelp_api_v3&utm_medium=api_v3_business_search&utm_source=oncXGL2aPIKrtJdnWeFSnA", "review_count": 1557, "categories": [{"alias": "burgers", "title": "Burgers"}, {"alias": "sportsbars", "title": "Sports Bars"}, {"alias": "tradamerican", "title": "American (Traditional)"}], "rating": 4.0, "coordinates": {"latitude": 33.138674, "longitude": -117.175851}, "transactions": ["pickup"], "price": "$$", "location": {"address1": "110 Knoll Rd", "address2": "", "address3": "", "city": "San Marcos", "zip_code": "92069", "country": "US", "state": "CA", "display_address": ["110 Knoll Rd", "San Marcos, CA 92069"]}, "phone": "+17607592900", "display_phone": "(760) 759-2900", "distance": 16424.984035981986}, {"id": "bD8w1tPAUG_3OhpaDjY-rg", "alias": "dons-country-kitchen-carlsbad-2", "name": "Don's Country Kitchen", "image_url": "https://s3-media2.fl.yelpcdn.com/bphoto/07QI2ZFCm1d-G7K5uGGzeg/o.jpg", "is_closed": false, "url": "https://www.yelp.com/biz/dons-country-kitchen-carlsbad-2?adjust_creative=oncXGL2aPIKrtJdnWeFSnA&utm_campaign=yelp_api_v3&utm_medium=api_v3_business_search&utm_source=oncXGL2aPIKrtJdnWeFSnA", "review_count": 429, "categories": [{"alias": "breakfast_brunch", "title": "Breakfast & Brunch"}, {"alias": "sandwiches", "title": "Sandwiches"}, {"alias": "burgers", "title": "Burgers"}], "rating": 4.0, "coordinates": {"latitude": 33.1613960081534, "longitude": -117.348977252841}, "transactions": [], "price": "$", "location": {"address1": "2885 Roosevelt St", "address2": "", "address3": "", "city": "Carlsbad", "zip_code": "92008", "country": "US", "state": "CA", "display_address": ["2885 Roosevelt St", "Carlsbad, CA 92008"]}, "phone": "+17607292274", "display_phone": "(760) 729-2274", "distance": 7734.706677878285}, {"id": "Lb4-a_1gfFe3nFzF2GbuXQ", "alias": "islands-restaurant-carlsbad-4", "name": "Islands Restaurant", "image_url": "https://s3-media2.fl.yelpcdn.com/bphoto/wIzy7iii3INQBlW7EEmqKA/o.jpg", "is_closed": false, "url": "https://www.yelp.com/biz/islands-restaurant-carlsbad-4?adjust_creative=oncXGL2aPIKrtJdnWeFSnA&utm_campaign=yelp_api_v3&utm_medium=api_v3_business_search&utm_source=oncXGL2aPIKrtJdnWeFSnA", "review_count": 76, "categories": [{"alias": "sportsbars", "title": "Sports Bars"}, {"alias": "tradamerican", "title": "American (Traditional)"}, {"alias": "burgers", "title": "Burgers"}], "rating": 4.0, "coordinates": {"latitude": 33.178569, "longitude": -117.329036}, "transactions": [], "price": "$$", "location": {"address1": "2501 El Camino Real", "address2": "Ste 204", "address3": "", "city": "Carlsbad", "zip_code": "92008", "country": "US", "state": "CA", "display_address": ["2501 El Camino Real", "Ste 204", "Carlsbad, CA 92008"]}, "phone": "+17605010202", "display_phone": "(760) 501-0202", "distance": 5370.7588590354635}, {"id": "U77Jyvlm_bhQ-UFElPmu2w", "alias": "angelos-burgers-oceanside", "name": "Angelo's Burgers", "image_url": "https://s3-media3.fl.yelpcdn.com/bphoto/D937tCkmfKrC0LtivcN6Dw/o.jpg", "is_closed": false, "url": "https://www.yelp.com/biz/angelos-burgers-oceanside?adjust_creative=oncXGL2aPIKrtJdnWeFSnA&utm_campaign=yelp_api_v3&utm_medium=api_v3_business_search&utm_source=oncXGL2aPIKrtJdnWeFSnA", "review_count": 158, "categories": [{"alias": "burgers", "title": "Burgers"}], "rating": 3.5, "coordinates": {"latitude": 33.18559, "longitude": -117.37032}, "transactions": [], "price": "$", "location": {"address1": "1050 S Coast Hwy", "address2": "", "address3": "", "city": "Oceanside", "zip_code": "92054", "country": "US", "state": "CA", "display_address": ["1050 S Coast Hwy", "Oceanside, CA 92054"]}, "phone": "+17607574064", "display_phone": "(760) 757-4064", "distance": 6631.197204972857}, {"id": "CEYlJpKnInKP6XqRX3zvNw", "alias": "rookies-sports-bar-oceanside", "name": "Rookies Sports Bar", "image_url": "https://s3-media3.fl.yelpcdn.com/bphoto/XpS1sSXE_a7n5daKJ3vTkQ/o.jpg", "is_closed": false, "url": "https://www.yelp.com/biz/rookies-sports-bar-oceanside?adjust_creative=oncXGL2aPIKrtJdnWeFSnA&utm_campaign=yelp_api_v3&utm_medium=api_v3_business_search&utm_source=oncXGL2aPIKrtJdnWeFSnA", "review_count": 256, "categories": [{"alias": "sportsbars", "title": "Sports Bars"}, {"alias": "burgers", "title": "Burgers"}, {"alias": "cheesesteaks", "title": "Cheesesteaks"}], "rating": 3.0, "coordinates": {"latitude": 33.1852964, "longitude": -117.3272671}, "transactions": [], "price": "$$", "location": {"address1": "2216 S El Camino Real", "address2": null, "address3": "", "city": "Oceanside", "zip_code": "92054", "country": "US", "state": "CA", "display_address": ["2216 S El Camino Real", "Oceanside, CA 92054"]}, "phone": "+17607571123", "display_phone": "(760) 757-1123", "distance": 4605.149550405385}, {"id": "4Gsu6bVvktyRh4Q0GxHOrA", "alias": "wings-mix-vista", "name": "Wings Mix", "image_url": "https://s3-media2.fl.yelpcdn.com/bphoto/0uo253HX4zA2k9kac06wLw/o.jpg", "is_closed": false, "url": "https://www.yelp.com/biz/wings-mix-vista?adjust_creative=oncXGL2aPIKrtJdnWeFSnA&utm_campaign=yelp_api_v3&utm_medium=api_v3_business_search&utm_source=oncXGL2aPIKrtJdnWeFSnA", "review_count": 51, "categories": [{"alias": "chicken_wings", "title": "Chicken Wings"}, {"alias": "mexican", "title": "Mexican"}, {"alias": "burgers", "title": "Burgers"}], "rating": 4.0, "coordinates": {"latitude": 33.193717956543, "longitude": -117.23127746582}, "transactions": [], "price": "$", "location": {"address1": "962 S Santa Fe Ave", "address2": "", "address3": null, "city": "Vista", "zip_code": "92084", "country": "US", "state": "CA", "display_address": ["962 S Santa Fe Ave", "Vista, CA 92084"]}, "phone": "+17609418691", "display_phone": "(760) 941-8691", "distance": 8844.681869950296}, {"id": "NkhUm823Rclo1K9EhdoMHA", "alias": "angelos-burgers-oceanside-3", "name": "Angelo's Burgers", "image_url": "https://s3-media2.fl.yelpcdn.com/bphoto/TEscxcwiRoA1vDu5Rx9WSw/o.jpg", "is_closed": false, "url": "https://www.yelp.com/biz/angelos-burgers-oceanside-3?adjust_creative=oncXGL2aPIKrtJdnWeFSnA&utm_campaign=yelp_api_v3&utm_medium=api_v3_business_search&utm_source=oncXGL2aPIKrtJdnWeFSnA", "review_count": 194, "categories": [{"alias": "burgers", "title": "Burgers"}, {"alias": "breakfast_brunch", "title": "Breakfast & Brunch"}, {"alias": "mexican", "title": "Mexican"}], "rating": 3.0, "coordinates": {"latitude": 33.2000554866849, "longitude": -117.383143231273}, "transactions": [], "price": "$", "location": {"address1": "621 N Coast Hwy", "address2": "", "address3": "", "city": "Oceanside", "zip_code": "92054", "country": "US", "state": "CA", "display_address": ["621 N Coast Hwy", "Oceanside, CA 92054"]}, "phone": "+17607575161", "display_phone": "(760) 757-5161", "distance": 6696.264134901621}, {"id": "rhVaTqNvOWjZfXlM_siHRg", "alias": "sublime-alehouse-san-marcos", "name": "Sublime AleHouse", "image_url": "https://s3-media1.fl.yelpcdn.com/bphoto/dzJzsNB_Fp2wcoKr-rIazw/o.jpg", "is_closed": false, "url": "https://www.yelp.com/biz/sublime-alehouse-san-marcos?adjust_creative=oncXGL2aPIKrtJdnWeFSnA&utm_campaign=yelp_api_v3&utm_medium=api_v3_business_search&utm_source=oncXGL2aPIKrtJdnWeFSnA", "review_count": 1087, "categories": [{"alias": "pizza", "title": "Pizza"}, {"alias": "burgers", "title": "Burgers"}, {"alias": "bars", "title": "Bars"}], "rating": 4.0, "coordinates": {"latitude": 33.1343623, "longitude": -117.1901704}, "transactions": ["pickup", "delivery"], "price": "$$", "location": {"address1": "1020 W San Marcos Blvd", "address2": "", "address3": "", "city": "San Marcos", "zip_code": "92078", "country": "US", "state": "CA", "display_address": ["1020 W San Marcos Blvd", "San Marcos, CA 92078"]}, "phone": "+17605109220", "display_phone": "(760) 510-9220", "distance": 15678.006275285992}, {"id": "8HEOC2rlat8Pr6nGij0sxQ", "alias": "bushfire-kitchen-la-costa-carlsbad-3", "name": "Bushfire Kitchen - La Costa", "image_url": "https://s3-media1.fl.yelpcdn.com/bphoto/-2LMnPrN3VpWV4UVuvcNPQ/o.jpg", "is_closed": false, "url": "https://www.yelp.com/biz/bushfire-kitchen-la-costa-carlsbad-3?adjust_creative=oncXGL2aPIKrtJdnWeFSnA&utm_campaign=yelp_api_v3&utm_medium=api_v3_business_search&utm_source=oncXGL2aPIKrtJdnWeFSnA", "review_count": 461, "categories": [{"alias": "burgers", "title": "Burgers"}, {"alias": "gluten_free", "title": "Gluten-Free"}, {"alias": "tradamerican", "title": "American (Traditional)"}], "rating": 4.0, "coordinates": {"latitude": 33.0813345847703, "longitude": -117.2330361021}, "transactions": ["delivery"], "price": "$$", "location": {"address1": "3433 Via Montebello", "address2": "Ste 166", "address3": "", "city": "Carlsbad", "zip_code": "92009", "country": "US", "state": "CA", "display_address": ["3433 Via Montebello", "Ste 166", "Carlsbad, CA 92009"]}, "phone": "+17604567620", "display_phone": "(760) 456-7620", "distance": 17934.262453237698}, {"id": "4gLRihJHRgbgipQ3bgEMog", "alias": "nikos-steak-burgers-and-greek-food-vista", "name": "Niko's - Steak Burgers And Greek Food", "image_url": "https://s3-media4.fl.yelpcdn.com/bphoto/8vWCmdyih3W6IQd_ExG3nw/o.jpg", "is_closed": false, "url": "https://www.yelp.com/biz/nikos-steak-burgers-and-greek-food-vista?adjust_creative=oncXGL2aPIKrtJdnWeFSnA&utm_campaign=yelp_api_v3&utm_medium=api_v3_business_search&utm_source=oncXGL2aPIKrtJdnWeFSnA", "review_count": 192, "categories": [{"alias": "greek", "title": "Greek"}, {"alias": "mediterranean", "title": "Mediterranean"}, {"alias": "burgers", "title": "Burgers"}], "rating": 4.0, "coordinates": {"latitude": 33.14174, "longitude": -117.24283}, "transactions": [], "price": "$", "location": {"address1": "2440 S Melrose Dr", "address2": "", "address3": "", "city": "Vista", "zip_code": "92081", "country": "US", "state": "CA", "display_address": ["2440 S Melrose Dr", "Vista, CA 92081"]}, "phone": "+17605997223", "display_phone": "(760) 599-7223", "distance": 11694.188067455583}, {"id": "LfkK1GwhmLrClBDocIfzYg", "alias": "rubys-diner-carlsbad", "name": "Ruby's Diner", "image_url": "https://s3-media3.fl.yelpcdn.com/bphoto/-prw4rLq-c9tntZ-8y2WHg/o.jpg", "is_closed": false, "url": "https://www.yelp.com/biz/rubys-diner-carlsbad?adjust_creative=oncXGL2aPIKrtJdnWeFSnA&utm_campaign=yelp_api_v3&utm_medium=api_v3_business_search&utm_source=oncXGL2aPIKrtJdnWeFSnA", "review_count": 360, "categories": [{"alias": "tradamerican", "title": "American (Traditional)"}, {"alias": "diners", "title": "Diners"}, {"alias": "burgers", "title": "Burgers"}], "rating": 3.5, "coordinates": {"latitude": 33.1252881900789, "longitude": -117.320700225656}, "transactions": [], "price": "$$", "location": {"address1": "5630 Paseo Del Norte", "address2": "#130 D", "address3": "", "city": "Carlsbad", "zip_code": "92008", "country": "US", "state": "CA", "display_address": ["5630 Paseo Del Norte", "#130 D", "Carlsbad, CA 92008"]}, "phone": "+17609317829", "display_phone": "(760) 931-7829", "distance": 11202.113026907064}, {"id": "He47nIA7DhsJSysiSRHd2Q", "alias": "burger-lounge-carlsbad", "name": "Burger Lounge", "image_url": "https://s3-media4.fl.yelpcdn.com/bphoto/AzsC0MzLX0L8qFfs7ALYkw/o.jpg", "is_closed": false, "url": "https://www.yelp.com/biz/burger-lounge-carlsbad?adjust_creative=oncXGL2aPIKrtJdnWeFSnA&utm_campaign=yelp_api_v3&utm_medium=api_v3_business_search&utm_source=oncXGL2aPIKrtJdnWeFSnA", "review_count": 541, "categories": [{"alias": "burgers", "title": "Burgers"}], "rating": 4.0, "coordinates": {"latitude": 33.1214880019651, "longitude": -117.314118483437}, "transactions": ["pickup"], "price": "$$", "location": {"address1": "961 Palomar Airport Blvd", "address2": "", "address3": "", "city": "Carlsbad", "zip_code": "92011", "country": "US", "state": "CA", "display_address": ["961 Palomar Airport Blvd", "Carlsbad, CA 92011"]}, "phone": "+17606038975", "display_phone": "(760) 603-8975", "distance": 11628.421412903132}, {"id": "OaRp78He0m32EcXteqimsA", "alias": "toms-famous-family-restaurant-vista-4", "name": "Tom's Famous Family Restaurant", "image_url": "https://s3-media1.fl.yelpcdn.com/bphoto/Es5hpZXRelqqkZ1kwQPK8w/o.jpg", "is_closed": false, "url": "https://www.yelp.com/biz/toms-famous-family-restaurant-vista-4?adjust_creative=oncXGL2aPIKrtJdnWeFSnA&utm_campaign=yelp_api_v3&utm_medium=api_v3_business_search&utm_source=oncXGL2aPIKrtJdnWeFSnA", "review_count": 172, "categories": [{"alias": "burgers", "title": "Burgers"}], "rating": 3.5, "coordinates": {"latitude": 33.15664, "longitude": -117.22308}, "transactions": [], "price": "$", "location": {"address1": "1110 Sycamore Ave", "address2": "", "address3": "", "city": "Vista", "zip_code": "92081", "country": "US", "state": "CA", "display_address": ["1110 Sycamore Ave", "Vista, CA 92081"]}, "phone": "+17607274077", "display_phone": "(760) 727-4077", "distance": 11703.705820580784}, {"id": "G4tCExEOux5t1zfyDLjxcA", "alias": "pure-burger-carlsbad", "name": "Pure Burger", "image_url": "https://s3-media4.fl.yelpcdn.com/bphoto/v0Ht-pC-UFPzuYA-Pi4z5Q/o.jpg", "is_closed": false, "url": "https://www.yelp.com/biz/pure-burger-carlsbad?adjust_creative=oncXGL2aPIKrtJdnWeFSnA&utm_campaign=yelp_api_v3&utm_medium=api_v3_business_search&utm_source=oncXGL2aPIKrtJdnWeFSnA", "review_count": 767, "categories": [{"alias": "burgers", "title": "Burgers"}, {"alias": "hotdogs", "title": "Fast Food"}, {"alias": "newamerican", "title": "American (New)"}], "rating": 4.0, "coordinates": {"latitude": 33.1268903, "longitude": -117.2541476}, "transactions": ["delivery", "pickup"], "price": "$$", "location": {"address1": "2641 Gateway Rd", "address2": null, "address3": "", "city": "Carlsbad", "zip_code": "92009", "country": "US", "state": "CA", "display_address": ["2641 Gateway Rd", "Carlsbad, CA 92009"]}, "phone": "+17606835101", "display_phone": "(760) 683-5101", "distance": 12530.031121618473}, {"id": "JUFvFVlWC8NcM-wi0MnVAQ", "alias": "mcdonalds-oceanside-10", "name": "McDonald's", "image_url": "https://s3-media1.fl.yelpcdn.com/bphoto/aD4N3UhoZ9XNVj2EC3ydJw/o.jpg", "is_closed": false, "url": "https://www.yelp.com/biz/mcdonalds-oceanside-10?adjust_creative=oncXGL2aPIKrtJdnWeFSnA&utm_campaign=yelp_api_v3&utm_medium=api_v3_business_search&utm_source=oncXGL2aPIKrtJdnWeFSnA", "review_count": 40, "categories": [{"alias": "hotdogs", "title": "Fast Food"}, {"alias": "burgers", "title": "Burgers"}, {"alias": "coffee", "title": "Coffee & Tea"}], "rating": 2.0, "coordinates": {"latitude": 33.2243291957312, "longitude": -117.333398233177}, "transactions": [], "price": "$", "location": {"address1": "3720 Misson Blvd", "address2": null, "address3": null, "city": "Oceanside", "zip_code": "92054", "country": "US", "state": "CA", "display_address": ["3720 Misson Blvd", "Oceanside, CA 92054"]}, "phone": "+17607578001", "display_phone": "(760) 757-8001", "distance": 1426.769208337851}, {"id": "j8vPTZfjUwBZIKHgyFXP9A", "alias": "in-n-out-burger-carlsbad", "name": "In-N-Out Burger", "image_url": "https://s3-media2.fl.yelpcdn.com/bphoto/EGpILzQjNRdYBPbvLeKing/o.jpg", "is_closed": false, "url": "https://www.yelp.com/biz/in-n-out-burger-carlsbad?adjust_creative=oncXGL2aPIKrtJdnWeFSnA&utm_campaign=yelp_api_v3&utm_medium=api_v3_business_search&utm_source=oncXGL2aPIKrtJdnWeFSnA", "review_count": 377, "categories": [{"alias": "hotdogs", "title": "Fast Food"}, {"alias": "burgers", "title": "Burgers"}], "rating": 4.5, "coordinates": {"latitude": 33.12501, "longitude": -117.32458}, "transactions": [], "price": "$", "location": {"address1": "5950 Avenida Encinas", "address2": "", "address3": "", "city": "Carlsbad", "zip_code": "92008", "country": "US", "state": "CA", "display_address": ["5950 Avenida Encinas", "Carlsbad, CA 92008"]}, "phone": "+18007861000", "display_phone": "(800) 786-1000", "distance": 11240.01624954503}, {"id": "_QGAvJJpQQ04h_OhR3D2tw", "alias": "wendys-oceanside-3", "name": "Wendy's", "image_url": "https://s3-media3.fl.yelpcdn.com/bphoto/1i1xiwKzU3JdJYJqsWonyQ/o.jpg", "is_closed": false, "url": "https://www.yelp.com/biz/wendys-oceanside-3?adjust_creative=oncXGL2aPIKrtJdnWeFSnA&utm_campaign=yelp_api_v3&utm_medium=api_v3_business_search&utm_source=oncXGL2aPIKrtJdnWeFSnA", "review_count": 46, "categories": [{"alias": "hotdogs", "title": "Fast Food"}, {"alias": "burgers", "title": "Burgers"}], "rating": 3.0, "coordinates": {"latitude": 33.1815920618444, "longitude": -117.295728412086}, "transactions": [], "price": "$", "location": {"address1": "3705 Plz Dr", "address2": "", "address3": "", "city": "Oceanside", "zip_code": "92056", "country": "US", "state": "CA", "display_address": ["3705 Plz Dr", "Oceanside, CA 92056"]}, "phone": "+17606306732", "display_phone": "(760) 630-6732", "distance": 5362.973786879676}, {"id": "501GdyLZ5AYg8JKRjuoqmA", "alias": "islands-restaurant-vista", "name": "Islands Restaurant", "image_url": "https://s3-media3.fl.yelpcdn.com/bphoto/_clfs6hUIxH3lv3kO0_WSQ/o.jpg", "is_closed": false, "url": "https://www.yelp.com/biz/islands-restaurant-vista?adjust_creative=oncXGL2aPIKrtJdnWeFSnA&utm_campaign=yelp_api_v3&utm_medium=api_v3_business_search&utm_source=oncXGL2aPIKrtJdnWeFSnA", "review_count": 198, "categories": [{"alias": "burgers", "title": "Burgers"}, {"alias": "sportsbars", "title": "Sports Bars"}, {"alias": "tradamerican", "title": "American (Traditional)"}], "rating": 3.5, "coordinates": {"latitude": 33.192876515762, "longitude": -117.25312089184}, "transactions": ["delivery", "pickup"], "price": "$$", "location": {"address1": "240 S Melrose Dr", "address2": "", "address3": "", "city": "Vista", "zip_code": "92081", "country": "US", "state": "CA", "display_address": ["240 S Melrose Dr", "Vista, CA 92081"]}, "phone": "+17606311535", "display_phone": "(760) 631-1535", "distance": 7086.713754922942}, {"id": "dv22FOjWDEC0VKiyl4L29A", "alias": "wendys-oceanside-2", "name": "Wendy's", "image_url": "https://s3-media2.fl.yelpcdn.com/bphoto/Exs_uAW2HOrRu9LEPMSsug/o.jpg", "is_closed": false, "url": "https://www.yelp.com/biz/wendys-oceanside-2?adjust_creative=oncXGL2aPIKrtJdnWeFSnA&utm_campaign=yelp_api_v3&utm_medium=api_v3_business_search&utm_source=oncXGL2aPIKrtJdnWeFSnA", "review_count": 11, "categories": [{"alias": "hotdogs", "title": "Fast Food"}, {"alias": "burgers", "title": "Burgers"}], "rating": 4.0, "coordinates": {"latitude": 33.27155, "longitude": -117.29619}, "transactions": [], "price": "$", "location": {"address1": "13030 Vandegrift Blvd", "address2": "", "address3": "", "city": "Oceanside", "zip_code": "92058", "country": "US", "state": "CA", "display_address": ["13030 Vandegrift Blvd", "Oceanside, CA 92058"]}, "phone": "", "display_phone": "", "distance": 8388.222943020595}, {"id": "talSXJN1clZe0t-rXdEtpg", "alias": "mcdonalds-oceanside-8", "name": "McDonald's", "image_url": "https://s3-media2.fl.yelpcdn.com/bphoto/cvIPHzVfizgKiItx4jm2Dw/o.jpg", "is_closed": false, "url": "https://www.yelp.com/biz/mcdonalds-oceanside-8?adjust_creative=oncXGL2aPIKrtJdnWeFSnA&utm_campaign=yelp_api_v3&utm_medium=api_v3_business_search&utm_source=oncXGL2aPIKrtJdnWeFSnA", "review_count": 60, "categories": [{"alias": "burgers", "title": "Burgers"}, {"alias": "hotdogs", "title": "Fast Food"}, {"alias": "coffee", "title": "Coffee & Tea"}], "rating": 2.5, "coordinates": {"latitude": 33.2320154472568, "longitude": -117.308245897293}, "transactions": [], "price": "$", "location": {"address1": "185 Old Grove Rd", "address2": "", "address3": "", "city": "Oceanside", "zip_code": "92057", "country": "US", "state": "CA", "display_address": ["185 Old Grove Rd", "Oceanside, CA 92057"]}, "phone": "+17604359826", "display_phone": "(760) 435-9826", "distance": 1140.9496354282207}, {"id": "csNW54osOD5PfAeQjkOmlg", "alias": "mcdonalds-oceanside-3", "name": "McDonald's", "image_url": "https://s3-media2.fl.yelpcdn.com/bphoto/NTV_k_SWB3Pm9_BfhvWd_g/o.jpg", "is_closed": false, "url": "https://www.yelp.com/biz/mcdonalds-oceanside-3?adjust_creative=oncXGL2aPIKrtJdnWeFSnA&utm_campaign=yelp_api_v3&utm_medium=api_v3_business_search&utm_source=oncXGL2aPIKrtJdnWeFSnA", "review_count": 49, "categories": [{"alias": "burgers", "title": "Burgers"}, {"alias": "hotdogs", "title": "Fast Food"}, {"alias": "coffee", "title": "Coffee & Tea"}], "rating": 2.0, "coordinates": {"latitude": 33.2463989048185, "longitude": -117.291406566155}, "transactions": [], "price": "$", "location": {"address1": "487 College Blvd", "address2": "", "address3": "", "city": "Oceanside", "zip_code": "92057", "country": "US", "state": "CA", "display_address": ["487 College Blvd", "Oceanside, CA 92057"]}, "phone": "+17607587323", "display_phone": "(760) 758-7323", "distance": 3368.383867550189}, {"id": "6l1p5gVlYh98JAKwv7QUdA", "alias": "islands-restaurant-carlsbad-2", "name": "Islands Restaurant", "image_url": "https://s3-media3.fl.yelpcdn.com/bphoto/2EJr8vpu9UBE_w6nqWBs1Q/o.jpg", "is_closed": false, "url": "https://www.yelp.com/biz/islands-restaurant-carlsbad-2?adjust_creative=oncXGL2aPIKrtJdnWeFSnA&utm_campaign=yelp_api_v3&utm_medium=api_v3_business_search&utm_source=oncXGL2aPIKrtJdnWeFSnA", "review_count": 302, "categories": [{"alias": "burgers", "title": "Burgers"}, {"alias": "sportsbars", "title": "Sports Bars"}, {"alias": "tradamerican", "title": "American (Traditional)"}], "rating": 3.5, "coordinates": {"latitude": 33.12166, "longitude": -117.32028}, "transactions": [], "price": "$$", "location": {"address1": "889 Palomar Airport Rd", "address2": "", "address3": "", "city": "Carlsbad", "zip_code": "92011", "country": "US", "state": "CA", "display_address": ["889 Palomar Airport Rd", "Carlsbad, CA 92011"]}, "phone": "+17606029898", "display_phone": "(760) 602-9898", "distance": 11615.443073915647}, {"id": "377o4wUSJE7PitmszwOuCQ", "alias": "miracosta-caf\u00e9-oceanside-2", "name": "MiraCosta Caf\u00e9", "image_url": "https://s3-media1.fl.yelpcdn.com/bphoto/B6NKeKTLs1faiQSXy4HgOA/o.jpg", "is_closed": false, "url": "https://www.yelp.com/biz/miracosta-caf%C3%A9-oceanside-2?adjust_creative=oncXGL2aPIKrtJdnWeFSnA&utm_campaign=yelp_api_v3&utm_medium=api_v3_business_search&utm_source=oncXGL2aPIKrtJdnWeFSnA", "review_count": 5, "categories": [{"alias": "breakfast_brunch", "title": "Breakfast & Brunch"}, {"alias": "sandwiches", "title": "Sandwiches"}, {"alias": "burgers", "title": "Burgers"}], "rating": 4.0, "coordinates": {"latitude": 33.1895572726272, "longitude": -117.301067478523}, "transactions": [], "location": {"address1": "1 Barnard Dr", "address2": "Bldg 3400", "address3": null, "city": "Oceanside", "zip_code": "92056", "country": "US", "state": "CA", "display_address": ["1 Barnard Dr", "Bldg 3400", "Oceanside, CA 92056"]}, "phone": "+17607956886", "display_phone": "(760) 795-6886", "distance": 4268.391777201408}, {"id": "V7x-aOGm0W4q9IqhObOgcw", "alias": "chili-coast-burgers-vista", "name": "Chili Coast Burgers", "image_url": "https://s3-media4.fl.yelpcdn.com/bphoto/gqJZ-OaDTci8IJ8Xz-lWrQ/o.jpg", "is_closed": false, "url": "https://www.yelp.com/biz/chili-coast-burgers-vista?adjust_creative=oncXGL2aPIKrtJdnWeFSnA&utm_campaign=yelp_api_v3&utm_medium=api_v3_business_search&utm_source=oncXGL2aPIKrtJdnWeFSnA", "review_count": 155, "categories": [{"alias": "burgers", "title": "Burgers"}, {"alias": "tradamerican", "title": "American (Traditional)"}, {"alias": "bars", "title": "Bars"}], "rating": 3.5, "coordinates": {"latitude": 33.2186658, "longitude": -117.2260933}, "transactions": [], "price": "$", "location": {"address1": "1330 E Vista Way", "address2": "Ste 1", "address3": "", "city": "Vista", "zip_code": "92084", "country": "US", "state": "CA", "display_address": ["1330 E Vista Way", "Ste 1", "Vista, CA 92084"]}, "phone": "+17607261187", "display_phone": "(760) 726-1187", "distance": 8605.814503045798}, {"id": "05n5yzpWfVlCKs_N7M5toQ", "alias": "notorious-burgers-carlsbad", "name": "Notorious Burgers", "image_url": "https://s3-media1.fl.yelpcdn.com/bphoto/9I81nPkvp7kft_bycXSexQ/o.jpg", "is_closed": false, "url": "https://www.yelp.com/biz/notorious-burgers-carlsbad?adjust_creative=oncXGL2aPIKrtJdnWeFSnA&utm_campaign=yelp_api_v3&utm_medium=api_v3_business_search&utm_source=oncXGL2aPIKrtJdnWeFSnA", "review_count": 513, "categories": [{"alias": "burgers", "title": "Burgers"}, {"alias": "newamerican", "title": "American (New)"}], "rating": 3.5, "coordinates": {"latitude": 33.1026591964047, "longitude": -117.268585748971}, "transactions": ["delivery", "pickup"], "price": "$$", "location": {"address1": "6955 El Camino Real", "address2": "Ste 107", "address3": "", "city": "Carlsbad", "zip_code": "92009", "country": "US", "state": "CA", "display_address": ["6955 El Camino Real", "Ste 107", "Carlsbad, CA 92009"]}, "phone": "+17604312929", "display_phone": "(760) 431-2929", "distance": 14472.261880086198}], "total": 121, "region": {"center": {"longitude": -117.31819152832031, "latitude": 33.226009439623446}}}