{"businesses": [{"id": "se6I82hboPmzAK-xY3QNcA", "alias": "wingstop-oceanside-2", "name": "Wingstop", "image_url": "https://s3-media4.fl.yelpcdn.com/bphoto/2Uf_WGtoWD3jyhJEptvQbg/o.jpg", "is_closed": false, "url": "https://www.yelp.com/biz/wingstop-oceanside-2?adjust_creative=oncXGL2aPIKrtJdnWeFSnA&utm_campaign=yelp_api_v3&utm_medium=api_v3_business_search&utm_source=oncXGL2aPIKrtJdnWeFSnA", "review_count": 54, "categories": [{"alias": "chicken_wings", "title": "Chicken Wings"}], "rating": 2.5, "coordinates": {"latitude": 33.226643, "longitude": -117.326399}, "transactions": [], "location": {"address1": "35 Douglas Dr, Ste 100", "address2": null, "address3": null, "city": "Oceanside", "zip_code": "92058", "country": "US", "state": "CA", "display_address": ["35 Douglas Dr, Ste 100", "Oceanside, CA 92058"]}, "phone": "+17605635500", "display_phone": "(760) 563-5500", "distance": 678.8526797970576}, {"id": "MM6uxCzBjCTwKzfFYbagrw", "alias": "the-draft-restaurant-and-sports-bar-oceanside", "name": "The Draft Restaurant & Sports Bar", "image_url": "https://s3-media3.fl.yelpcdn.com/bphoto/d4FSDA0x6Ah5EnlC0T7iQA/o.jpg", "is_closed": false, "url": "https://www.yelp.com/biz/the-draft-restaurant-and-sports-bar-oceanside?adjust_creative=oncXGL2aPIKrtJdnWeFSnA&utm_campaign=yelp_api_v3&utm_medium=api_v3_business_search&utm_source=oncXGL2aPIKrtJdnWeFSnA", "review_count": 356, "categories": [{"alias": "chicken_wings", "title": "Chicken Wings"}, {"alias": "pizza", "title": "Pizza"}, {"alias": "sportsbars", "title": "Sports Bars"}], "rating": 3.5, "coordinates": {"latitude": 33.2070946797679, "longitude": -117.283067769815}, "transactions": ["pickup"], "price": "$$", "location": {"address1": "4225 Oceanside Blvd", "address2": "", "address3": "", "city": "Oceanside", "zip_code": "92056", "country": "US", "state": "CA", "display_address": ["4225 Oceanside Blvd", "Oceanside, CA 92056"]}, "phone": "+17606314700", "display_phone": "(760) 631-4700", "distance": 3885.8275259394272}, {"id": "WgUPFeYI9-7bsXDrmqSD7A", "alias": "buffalo-wild-wings-oceanside", "name": "Buffalo Wild Wings", "image_url": "https://s3-media4.fl.yelpcdn.com/bphoto/5yNQI-ndBhTNO6vkcnuERA/o.jpg", "is_closed": false, "url": "https://www.yelp.com/biz/buffalo-wild-wings-oceanside?adjust_creative=oncXGL2aPIKrtJdnWeFSnA&utm_campaign=yelp_api_v3&utm_medium=api_v3_business_search&utm_source=oncXGL2aPIKrtJdnWeFSnA", "review_count": 414, "categories": [{"alias": "tradamerican", "title": "American (Traditional)"}, {"alias": "chicken_wings", "title": "Chicken Wings"}, {"alias": "sportsbars", "title": "Sports Bars"}], "rating": 2.5, "coordinates": {"latitude": 33.1818873475662, "longitude": -117.329193949699}, "transactions": ["delivery"], "price": "$$", "location": {"address1": "2685 Vista Way", "address2": "", "address3": "", "city": "Oceanside", "zip_code": "92054", "country": "US", "state": "CA", "display_address": ["2685 Vista Way", "Oceanside, CA 92054"]}, "phone": "+17609662605", "display_phone": "(760) 966-2605", "distance": 5011.802505405409}, {"id": "YldZra2KWQQKd2tzoD4CVg", "alias": "epic-wings-n-things-oceanside", "name": "Epic Wings N Things", "image_url": "https://s3-media3.fl.yelpcdn.com/bphoto/u0WtQ-S5V0zzM0Tdo2Tcqg/o.jpg", "is_closed": false, "url": "https://www.yelp.com/biz/epic-wings-n-things-oceanside?adjust_creative=oncXGL2aPIKrtJdnWeFSnA&utm_campaign=yelp_api_v3&utm_medium=api_v3_business_search&utm_source=oncXGL2aPIKrtJdnWeFSnA", "review_count": 203, "categories": [{"alias": "chicken_wings", "title": "Chicken Wings"}], "rating": 3.0, "coordinates": {"latitude": 33.18257985505, "longitude": -117.33203803187}, "transactions": [], "price": "$", "location": {"address1": "2525 Vista Way", "address2": "Ste A", "address3": "", "city": "Oceanside", "zip_code": "92054", "country": "US", "state": "CA", "display_address": ["2525 Vista Way", "Ste A", "Oceanside, CA 92054"]}, "phone": "+17607228895", "display_phone": "(760) 722-8895", "distance": 4998.026507260495}, {"id": "4Gsu6bVvktyRh4Q0GxHOrA", "alias": "wings-mix-vista", "name": "Wings Mix", "image_url": "https://s3-media2.fl.yelpcdn.com/bphoto/0uo253HX4zA2k9kac06wLw/o.jpg", "is_closed": false, "url": "https://www.yelp.com/biz/wings-mix-vista?adjust_creative=oncXGL2aPIKrtJdnWeFSnA&utm_campaign=yelp_api_v3&utm_medium=api_v3_business_search&utm_source=oncXGL2aPIKrtJdnWeFSnA", "review_count": 51, "categories": [{"alias": "chicken_wings", "title": "Chicken Wings"}, {"alias": "mexican", "title": "Mexican"}, {"alias": "burgers", "title": "Burgers"}], "rating": 4.0, "coordinates": {"latitude": 33.193717956543, "longitude": -117.23127746582}, "transactions": [], "price": "$", "location": {"address1": "962 S Santa Fe Ave", "address2": "", "address3": null, "city": "Vista", "zip_code": "92084", "country": "US", "state": "CA", "display_address": ["962 S Santa Fe Ave", "Vista, CA 92084"]}, "phone": "+17609418691", "display_phone": "(760) 941-8691", "distance": 8844.681869950296}, {"id": "Jp467vA2j5p5DhGs36sZ2A", "alias": "popeyes-louisiana-kitchen-oceanside", "name": "Popeyes Louisiana Kitchen", "image_url": "https://s3-media3.fl.yelpcdn.com/bphoto/tLclRZf7U_cJPOqP7FHpEQ/o.jpg", "is_closed": false, "url": "https://www.yelp.com/biz/popeyes-louisiana-kitchen-oceanside?adjust_creative=oncXGL2aPIKrtJdnWeFSnA&utm_campaign=yelp_api_v3&utm_medium=api_v3_business_search&utm_source=oncXGL2aPIKrtJdnWeFSnA", "review_count": 75, "categories": [{"alias": "hotdogs", "title": "Fast Food"}, {"alias": "chicken_wings", "title": "Chicken Wings"}], "rating": 2.0, "coordinates": {"latitude": 33.2567978528058, "longitude": -117.29944245121}, "transactions": [], "price": "$", "location": {"address1": "511 Vandegrift Blvd", "address2": "", "address3": "", "city": "Oceanside", "zip_code": "92057", "country": "US", "state": "CA", "display_address": ["511 Vandegrift Blvd", "Oceanside, CA 92057"]}, "phone": "+17607579150", "display_phone": "(760) 757-9150", "distance": 3841.97659678475}, {"id": "oBq9xWDhVeEv24bzNmcj8A", "alias": "wingstop-vista", "name": "Wingstop", "image_url": "https://s3-media2.fl.yelpcdn.com/bphoto/-9MXZXgdxuqBRsfNSWALXg/o.jpg", "is_closed": false, "url": "https://www.yelp.com/biz/wingstop-vista?adjust_creative=oncXGL2aPIKrtJdnWeFSnA&utm_campaign=yelp_api_v3&utm_medium=api_v3_business_search&utm_source=oncXGL2aPIKrtJdnWeFSnA", "review_count": 143, "categories": [{"alias": "chicken_wings", "title": "Chicken Wings"}], "rating": 3.5, "coordinates": {"latitude": 33.1923215, "longitude": -117.2518236}, "transactions": [], "price": "$", "location": {"address1": "510 Hacienda Dr", "address2": "", "address3": "", "city": "Vista", "zip_code": "92081", "country": "US", "state": "CA", "display_address": ["510 Hacienda Dr", "Vista, CA 92081"]}, "phone": "+17604149464", "display_phone": "(760) 414-9464", "distance": 7221.921664254972}, {"id": "WTF19rg16ufVuYuOlAxc2w", "alias": "popeyes-louisiana-kitchen-vista-2", "name": "Popeyes Louisiana Kitchen", "image_url": "https://s3-media1.fl.yelpcdn.com/bphoto/eeuXGelz9FnHDyC3A6qO3w/o.jpg", "is_closed": false, "url": "https://www.yelp.com/biz/popeyes-louisiana-kitchen-vista-2?adjust_creative=oncXGL2aPIKrtJdnWeFSnA&utm_campaign=yelp_api_v3&utm_medium=api_v3_business_search&utm_source=oncXGL2aPIKrtJdnWeFSnA", "review_count": 119, "categories": [{"alias": "hotdogs", "title": "Fast Food"}, {"alias": "chicken_wings", "title": "Chicken Wings"}], "rating": 3.5, "coordinates": {"latitude": 33.1889182654643, "longitude": -117.280109350946}, "transactions": [], "price": "$", "location": {"address1": "1817 W Vista Way", "address2": "", "address3": "", "city": "Vista", "zip_code": "92083", "country": "US", "state": "CA", "display_address": ["1817 W Vista Way", "Vista, CA 92083"]}, "phone": "+17607323405", "display_phone": "(760) 732-3405", "distance": 5386.2128625285}, {"id": "QW3CunRu2rNB9l7X847lEA", "alias": "churchs-chicken-oceanside", "name": "Church's Chicken", "image_url": "https://s3-media2.fl.yelpcdn.com/bphoto/hprFKZRodbXroVGCROK-4Q/o.jpg", "is_closed": false, "url": "https://www.yelp.com/biz/churchs-chicken-oceanside?adjust_creative=oncXGL2aPIKrtJdnWeFSnA&utm_campaign=yelp_api_v3&utm_medium=api_v3_business_search&utm_source=oncXGL2aPIKrtJdnWeFSnA", "review_count": 68, "categories": [{"alias": "hotdogs", "title": "Fast Food"}, {"alias": "chicken_wings", "title": "Chicken Wings"}], "rating": 2.0, "coordinates": {"latitude": 33.1838864, "longitude": -117.3690057}, "transactions": [], "price": "$", "location": {"address1": "510 Oceanside Blvd", "address2": "", "address3": "", "city": "Oceanside", "zip_code": "92054", "country": "US", "state": "CA", "display_address": ["510 Oceanside Blvd", "Oceanside, CA 92054"]}, "phone": "+17604395636", "display_phone": "(760) 439-5636", "distance": 6662.9172019248645}, {"id": "ptaF8CBiNWMyd9TurD3RbQ", "alias": "kfc-oceanside-2", "name": "KFC", "image_url": "https://s3-media1.fl.yelpcdn.com/bphoto/9T5sq2nNJArl3Giu23EBIQ/o.jpg", "is_closed": false, "url": "https://www.yelp.com/biz/kfc-oceanside-2?adjust_creative=oncXGL2aPIKrtJdnWeFSnA&utm_campaign=yelp_api_v3&utm_medium=api_v3_business_search&utm_source=oncXGL2aPIKrtJdnWeFSnA", "review_count": 34, "categories": [{"alias": "hotdogs", "title": "Fast Food"}, {"alias": "chicken_wings", "title": "Chicken Wings"}, {"alias": "chickenshop", "title": "Chicken Shop"}], "rating": 2.5, "coordinates": {"latitude": 33.2063, "longitude": -117.289}, "transactions": ["delivery"], "price": "$", "location": {"address1": "4100 Oceanside Blvd", "address2": "", "address3": "", "city": "Oceanside", "zip_code": "92056", "country": "US", "state": "CA", "display_address": ["4100 Oceanside Blvd", "Oceanside, CA 92056"]}, "phone": "+17606309600", "display_phone": "(760) 630-9600", "distance": 3489.6257121008334}, {"id": "phEUoIcACT5PWHDbL27t2w", "alias": "pizza-hut-oceanside-3", "name": "Pizza Hut", "image_url": "https://s3-media1.fl.yelpcdn.com/bphoto/GSktTdUfxFjlU6_GPrcYsw/o.jpg", "is_closed": false, "url": "https://www.yelp.com/biz/pizza-hut-oceanside-3?adjust_creative=oncXGL2aPIKrtJdnWeFSnA&utm_campaign=yelp_api_v3&utm_medium=api_v3_business_search&utm_source=oncXGL2aPIKrtJdnWeFSnA", "review_count": 34, "categories": [{"alias": "pizza", "title": "Pizza"}, {"alias": "italian", "title": "Italian"}, {"alias": "chicken_wings", "title": "Chicken Wings"}], "rating": 2.5, "coordinates": {"latitude": 33.2555999755859, "longitude": -117.300163269043}, "transactions": [], "price": "$", "location": {"address1": "610 North Redondo Dr", "address2": "", "address3": "", "city": "Oceanside", "zip_code": "92057", "country": "US", "state": "CA", "display_address": ["610 North Redondo Dr", "Oceanside, CA 92057"]}, "phone": "+17604334433", "display_phone": "(760) 433-4433", "distance": 3681.4054189847693}, {"id": "kNNt-y6MUZY5HVQ1AFXoBQ", "alias": "kfc-oceanside", "name": "KFC", "image_url": "https://s3-media3.fl.yelpcdn.com/bphoto/ky7vtpPJo9PAer-kkv5rRA/o.jpg", "is_closed": false, "url": "https://www.yelp.com/biz/kfc-oceanside?adjust_creative=oncXGL2aPIKrtJdnWeFSnA&utm_campaign=yelp_api_v3&utm_medium=api_v3_business_search&utm_source=oncXGL2aPIKrtJdnWeFSnA", "review_count": 52, "categories": [{"alias": "hotdogs", "title": "Fast Food"}, {"alias": "chicken_wings", "title": "Chicken Wings"}, {"alias": "chickenshop", "title": "Chicken Shop"}], "rating": 1.5, "coordinates": {"latitude": 33.2238824094632, "longitude": -117.332548979286}, "transactions": ["delivery"], "price": "$$", "location": {"address1": "3747 Mission Ave", "address2": "", "address3": "", "city": "Oceanside", "zip_code": "92058", "country": "US", "state": "CA", "display_address": ["3747 Mission Ave", "Oceanside, CA 92058"]}, "phone": "+17607224196", "display_phone": "(760) 722-4196", "distance": 1356.2732932287772}, {"id": "R0_KuUxme1AWKgtMaGfYCA", "alias": "the-regal-seagull-encinitas", "name": "The Regal Seagull", "image_url": "https://s3-media1.fl.yelpcdn.com/bphoto/Z58VioFNlAvfzvT4BYgJCQ/o.jpg", "is_closed": false, "url": "https://www.yelp.com/biz/the-regal-seagull-encinitas?adjust_creative=oncXGL2aPIKrtJdnWeFSnA&utm_campaign=yelp_api_v3&utm_medium=api_v3_business_search&utm_source=oncXGL2aPIKrtJdnWeFSnA", "review_count": 253, "categories": [{"alias": "newamerican", "title": "American (New)"}, {"alias": "pubs", "title": "Pubs"}, {"alias": "chicken_wings", "title": "Chicken Wings"}], "rating": 4.0, "coordinates": {"latitude": 33.0659952943969, "longitude": -117.30298474431}, "transactions": [], "price": "$$", "location": {"address1": "996 N Coast Hwy 101", "address2": "", "address3": "", "city": "Encinitas", "zip_code": "92024", "country": "US", "state": "CA", "display_address": ["996 N Coast Hwy 101", "Encinitas, CA 92024"]}, "phone": "+17604792337", "display_phone": "(760) 479-2337", "distance": 17848.9788869856}, {"id": "uddjyaO5vv9ms3kcj9zesw", "alias": "epic-wings-n-things-vista", "name": "Epic Wings N Things", "image_url": "https://s3-media2.fl.yelpcdn.com/bphoto/lBvbPSAYLpPNg1_xlRh2Rg/o.jpg", "is_closed": false, "url": "https://www.yelp.com/biz/epic-wings-n-things-vista?adjust_creative=oncXGL2aPIKrtJdnWeFSnA&utm_campaign=yelp_api_v3&utm_medium=api_v3_business_search&utm_source=oncXGL2aPIKrtJdnWeFSnA", "review_count": 124, "categories": [{"alias": "chicken_wings", "title": "Chicken Wings"}], "rating": 3.0, "coordinates": {"latitude": 33.2010618, "longitude": -117.244046}, "transactions": [], "price": "$", "location": {"address1": "35 Main St", "address2": "Ste C140", "address3": null, "city": "Vista", "zip_code": "92083", "country": "US", "state": "CA", "display_address": ["35 Main St", "Ste C140", "Vista, CA 92083"]}, "phone": "+17608069464", "display_phone": "(760) 806-9464", "distance": 7416.1654287990905}, {"id": "bVYYT_Lltr4DzUEArmwvhQ", "alias": "pizza-hut-oceanside-5", "name": "Pizza Hut", "image_url": "https://s3-media3.fl.yelpcdn.com/bphoto/I7OiBIb04Vkf-cGHHZhCiQ/o.jpg", "is_closed": false, "url": "https://www.yelp.com/biz/pizza-hut-oceanside-5?adjust_creative=oncXGL2aPIKrtJdnWeFSnA&utm_campaign=yelp_api_v3&utm_medium=api_v3_business_search&utm_source=oncXGL2aPIKrtJdnWeFSnA", "review_count": 27, "categories": [{"alias": "pizza", "title": "Pizza"}, {"alias": "italian", "title": "Italian"}, {"alias": "chicken_wings", "title": "Chicken Wings"}], "rating": 2.0, "coordinates": {"latitude": 33.2081985, "longitude": -117.2858429}, "transactions": [], "price": "$", "location": {"address1": "4170 Oceanside Blvd", "address2": "Ste 191", "address3": "", "city": "Oceanside", "zip_code": "92056", "country": "US", "state": "CA", "display_address": ["4170 Oceanside Blvd", "Ste 191", "Oceanside, CA 92056"]}, "phone": "+17606310078", "display_phone": "(760) 631-0078", "distance": 3622.3146595657595}, {"id": "BEifR3zRVbpFh62zq3QFJA", "alias": "kfc-oceanside-7", "name": "KFC", "image_url": "https://s3-media3.fl.yelpcdn.com/bphoto/xd-GUKBybn8ebnZnFfvzwA/o.jpg", "is_closed": false, "url": "https://www.yelp.com/biz/kfc-oceanside-7?adjust_creative=oncXGL2aPIKrtJdnWeFSnA&utm_campaign=yelp_api_v3&utm_medium=api_v3_business_search&utm_source=oncXGL2aPIKrtJdnWeFSnA", "review_count": 17, "categories": [{"alias": "hotdogs", "title": "Fast Food"}, {"alias": "chicken_wings", "title": "Chicken Wings"}, {"alias": "chickenshop", "title": "Chicken Shop"}], "rating": 2.5, "coordinates": {"latitude": 33.2042, "longitude": -117.364}, "transactions": [], "price": "$", "location": {"address1": "2007 Mission Ave", "address2": null, "address3": null, "city": "Oceanside", "zip_code": "92054", "country": "US", "state": "CA", "display_address": ["2007 Mission Ave", "Oceanside, CA 92054"]}, "phone": "+17607577514", "display_phone": "(760) 757-7514", "distance": 4903.1765109960215}, {"id": "YA5eK0Dpu5E4fjrm8q0A1Q", "alias": "hooters-san-marcos", "name": "Hooters", "image_url": "https://s3-media3.fl.yelpcdn.com/bphoto/APNPk1SsiuUEH8YZOgbvwA/o.jpg", "is_closed": false, "url": "https://www.yelp.com/biz/hooters-san-marcos?adjust_creative=oncXGL2aPIKrtJdnWeFSnA&utm_campaign=yelp_api_v3&utm_medium=api_v3_business_search&utm_source=oncXGL2aPIKrtJdnWeFSnA", "review_count": 339, "categories": [{"alias": "sportsbars", "title": "Sports Bars"}, {"alias": "tradamerican", "title": "American (Traditional)"}, {"alias": "chicken_wings", "title": "Chicken Wings"}], "rating": 2.5, "coordinates": {"latitude": 33.1341361999512, "longitude": -117.120719909668}, "transactions": ["delivery", "pickup"], "price": "$$", "location": {"address1": "775 Center Dr", "address2": "", "address3": "", "city": "San Marcos", "zip_code": "92069", "country": "US", "state": "CA", "display_address": ["775 Center Dr", "San Marcos, CA 92069"]}, "phone": "+18584516000", "display_phone": "(858) 451-6000", "distance": 21026.23760204267}, {"id": "ssz7s1CpGeXprObDTKn2qQ", "alias": "pizza-hut-oceanside-2", "name": "Pizza Hut", "image_url": "https://s3-media1.fl.yelpcdn.com/bphoto/lF-3NPtlV2mHcTQyPMr2GQ/o.jpg", "is_closed": false, "url": "https://www.yelp.com/biz/pizza-hut-oceanside-2?adjust_creative=oncXGL2aPIKrtJdnWeFSnA&utm_campaign=yelp_api_v3&utm_medium=api_v3_business_search&utm_source=oncXGL2aPIKrtJdnWeFSnA", "review_count": 43, "categories": [{"alias": "pizza", "title": "Pizza"}, {"alias": "italian", "title": "Italian"}, {"alias": "chicken_wings", "title": "Chicken Wings"}], "rating": 2.5, "coordinates": {"latitude": 33.1926885992289, "longitude": -117.358136996627}, "transactions": [], "price": "$", "location": {"address1": "1836 Oceanside Blvd", "address2": "Ste B", "address3": "", "city": "Oceanside", "zip_code": "92054", "country": "US", "state": "CA", "display_address": ["1836 Oceanside Blvd", "Ste B", "Oceanside, CA 92054"]}, "phone": "+17607213900", "display_phone": "(760) 721-3900", "distance": 5181.640981102976}, {"id": "B2opzGJ5QPVo4Sx3W5giWw", "alias": "carlsbad-pizza-by-the-slice-carlsbad-2", "name": "Carlsbad Pizza by the Slice", "image_url": "https://s3-media1.fl.yelpcdn.com/bphoto/G5yKlnEPLn5IP8shqPFZ6g/o.jpg", "is_closed": false, "url": "https://www.yelp.com/biz/carlsbad-pizza-by-the-slice-carlsbad-2?adjust_creative=oncXGL2aPIKrtJdnWeFSnA&utm_campaign=yelp_api_v3&utm_medium=api_v3_business_search&utm_source=oncXGL2aPIKrtJdnWeFSnA", "review_count": 84, "categories": [{"alias": "pizza", "title": "Pizza"}, {"alias": "chicken_wings", "title": "Chicken Wings"}], "rating": 4.0, "coordinates": {"latitude": 33.1358124, "longitude": -117.2878189}, "transactions": ["delivery", "pickup"], "price": "$", "location": {"address1": "5812 Van Allen Way", "address2": "Ste 130", "address3": "", "city": "Carlsbad", "zip_code": "92008", "country": "US", "state": "CA", "display_address": ["5812 Van Allen Way", "Ste 130", "Carlsbad, CA 92008"]}, "phone": "+17604318704", "display_phone": "(760) 431-8704", "distance": 10420.143168991528}, {"id": "RwcxtbIeri6WWTH8Kg3UQA", "alias": "buffalo-wild-wings-san-marcos", "name": "Buffalo Wild Wings", "image_url": "https://s3-media1.fl.yelpcdn.com/bphoto/rj6-1dU4HCYp3d-uvWm7XA/o.jpg", "is_closed": false, "url": "https://www.yelp.com/biz/buffalo-wild-wings-san-marcos?adjust_creative=oncXGL2aPIKrtJdnWeFSnA&utm_campaign=yelp_api_v3&utm_medium=api_v3_business_search&utm_source=oncXGL2aPIKrtJdnWeFSnA", "review_count": 302, "categories": [{"alias": "sportsbars", "title": "Sports Bars"}, {"alias": "tradamerican", "title": "American (Traditional)"}, {"alias": "chicken_wings", "title": "Chicken Wings"}], "rating": 2.5, "coordinates": {"latitude": 33.135139, "longitude": -117.188925}, "transactions": ["delivery"], "price": "$$", "location": {"address1": "1010 San Marcos Blvd", "address2": "", "address3": "", "city": "San Marcos", "zip_code": "92078", "country": "US", "state": "CA", "display_address": ["1010 San Marcos Blvd", "San Marcos, CA 92078"]}, "phone": "+17604711802", "display_phone": "(760) 471-1802", "distance": 15710.539538357036}, {"id": "Iafl-0Y7J0ir0UgAvWOHww", "alias": "harrys-sports-bar-and-grill-fallbrook", "name": "Harry's Sports Bar & Grill", "image_url": "https://s3-media4.fl.yelpcdn.com/bphoto/H_fYf_VaW7QDnP9Zn6N1jw/o.jpg", "is_closed": false, "url": "https://www.yelp.com/biz/harrys-sports-bar-and-grill-fallbrook?adjust_creative=oncXGL2aPIKrtJdnWeFSnA&utm_campaign=yelp_api_v3&utm_medium=api_v3_business_search&utm_source=oncXGL2aPIKrtJdnWeFSnA", "review_count": 37, "categories": [{"alias": "sportsbars", "title": "Sports Bars"}, {"alias": "chicken_wings", "title": "Chicken Wings"}, {"alias": "sandwiches", "title": "Sandwiches"}], "rating": 4.0, "coordinates": {"latitude": 33.3816055, "longitude": -117.2515049}, "transactions": [], "price": "$$", "location": {"address1": "125 S Main Ave", "address2": "", "address3": null, "city": "Fallbrook", "zip_code": "92028", "country": "US", "state": "CA", "display_address": ["125 S Main Ave", "Fallbrook, CA 92028"]}, "phone": "+17604512000", "display_phone": "(760) 451-2000", "distance": 18375.284928337456}, {"id": "ndt0g1_wcYRp3A0b85YkTw", "alias": "tasty-pizza-vista", "name": "Tasty Pizza", "image_url": "https://s3-media1.fl.yelpcdn.com/bphoto/TnntofWU1pDROl_Ve3-IlA/o.jpg", "is_closed": false, "url": "https://www.yelp.com/biz/tasty-pizza-vista?adjust_creative=oncXGL2aPIKrtJdnWeFSnA&utm_campaign=yelp_api_v3&utm_medium=api_v3_business_search&utm_source=oncXGL2aPIKrtJdnWeFSnA", "review_count": 28, "categories": [{"alias": "pizza", "title": "Pizza"}, {"alias": "chicken_wings", "title": "Chicken Wings"}], "rating": 4.0, "coordinates": {"latitude": 33.2225075, "longitude": -117.2259979}, "transactions": ["delivery", "pickup"], "price": "$", "location": {"address1": "1591 E Vista Way", "address2": "", "address3": "", "city": "Vista", "zip_code": "92084", "country": "US", "state": "CA", "display_address": ["1591 E Vista Way", "Vista, CA 92084"]}, "phone": "+17608428799", "display_phone": "(760) 842-8799", "distance": 8697.801829488071}, {"id": "1Ovh9CmQbPTxuZt15KwS-w", "alias": "epic-wings-n-things-san-marcos", "name": "Epic Wings N Things", "image_url": "https://s3-media1.fl.yelpcdn.com/bphoto/-WQYQOfd9EdMCnyAWXGz7w/o.jpg", "is_closed": false, "url": "https://www.yelp.com/biz/epic-wings-n-things-san-marcos?adjust_creative=oncXGL2aPIKrtJdnWeFSnA&utm_campaign=yelp_api_v3&utm_medium=api_v3_business_search&utm_source=oncXGL2aPIKrtJdnWeFSnA", "review_count": 87, "categories": [{"alias": "chicken_wings", "title": "Chicken Wings"}], "rating": 3.5, "coordinates": {"latitude": 33.1304467, "longitude": -117.1650468}, "transactions": [], "price": "$", "location": {"address1": "324 South Twin Oaks Valley Rd", "address2": null, "address3": "", "city": "San Marcos", "zip_code": "92078", "country": "US", "state": "CA", "display_address": ["324 South Twin Oaks Valley Rd", "San Marcos, CA 92078"]}, "phone": "+17605919464", "display_phone": "(760) 591-9464", "distance": 17824.294432563845}, {"id": "W2BizrfWIcqn9LT83PjMFg", "alias": "dominos-pizza-camp-pendleton-4", "name": "Domino's Pizza", "image_url": "https://s3-media4.fl.yelpcdn.com/bphoto/xB6i4XoZhLgvDLsz6jIKVQ/o.jpg", "is_closed": false, "url": "https://www.yelp.com/biz/dominos-pizza-camp-pendleton-4?adjust_creative=oncXGL2aPIKrtJdnWeFSnA&utm_campaign=yelp_api_v3&utm_medium=api_v3_business_search&utm_source=oncXGL2aPIKrtJdnWeFSnA", "review_count": 53, "categories": [{"alias": "pizza", "title": "Pizza"}, {"alias": "chicken_wings", "title": "Chicken Wings"}, {"alias": "sandwiches", "title": "Sandwiches"}], "rating": 2.0, "coordinates": {"latitude": 33.28513, "longitude": -117.30235}, "transactions": [], "price": "$", "location": {"address1": "13030 Vandergrift Blvd", "address2": null, "address3": null, "city": "Camp Pendleton", "zip_code": "92055", "country": "US", "state": "CA", "display_address": ["13030 Vandergrift Blvd", "Camp Pendleton, CA 92055"]}, "phone": "+17605759850", "display_phone": "(760) 575-9850", "distance": 8388.222943020595}, {"id": "3KAmbwfhr4YfY09zVz4WGA", "alias": "pizza-hut-oceanside", "name": "Pizza Hut", "image_url": "https://s3-media3.fl.yelpcdn.com/bphoto/jfd84011Xr2Q8hOclIx98w/o.jpg", "is_closed": false, "url": "https://www.yelp.com/biz/pizza-hut-oceanside?adjust_creative=oncXGL2aPIKrtJdnWeFSnA&utm_campaign=yelp_api_v3&utm_medium=api_v3_business_search&utm_source=oncXGL2aPIKrtJdnWeFSnA", "review_count": 24, "categories": [{"alias": "pizza", "title": "Pizza"}, {"alias": "italian", "title": "Italian"}, {"alias": "chicken_wings", "title": "Chicken Wings"}], "rating": 3.0, "coordinates": {"latitude": 33.1717414855957, "longitude": -117.253303527832}, "transactions": [], "price": "$$", "location": {"address1": "3509 Cannon Rd", "address2": "# E1", "address3": "", "city": "Oceanside", "zip_code": "92056", "country": "US", "state": "CA", "display_address": ["3509 Cannon Rd", "# E1", "Oceanside, CA 92056"]}, "phone": "+17604149400", "display_phone": "(760) 414-9400", "distance": 8536.178819240795}, {"id": "R2oQJMoBvfmBPWNbbgdpRQ", "alias": "buffalo-wild-wings-encinitas", "name": "Buffalo Wild Wings", "image_url": "https://s3-media3.fl.yelpcdn.com/bphoto/oTSkFFueQrNe6o-HdTUG7g/o.jpg", "is_closed": false, "url": "https://www.yelp.com/biz/buffalo-wild-wings-encinitas?adjust_creative=oncXGL2aPIKrtJdnWeFSnA&utm_campaign=yelp_api_v3&utm_medium=api_v3_business_search&utm_source=oncXGL2aPIKrtJdnWeFSnA", "review_count": 335, "categories": [{"alias": "tradamerican", "title": "American (Traditional)"}, {"alias": "chicken_wings", "title": "Chicken Wings"}, {"alias": "sportsbars", "title": "Sports Bars"}], "rating": 3.0, "coordinates": {"latitude": 33.0672110678659, "longitude": -117.263460718095}, "transactions": ["delivery"], "price": "$$", "location": {"address1": "1068 N El Camino Real", "address2": "", "address3": "", "city": "Encinitas", "zip_code": "92024", "country": "US", "state": "CA", "display_address": ["1068 N El Camino Real", "Encinitas, CA 92024"]}, "phone": "+17609422945", "display_phone": "(760) 942-2945", "distance": 18378.056418932403}, {"id": "-me7Al8qNDQ9MIU1x1S4Vw", "alias": "kfc-vista-2", "name": "KFC", "image_url": "https://s3-media3.fl.yelpcdn.com/bphoto/QywIFGRVwQVrMPjVNgVBew/o.jpg", "is_closed": false, "url": "https://www.yelp.com/biz/kfc-vista-2?adjust_creative=oncXGL2aPIKrtJdnWeFSnA&utm_campaign=yelp_api_v3&utm_medium=api_v3_business_search&utm_source=oncXGL2aPIKrtJdnWeFSnA", "review_count": 19, "categories": [{"alias": "hotdogs", "title": "Fast Food"}, {"alias": "chicken_wings", "title": "Chicken Wings"}, {"alias": "chickenshop", "title": "Chicken Shop"}], "rating": 2.0, "coordinates": {"latitude": 33.2103, "longitude": -117.234}, "transactions": ["delivery"], "price": "$", "location": {"address1": "840 E Vista Way", "address2": "", "address3": "", "city": "Vista", "zip_code": "92084", "country": "US", "state": "CA", "display_address": ["840 E Vista Way", "Vista, CA 92084"]}, "phone": "+17609411295", "display_phone": "(760) 941-1295", "distance": 8024.316694173382}, {"id": "QcEz_y6D62GpRXxwsD5NAw", "alias": "dominos-pizza-camp-pendleton-3", "name": "Domino's Pizza", "image_url": "https://s3-media3.fl.yelpcdn.com/bphoto/LyeAzBjXWdzKHzMOqFuWBQ/o.jpg", "is_closed": false, "url": "https://www.yelp.com/biz/dominos-pizza-camp-pendleton-3?adjust_creative=oncXGL2aPIKrtJdnWeFSnA&utm_campaign=yelp_api_v3&utm_medium=api_v3_business_search&utm_source=oncXGL2aPIKrtJdnWeFSnA", "review_count": 12, "categories": [{"alias": "pizza", "title": "Pizza"}, {"alias": "chicken_wings", "title": "Chicken Wings"}, {"alias": "sandwiches", "title": "Sandwiches"}], "rating": 2.5, "coordinates": {"latitude": 33.2200113622166, "longitude": -117.39096898122}, "transactions": [], "location": {"address1": "20845 Vandergrift Dr", "address2": "Spc 107", "address3": "", "city": "Camp Pendleton", "zip_code": "92055", "country": "US", "state": "CA", "display_address": ["20845 Vandergrift Dr", "Spc 107", "Camp Pendleton, CA 92055"]}, "phone": "+17604307180", "display_phone": "(760) 430-7180", "distance": 6802.488658811016}, {"id": "blfPxmIyUrWWuvDcAoOFWg", "alias": "kfc-carlsbad-3", "name": "KFC", "image_url": "https://s3-media1.fl.yelpcdn.com/bphoto/fs_zpnX99Qx_6tdLH2omIQ/o.jpg", "is_closed": false, "url": "https://www.yelp.com/biz/kfc-carlsbad-3?adjust_creative=oncXGL2aPIKrtJdnWeFSnA&utm_campaign=yelp_api_v3&utm_medium=api_v3_business_search&utm_source=oncXGL2aPIKrtJdnWeFSnA", "review_count": 45, "categories": [{"alias": "chicken_wings", "title": "Chicken Wings"}, {"alias": "hotdogs", "title": "Fast Food"}, {"alias": "chickenshop", "title": "Chicken Shop"}], "rating": 2.0, "coordinates": {"latitude": 33.1609, "longitude": -117.346}, "transactions": ["delivery"], "price": "$", "location": {"address1": "745 Carlsbad Village Dr", "address2": "", "address3": "", "city": "Carlsbad", "zip_code": "92008", "country": "US", "state": "CA", "display_address": ["745 Carlsbad Village Dr", "Carlsbad, CA 92008"]}, "phone": "+17607297213", "display_phone": "(760) 729-7213", "distance": 7688.356931630945}, {"id": "djEK6rDlywl6HRwI7czZ8Q", "alias": "wingstreet-oceanside", "name": "Wingstreet", "image_url": "", "is_closed": false, "url": "https://www.yelp.com/biz/wingstreet-oceanside?adjust_creative=oncXGL2aPIKrtJdnWeFSnA&utm_campaign=yelp_api_v3&utm_medium=api_v3_business_search&utm_source=oncXGL2aPIKrtJdnWeFSnA", "review_count": 3, "categories": [{"alias": "chicken_wings", "title": "Chicken Wings"}], "rating": 1.0, "coordinates": {"latitude": 33.17174, "longitude": -117.2533}, "transactions": [], "location": {"address1": "3509 Cannon Rd", "address2": null, "address3": null, "city": "Oceanside", "zip_code": "92056", "country": "US", "state": "CA", "display_address": ["3509 Cannon Rd", "Oceanside, CA 92056"]}, "phone": "+17604149400", "display_phone": "(760) 414-9400", "distance": 8536.178819240795}, {"id": "OlnDFu4Qe7yuhbGnIFNJWA", "alias": "dominos-pizza-carlsbad-5", "name": "Domino's Pizza", "image_url": "https://s3-media2.fl.yelpcdn.com/bphoto/l0UWBroP_CuIgpAccUWaSw/o.jpg", "is_closed": false, "url": "https://www.yelp.com/biz/dominos-pizza-carlsbad-5?adjust_creative=oncXGL2aPIKrtJdnWeFSnA&utm_campaign=yelp_api_v3&utm_medium=api_v3_business_search&utm_source=oncXGL2aPIKrtJdnWeFSnA", "review_count": 45, "categories": [{"alias": "pizza", "title": "Pizza"}, {"alias": "chicken_wings", "title": "Chicken Wings"}, {"alias": "sandwiches", "title": "Sandwiches"}], "rating": 2.5, "coordinates": {"latitude": 33.1766161322594, "longitude": -117.338841184974}, "transactions": [], "price": "$", "location": {"address1": "1854 Marron Rd", "address2": "Ste M2", "address3": "", "city": "Carlsbad", "zip_code": "92008", "country": "US", "state": "CA", "display_address": ["1854 Marron Rd", "Ste M2", "Carlsbad, CA 92008"]}, "phone": "+17607291556", "display_phone": "(760) 729-1556", "distance": 5753.22490691035}, {"id": "iDqjGpLfBOUNBD0bZUPHTA", "alias": "pizza-hut-carlsbad-4", "name": "Pizza Hut", "image_url": "https://s3-media2.fl.yelpcdn.com/bphoto/rMVZqWULh1ri3noZ5FjIAw/o.jpg", "is_closed": false, "url": "https://www.yelp.com/biz/pizza-hut-carlsbad-4?adjust_creative=oncXGL2aPIKrtJdnWeFSnA&utm_campaign=yelp_api_v3&utm_medium=api_v3_business_search&utm_source=oncXGL2aPIKrtJdnWeFSnA", "review_count": 34, "categories": [{"alias": "pizza", "title": "Pizza"}, {"alias": "italian", "title": "Italian"}, {"alias": "chicken_wings", "title": "Chicken Wings"}], "rating": 4.0, "coordinates": {"latitude": 33.0825253, "longitude": -117.266711}, "transactions": [], "price": "$", "location": {"address1": "7750 El Camino Real", "address2": "Ste E", "address3": "", "city": "Carlsbad", "zip_code": "92009", "country": "US", "state": "CA", "display_address": ["7750 El Camino Real", "Ste E", "Carlsbad, CA 92009"]}, "phone": "+17609444222", "display_phone": "(760) 944-4222", "distance": 16658.921663677946}, {"id": "_EqMZI0mD4hP_iGrMryn5Q", "alias": "dominos-pizza-camp-pendleton-2", "name": "Domino's Pizza", "image_url": "https://s3-media3.fl.yelpcdn.com/bphoto/Pqf5b_YhEuMOAV86JLZ78w/o.jpg", "is_closed": false, "url": "https://www.yelp.com/biz/dominos-pizza-camp-pendleton-2?adjust_creative=oncXGL2aPIKrtJdnWeFSnA&utm_campaign=yelp_api_v3&utm_medium=api_v3_business_search&utm_source=oncXGL2aPIKrtJdnWeFSnA", "review_count": 14, "categories": [{"alias": "chicken_wings", "title": "Chicken Wings"}, {"alias": "pizza", "title": "Pizza"}, {"alias": "sandwiches", "title": "Sandwiches"}], "rating": 2.5, "coordinates": {"latitude": 33.3157864582242, "longitude": -117.312920123018}, "transactions": [], "price": "$$", "location": {"address1": "520407 Basilone Rd", "address2": null, "address3": null, "city": "Camp Pendleton", "zip_code": "92055", "country": "US", "state": "CA", "display_address": ["520407 Basilone Rd", "Camp Pendleton, CA 92055"]}, "phone": "+17605759880", "display_phone": "(760) 575-9880", "distance": 9994.760086384442}, {"id": "aHmaM2SYGqEkefUBHIiybA", "alias": "pizza-hut-san-marcos-2", "name": "Pizza Hut", "image_url": "https://s3-media1.fl.yelpcdn.com/bphoto/20nfHR3YoRFrjocfJ7vBbg/o.jpg", "is_closed": false, "url": "https://www.yelp.com/biz/pizza-hut-san-marcos-2?adjust_creative=oncXGL2aPIKrtJdnWeFSnA&utm_campaign=yelp_api_v3&utm_medium=api_v3_business_search&utm_source=oncXGL2aPIKrtJdnWeFSnA", "review_count": 34, "categories": [{"alias": "pizza", "title": "Pizza"}, {"alias": "italian", "title": "Italian"}, {"alias": "chicken_wings", "title": "Chicken Wings"}], "rating": 2.5, "coordinates": {"latitude": 33.1304321289062, "longitude": -117.209907531738}, "transactions": [], "price": "$", "location": {"address1": "1915 W San Marcos Blvd", "address2": "", "address3": "", "city": "San Marcos", "zip_code": "92069", "country": "US", "state": "CA", "display_address": ["1915 W San Marcos Blvd", "San Marcos, CA 92069"]}, "phone": "+17605989900", "display_phone": "(760) 598-9900", "distance": 14644.915080902887}, {"id": "ZoC-W0ec_N8xT9jd3JnhHA", "alias": "kfc-fallbrook", "name": "KFC", "image_url": "https://s3-media1.fl.yelpcdn.com/bphoto/BICbHR8lgTOZ53hhrvu3nw/o.jpg", "is_closed": false, "url": "https://www.yelp.com/biz/kfc-fallbrook?adjust_creative=oncXGL2aPIKrtJdnWeFSnA&utm_campaign=yelp_api_v3&utm_medium=api_v3_business_search&utm_source=oncXGL2aPIKrtJdnWeFSnA", "review_count": 37, "categories": [{"alias": "hotdogs", "title": "Fast Food"}, {"alias": "chicken_wings", "title": "Chicken Wings"}, {"alias": "chickenshop", "title": "Chicken Shop"}], "rating": 2.5, "coordinates": {"latitude": 33.3732, "longitude": -117.254}, "transactions": [], "price": "$", "location": {"address1": "1077 S Mission Rd", "address2": "", "address3": "", "city": "Fallbrook", "zip_code": "92028", "country": "US", "state": "CA", "display_address": ["1077 S Mission Rd", "Fallbrook, CA 92028"]}, "phone": "+17607281767", "display_phone": "(760) 728-1767", "distance": 17420.217349841645}, {"id": "ouVYbwBfUjejp3xwg2KdGQ", "alias": "kfc-san-marcos", "name": "KFC", "image_url": "https://s3-media2.fl.yelpcdn.com/bphoto/iuiPQo-xVH5LBniZ1_AfTA/o.jpg", "is_closed": false, "url": "https://www.yelp.com/biz/kfc-san-marcos?adjust_creative=oncXGL2aPIKrtJdnWeFSnA&utm_campaign=yelp_api_v3&utm_medium=api_v3_business_search&utm_source=oncXGL2aPIKrtJdnWeFSnA", "review_count": 24, "categories": [{"alias": "hotdogs", "title": "Fast Food"}, {"alias": "chicken_wings", "title": "Chicken Wings"}, {"alias": "chickenshop", "title": "Chicken Shop"}], "rating": 2.5, "coordinates": {"latitude": 33.146, "longitude": -117.2}, "transactions": ["delivery"], "price": "$", "location": {"address1": "201 S Rancho Santa Fe Rd", "address2": "", "address3": "", "city": "San Marcos", "zip_code": "92078", "country": "US", "state": "CA", "display_address": ["201 S Rancho Santa Fe Rd", "San Marcos, CA 92078"]}, "phone": "+17607440672", "display_phone": "(760) 744-0672", "distance": 14146.468509915641}, {"id": "IWKsOD-3taJbpfIejtHCXA", "alias": "dominos-pizza-carlsbad-6", "name": "Domino's Pizza", "image_url": "https://s3-media4.fl.yelpcdn.com/bphoto/2q84yFt0U6gNp_YWgJcbUg/o.jpg", "is_closed": false, "url": "https://www.yelp.com/biz/dominos-pizza-carlsbad-6?adjust_creative=oncXGL2aPIKrtJdnWeFSnA&utm_campaign=yelp_api_v3&utm_medium=api_v3_business_search&utm_source=oncXGL2aPIKrtJdnWeFSnA", "review_count": 25, "categories": [{"alias": "chicken_wings", "title": "Chicken Wings"}, {"alias": "pizza", "title": "Pizza"}, {"alias": "sandwiches", "title": "Sandwiches"}], "rating": 3.0, "coordinates": {"latitude": 33.0816831, "longitude": -117.2321656}, "transactions": [], "price": "$", "location": {"address1": "3451 Via Montebello", "address2": "Ste 186", "address3": "", "city": "Carlsbad", "zip_code": "92009", "country": "US", "state": "CA", "display_address": ["3451 Via Montebello", "Ste 186", "Carlsbad, CA 92009"]}, "phone": "+17607040050", "display_phone": "(760) 704-0050", "distance": 17904.68625739005}, {"id": "FvCyJ8ZD3cR5_YCQdlBFjQ", "alias": "dominos-pizza-san-marcos-2", "name": "Domino's Pizza", "image_url": "https://s3-media3.fl.yelpcdn.com/bphoto/cPBMgtt6T-Ia-dxUowVn1A/o.jpg", "is_closed": false, "url": "https://www.yelp.com/biz/dominos-pizza-san-marcos-2?adjust_creative=oncXGL2aPIKrtJdnWeFSnA&utm_campaign=yelp_api_v3&utm_medium=api_v3_business_search&utm_source=oncXGL2aPIKrtJdnWeFSnA", "review_count": 65, "categories": [{"alias": "pizza", "title": "Pizza"}, {"alias": "chicken_wings", "title": "Chicken Wings"}, {"alias": "sandwiches", "title": "Sandwiches"}], "rating": 2.5, "coordinates": {"latitude": 33.135496, "longitude": -117.181891}, "transactions": [], "price": "$", "location": {"address1": "805 W San Marcos Blvd", "address2": "", "address3": "", "city": "San Marcos", "zip_code": "92078", "country": "US", "state": "CA", "display_address": ["805 W San Marcos Blvd", "San Marcos, CA 92078"]}, "phone": "+17604711055", "display_phone": "(760) 471-1055", "distance": 16192.543969814029}, {"id": "cJ2YJPZcM9OcsXQ-wyj5rA", "alias": "kfc-san-marcos-3", "name": "KFC", "image_url": "https://s3-media1.fl.yelpcdn.com/bphoto/bvcFCVsVKp4of54887BILg/o.jpg", "is_closed": false, "url": "https://www.yelp.com/biz/kfc-san-marcos-3?adjust_creative=oncXGL2aPIKrtJdnWeFSnA&utm_campaign=yelp_api_v3&utm_medium=api_v3_business_search&utm_source=oncXGL2aPIKrtJdnWeFSnA", "review_count": 24, "categories": [{"alias": "chicken_wings", "title": "Chicken Wings"}, {"alias": "hotdogs", "title": "Fast Food"}, {"alias": "chickenshop", "title": "Chicken Shop"}], "rating": 2.0, "coordinates": {"latitude": 33.1355, "longitude": -117.121}, "transactions": ["delivery"], "price": "$", "location": {"address1": "771 Center Dr", "address2": "", "address3": "", "city": "San Marcos", "zip_code": "92069", "country": "US", "state": "CA", "display_address": ["771 Center Dr", "San Marcos, CA 92069"]}, "phone": "+17607813384", "display_phone": "(760) 781-3384", "distance": 20929.99309158566}, {"id": "gVhkehhbDCxyd2K1soQHqQ", "alias": "pizza-hut-san-marcos-3", "name": "Pizza Hut", "image_url": "https://s3-media3.fl.yelpcdn.com/bphoto/hlawWOEKbyf6tgdkEm7yaQ/o.jpg", "is_closed": false, "url": "https://www.yelp.com/biz/pizza-hut-san-marcos-3?adjust_creative=oncXGL2aPIKrtJdnWeFSnA&utm_campaign=yelp_api_v3&utm_medium=api_v3_business_search&utm_source=oncXGL2aPIKrtJdnWeFSnA", "review_count": 38, "categories": [{"alias": "pizza", "title": "Pizza"}, {"alias": "italian", "title": "Italian"}, {"alias": "chicken_wings", "title": "Chicken Wings"}], "rating": 3.0, "coordinates": {"latitude": 33.133776, "longitude": -117.1216953}, "transactions": [], "price": "$$", "location": {"address1": "705 Center Dr", "address2": "Ste 106", "address3": "", "city": "San Marcos", "zip_code": "92069", "country": "US", "state": "CA", "display_address": ["705 Center Dr", "Ste 106", "San Marcos, CA 92069"]}, "phone": "+17604896000", "display_phone": "(760) 489-6000", "distance": 21019.02995268197}, {"id": "JElQbF2XC4idBGQ4yicVhg", "alias": "pizza-hut-fallbrook", "name": "Pizza Hut", "image_url": "https://s3-media4.fl.yelpcdn.com/bphoto/Wrz64r7Ot3Tdog2iV6Qj6w/o.jpg", "is_closed": false, "url": "https://www.yelp.com/biz/pizza-hut-fallbrook?adjust_creative=oncXGL2aPIKrtJdnWeFSnA&utm_campaign=yelp_api_v3&utm_medium=api_v3_business_search&utm_source=oncXGL2aPIKrtJdnWeFSnA", "review_count": 17, "categories": [{"alias": "pizza", "title": "Pizza"}, {"alias": "italian", "title": "Italian"}, {"alias": "chicken_wings", "title": "Chicken Wings"}], "rating": 2.0, "coordinates": {"latitude": 33.370311, "longitude": -117.25209}, "transactions": [], "price": "$$", "location": {"address1": "1235 S Mission Rd", "address2": "", "address3": "", "city": "Fallbrook", "zip_code": "92028", "country": "US", "state": "CA", "display_address": ["1235 S Mission Rd", "Fallbrook, CA 92028"]}, "phone": "+17607285864", "display_phone": "(760) 728-5864", "distance": 17182.185331090343}], "total": 41, "region": {"center": {"longitude": -117.31819152832031, "latitude": 33.226009439623446}}}