{"businesses": [{"id": "N1zMgpIajvq6i2RRl9Q7kQ", "alias": "beach-hut-deli-oceanside", "name": "Beach Hut Deli", "image_url": "https://s3-media1.fl.yelpcdn.com/bphoto/lFLWdIYjGrVfjSs0MNU40g/o.jpg", "is_closed": false, "url": "https://www.yelp.com/biz/beach-hut-deli-oceanside?adjust_creative=oncXGL2aPIKrtJdnWeFSnA&utm_campaign=yelp_api_v3&utm_medium=api_v3_business_search&utm_source=oncXGL2aPIKrtJdnWeFSnA", "review_count": 152, "categories": [{"alias": "delis", "title": "Delis"}, {"alias": "sportsbars", "title": "Sports Bars"}, {"alias": "sandwiches", "title": "Sandwiches"}], "rating": 4.5, "coordinates": {"latitude": 33.1951368649827, "longitude": -117.381613614535}, "transactions": [], "price": "$$", "location": {"address1": "280 Mission Ave", "address2": null, "address3": "", "city": "Oceanside", "zip_code": "92054", "country": "US", "state": "CA", "display_address": ["280 Mission Ave", "Oceanside, CA 92054"]}, "phone": "+17605299767", "display_phone": "(760) 529-9767", "distance": 6826.301466006572}, {"id": "X9o5yDQvuMicYH50Lrvr8g", "alias": "tip-top-meats-and-european-delicatessen-carlsbad", "name": "Tip Top Meats & European Delicatessen", "image_url": "https://s3-media3.fl.yelpcdn.com/bphoto/w0tz89Qs5mwmXSGy_IYrjg/o.jpg", "is_closed": false, "url": "https://www.yelp.com/biz/tip-top-meats-and-european-delicatessen-carlsbad?adjust_creative=oncXGL2aPIKrtJdnWeFSnA&utm_campaign=yelp_api_v3&utm_medium=api_v3_business_search&utm_source=oncXGL2aPIKrtJdnWeFSnA", "review_count": 1514, "categories": [{"alias": "meats", "title": "Meat Shops"}, {"alias": "delis", "title": "Delis"}], "rating": 4.0, "coordinates": {"latitude": 33.1197299, "longitude": -117.31853}, "transactions": [], "price": "$", "location": {"address1": "6118 Paseo Del Norte", "address2": "", "address3": "", "city": "Carlsbad", "zip_code": "92011", "country": "US", "state": "CA", "display_address": ["6118 Paseo Del Norte", "Carlsbad, CA 92011"]}, "phone": "+17604382620", "display_phone": "(760) 438-2620", "distance": 11811.949915297191}, {"id": "icZPyv__2fxc9NvQFFI_hg", "alias": "i-love-bagels-oceanside", "name": "I Love Bagels", "image_url": "https://s3-media3.fl.yelpcdn.com/bphoto/Iz6Agez9hEAw18U2BStdxw/o.jpg", "is_closed": false, "url": "https://www.yelp.com/biz/i-love-bagels-oceanside?adjust_creative=oncXGL2aPIKrtJdnWeFSnA&utm_campaign=yelp_api_v3&utm_medium=api_v3_business_search&utm_source=oncXGL2aPIKrtJdnWeFSnA", "review_count": 285, "categories": [{"alias": "delis", "title": "Delis"}, {"alias": "bagels", "title": "Bagels"}, {"alias": "sandwiches", "title": "Sandwiches"}], "rating": 4.0, "coordinates": {"latitude": 33.18448, "longitude": -117.29369}, "transactions": [], "price": "$", "location": {"address1": "3910 Vista Way Unit", "address2": "Ste 101", "address3": "", "city": "Oceanside", "zip_code": "92056", "country": "US", "state": "CA", "display_address": ["3910 Vista Way Unit", "Ste 101", "Oceanside, CA 92056"]}, "phone": "+17609453838", "display_phone": "(760) 945-3838", "distance": 5154.515307120133}, {"id": "QhA50sLRQrP7M-szjda0CA", "alias": "101-bagels-and-subs-oceanside-2", "name": "101 Bagels & Subs", "image_url": "https://s3-media3.fl.yelpcdn.com/bphoto/V8wPSktyo9fZmY2M_MtTPQ/o.jpg", "is_closed": false, "url": "https://www.yelp.com/biz/101-bagels-and-subs-oceanside-2?adjust_creative=oncXGL2aPIKrtJdnWeFSnA&utm_campaign=yelp_api_v3&utm_medium=api_v3_business_search&utm_source=oncXGL2aPIKrtJdnWeFSnA", "review_count": 192, "categories": [{"alias": "sandwiches", "title": "Sandwiches"}, {"alias": "bagels", "title": "Bagels"}, {"alias": "delis", "title": "Delis"}], "rating": 4.5, "coordinates": {"latitude": 33.19721, "longitude": -117.38099}, "transactions": ["pickup", "delivery"], "price": "$", "location": {"address1": "323 N Coast Hwy", "address2": "Ste C", "address3": "", "city": "Oceanside", "zip_code": "92054", "country": "US", "state": "CA", "display_address": ["323 N Coast Hwy", "Ste C", "Oceanside, CA 92054"]}, "phone": "+17604216555", "display_phone": "(760) 421-6555", "distance": 6658.57517397226}, {"id": "TSSfmgrpOfGomSz9fTQUmA", "alias": "yoshino-japanese-deli-carlsbad", "name": "Yoshino Japanese Deli", "image_url": "https://s3-media1.fl.yelpcdn.com/bphoto/8P632tFx8oym5M-7pqfemA/o.jpg", "is_closed": false, "url": "https://www.yelp.com/biz/yoshino-japanese-deli-carlsbad?adjust_creative=oncXGL2aPIKrtJdnWeFSnA&utm_campaign=yelp_api_v3&utm_medium=api_v3_business_search&utm_source=oncXGL2aPIKrtJdnWeFSnA", "review_count": 726, "categories": [{"alias": "japanese", "title": "Japanese"}, {"alias": "sushi", "title": "Sushi Bars"}, {"alias": "delis", "title": "Delis"}], "rating": 4.5, "coordinates": {"latitude": 33.1603163, "longitude": -117.3495182}, "transactions": [], "price": "$", "location": {"address1": "2913 State St", "address2": "", "address3": "", "city": "Carlsbad", "zip_code": "92008", "country": "US", "state": "CA", "display_address": ["2913 State St", "Carlsbad, CA 92008"]}, "phone": "+17608890309", "display_phone": "(760) 889-0309", "distance": 7866.770944110756}, {"id": "h4uUmSrpsNu0HVtJ3dWe_Q", "alias": "z-market-san-miguel-deli-oceanside", "name": "Z-Market San Miguel Deli", "image_url": "https://s3-media1.fl.yelpcdn.com/bphoto/g96IPbDj1CHLs46IudwO2A/o.jpg", "is_closed": false, "url": "https://www.yelp.com/biz/z-market-san-miguel-deli-oceanside?adjust_creative=oncXGL2aPIKrtJdnWeFSnA&utm_campaign=yelp_api_v3&utm_medium=api_v3_business_search&utm_source=oncXGL2aPIKrtJdnWeFSnA", "review_count": 27, "categories": [{"alias": "grocery", "title": "Grocery"}, {"alias": "delis", "title": "Delis"}, {"alias": "beer_and_wine", "title": "Beer, Wine & Spirits"}], "rating": 4.0, "coordinates": {"latitude": 33.2138405, "longitude": -117.3482285}, "transactions": [], "price": "$", "location": {"address1": "3200 Mission Ave", "address2": "", "address3": "", "city": "Oceanside", "zip_code": "92058", "country": "US", "state": "CA", "display_address": ["3200 Mission Ave", "Oceanside, CA 92058"]}, "phone": "+17609672184", "display_phone": "(760) 967-2184", "distance": 3093.948354745123}, {"id": "-iVp1fpd1LA6apX8hOPAPw", "alias": "port-of-subs-oceanside", "name": "Port of Subs", "image_url": "https://s3-media4.fl.yelpcdn.com/bphoto/hGdWF2y6swrLsFhq8mtMPw/o.jpg", "is_closed": false, "url": "https://www.yelp.com/biz/port-of-subs-oceanside?adjust_creative=oncXGL2aPIKrtJdnWeFSnA&utm_campaign=yelp_api_v3&utm_medium=api_v3_business_search&utm_source=oncXGL2aPIKrtJdnWeFSnA", "review_count": 187, "categories": [{"alias": "sandwiches", "title": "Sandwiches"}, {"alias": "delis", "title": "Delis"}], "rating": 4.5, "coordinates": {"latitude": 33.1838521, "longitude": -117.369057}, "transactions": [], "price": "$", "location": {"address1": "510 Oceanside Blvd", "address2": "Ste 101", "address3": "", "city": "Oceanside", "zip_code": "92054", "country": "US", "state": "CA", "display_address": ["510 Oceanside Blvd", "Ste 101", "Oceanside, CA 92054"]}, "phone": "+17604393354", "display_phone": "(760) 439-3354", "distance": 6662.9172019248645}, {"id": "5OUhPyJmMZlBIlucNJ6ikw", "alias": "harbor-pelican-deli-and-mart-oceanside", "name": "Harbor Pelican Deli and Mart", "image_url": "https://s3-media1.fl.yelpcdn.com/bphoto/aRdOELUef6ywW309pySApQ/o.jpg", "is_closed": false, "url": "https://www.yelp.com/biz/harbor-pelican-deli-and-mart-oceanside?adjust_creative=oncXGL2aPIKrtJdnWeFSnA&utm_campaign=yelp_api_v3&utm_medium=api_v3_business_search&utm_source=oncXGL2aPIKrtJdnWeFSnA", "review_count": 27, "categories": [{"alias": "delis", "title": "Delis"}], "rating": 4.0, "coordinates": {"latitude": 33.205327, "longitude": -117.393629}, "transactions": [], "price": "$", "location": {"address1": "1380 N Pacific St", "address2": "", "address3": "", "city": "Oceanside", "zip_code": "92054", "country": "US", "state": "CA", "display_address": ["1380 N Pacific St", "Oceanside, CA 92054"]}, "phone": "+17607225853", "display_phone": "(760) 722-5853", "distance": 7384.957834963059}, {"id": "swfhBizj8QYIkJj1OsXgOQ", "alias": "jersey-mikes-subs-oceanside-4", "name": "Jersey Mike's Subs", "image_url": "https://s3-media3.fl.yelpcdn.com/bphoto/xwI3dkNoEiOuv43pNa4isA/o.jpg", "is_closed": false, "url": "https://www.yelp.com/biz/jersey-mikes-subs-oceanside-4?adjust_creative=oncXGL2aPIKrtJdnWeFSnA&utm_campaign=yelp_api_v3&utm_medium=api_v3_business_search&utm_source=oncXGL2aPIKrtJdnWeFSnA", "review_count": 77, "categories": [{"alias": "hotdogs", "title": "Fast Food"}, {"alias": "delis", "title": "Delis"}, {"alias": "sandwiches", "title": "Sandwiches"}], "rating": 3.5, "coordinates": {"latitude": 33.2509308, "longitude": -117.3005905}, "transactions": [], "price": "$", "location": {"address1": "4904 N River Rd", "address2": "Ste 400", "address3": null, "city": "Oceanside", "zip_code": "92057", "country": "US", "state": "CA", "display_address": ["4904 N River Rd", "Ste 400", "Oceanside, CA 92057"]}, "phone": "+17605290130", "display_phone": "(760) 529-0130", "distance": 3220.727146295666}, {"id": "lPFKybOVx2gRLClTzIujdg", "alias": "bologna-gourmet-carlsbad", "name": "Bologna Gourmet", "image_url": "https://s3-media3.fl.yelpcdn.com/bphoto/MdIdPh2bo_Dme675CPztRw/o.jpg", "is_closed": false, "url": "https://www.yelp.com/biz/bologna-gourmet-carlsbad?adjust_creative=oncXGL2aPIKrtJdnWeFSnA&utm_campaign=yelp_api_v3&utm_medium=api_v3_business_search&utm_source=oncXGL2aPIKrtJdnWeFSnA", "review_count": 150, "categories": [{"alias": "delis", "title": "Delis"}, {"alias": "italian", "title": "Italian"}, {"alias": "pastashops", "title": "Pasta Shops"}], "rating": 4.5, "coordinates": {"latitude": 33.12392, "longitude": -117.27351}, "transactions": ["pickup"], "price": "$", "location": {"address1": "6150 Yarrow Dr", "address2": null, "address3": "", "city": "Carlsbad", "zip_code": "92011", "country": "US", "state": "CA", "display_address": ["6150 Yarrow Dr", "Carlsbad, CA 92011"]}, "phone": "+17609290877", "display_phone": "(760) 929-0877", "distance": 12084.2631653426}, {"id": "vg2qCNbyoSPh720vJXyqtA", "alias": "lolas-7-up-market-and-deli-carlsbad", "name": "Lola's 7 Up Market & Deli", "image_url": "https://s3-media3.fl.yelpcdn.com/bphoto/h5kxWvohZgtuEqxAhi6WSA/o.jpg", "is_closed": false, "url": "https://www.yelp.com/biz/lolas-7-up-market-and-deli-carlsbad?adjust_creative=oncXGL2aPIKrtJdnWeFSnA&utm_campaign=yelp_api_v3&utm_medium=api_v3_business_search&utm_source=oncXGL2aPIKrtJdnWeFSnA", "review_count": 247, "categories": [{"alias": "delis", "title": "Delis"}, {"alias": "mexican", "title": "Mexican"}], "rating": 4.5, "coordinates": {"latitude": 33.1571353, "longitude": -117.3450053}, "transactions": [], "price": "$", "location": {"address1": "3292 Roosevelt St", "address2": "", "address3": "", "city": "Carlsbad", "zip_code": "92008", "country": "US", "state": "CA", "display_address": ["3292 Roosevelt St", "Carlsbad, CA 92008"]}, "phone": "+17604342191", "display_phone": "(760) 434-2191", "distance": 8054.246238056473}, {"id": "NQ4QOOTbYW9MfseqwRFZcQ", "alias": "2051-cafe-carlsbad", "name": "2051 Cafe", "image_url": "https://s3-media3.fl.yelpcdn.com/bphoto/2FSNyrghNITP3L21VkbrPw/o.jpg", "is_closed": false, "url": "https://www.yelp.com/biz/2051-cafe-carlsbad?adjust_creative=oncXGL2aPIKrtJdnWeFSnA&utm_campaign=yelp_api_v3&utm_medium=api_v3_business_search&utm_source=oncXGL2aPIKrtJdnWeFSnA", "review_count": 82, "categories": [{"alias": "cafes", "title": "Cafes"}, {"alias": "delis", "title": "Delis"}, {"alias": "italian", "title": "Italian"}], "rating": 5.0, "coordinates": {"latitude": 33.1224971661327, "longitude": -117.276416666667}, "transactions": [], "price": "$$", "location": {"address1": "2051 Palomar Airport Rd", "address2": "Ste 175", "address3": null, "city": "Carlsbad", "zip_code": "92011", "country": "US", "state": "CA", "display_address": ["2051 Palomar Airport Rd", "Ste 175", "Carlsbad, CA 92011"]}, "phone": "+17608142831", "display_phone": "(760) 814-2831", "distance": 12148.972605162644}, {"id": "3uB95QdjNeKLqgacUi5zZA", "alias": "hungry-bear-deli-vista-3", "name": "Hungry Bear Deli", "image_url": "https://s3-media4.fl.yelpcdn.com/bphoto/D-Zx1rFya6pEneGjl0tQpw/o.jpg", "is_closed": false, "url": "https://www.yelp.com/biz/hungry-bear-deli-vista-3?adjust_creative=oncXGL2aPIKrtJdnWeFSnA&utm_campaign=yelp_api_v3&utm_medium=api_v3_business_search&utm_source=oncXGL2aPIKrtJdnWeFSnA", "review_count": 578, "categories": [{"alias": "delis", "title": "Delis"}, {"alias": "sandwiches", "title": "Sandwiches"}, {"alias": "salad", "title": "Salad"}], "rating": 4.5, "coordinates": {"latitude": 33.14637, "longitude": -117.24163}, "transactions": [], "price": "$", "location": {"address1": "2205 S Melrose Dr", "address2": "Ste 103", "address3": "", "city": "Vista", "zip_code": "92081", "country": "US", "state": "CA", "display_address": ["2205 S Melrose Dr", "Ste 103", "Vista, CA 92081"]}, "phone": "+17602952295", "display_phone": "(760) 295-2295", "distance": 11371.340216464736}, {"id": "UI4Ly-jMvfTSqcrtht8PAg", "alias": "feliccias-italian-restaurant-deli-and-catering-vista", "name": "Feliccia's Italian Restaurant, Deli & Catering", "image_url": "https://s3-media3.fl.yelpcdn.com/bphoto/VQ-18Am3LRTNW9fStBY22g/o.jpg", "is_closed": false, "url": "https://www.yelp.com/biz/feliccias-italian-restaurant-deli-and-catering-vista?adjust_creative=oncXGL2aPIKrtJdnWeFSnA&utm_campaign=yelp_api_v3&utm_medium=api_v3_business_search&utm_source=oncXGL2aPIKrtJdnWeFSnA", "review_count": 104, "categories": [{"alias": "delis", "title": "Delis"}, {"alias": "italian", "title": "Italian"}], "rating": 4.5, "coordinates": {"latitude": 33.1920623779297, "longitude": -117.230804443359}, "transactions": ["pickup", "delivery"], "price": "$$", "location": {"address1": "1011 S Santa Fe Ave", "address2": "Ste C", "address3": "", "city": "Vista", "zip_code": "92083", "country": "US", "state": "CA", "display_address": ["1011 S Santa Fe Ave", "Ste C", "Vista, CA 92083"]}, "phone": "+17607589167", "display_phone": "(760) 758-9167", "distance": 8969.331463015556}, {"id": "ICzXLXsx5L1VAoCm3su0ow", "alias": "boba-hut-and-deli-vista", "name": "Boba Hut And Deli", "image_url": "https://s3-media2.fl.yelpcdn.com/bphoto/s6QShhZJQhWb5ZxauxUI9A/o.jpg", "is_closed": false, "url": "https://www.yelp.com/biz/boba-hut-and-deli-vista?adjust_creative=oncXGL2aPIKrtJdnWeFSnA&utm_campaign=yelp_api_v3&utm_medium=api_v3_business_search&utm_source=oncXGL2aPIKrtJdnWeFSnA", "review_count": 115, "categories": [{"alias": "juicebars", "title": "Juice Bars & Smoothies"}, {"alias": "bubbletea", "title": "Bubble Tea"}, {"alias": "delis", "title": "Delis"}], "rating": 4.0, "coordinates": {"latitude": 33.16585, "longitude": -117.24543}, "transactions": [], "price": "$", "location": {"address1": "1680 S Melrose Dr", "address2": "Ste 101", "address3": "", "city": "Vista", "zip_code": "92081", "country": "US", "state": "CA", "display_address": ["1680 S Melrose Dr", "Ste 101", "Vista, CA 92081"]}, "phone": "+17602245848", "display_phone": "(760) 224-5848", "distance": 9474.706394976702}, {"id": "-7sl6bSICSFzNFqmlqdDrQ", "alias": "the-pointed-roof-delicatessen-escondido", "name": "The Pointed Roof Delicatessen", "image_url": "https://s3-media1.fl.yelpcdn.com/bphoto/1-vD3woH6n3d65MLkD466w/o.jpg", "is_closed": false, "url": "https://www.yelp.com/biz/the-pointed-roof-delicatessen-escondido?adjust_creative=oncXGL2aPIKrtJdnWeFSnA&utm_campaign=yelp_api_v3&utm_medium=api_v3_business_search&utm_source=oncXGL2aPIKrtJdnWeFSnA", "review_count": 175, "categories": [{"alias": "delis", "title": "Delis"}, {"alias": "sandwiches", "title": "Sandwiches"}, {"alias": "breakfast_brunch", "title": "Breakfast & Brunch"}], "rating": 4.5, "coordinates": {"latitude": 33.249429, "longitude": -117.1463397}, "transactions": [], "price": "$", "location": {"address1": "8751 Old Castle Rd", "address2": "Ste C", "address3": "", "city": "Escondido", "zip_code": "92026", "country": "US", "state": "CA", "display_address": ["8751 Old Castle Rd", "Ste C", "Escondido, CA 92026"]}, "phone": "+17607499866", "display_phone": "(760) 749-9866", "distance": 16193.62060767934}, {"id": "vNiijPbS2EX77YXgdwdMDA", "alias": "garden-state-bagels-carlsbad-5", "name": "Garden State Bagels", "image_url": "https://s3-media1.fl.yelpcdn.com/bphoto/-l5C6qen71OpD3jU9rpkyQ/o.jpg", "is_closed": false, "url": "https://www.yelp.com/biz/garden-state-bagels-carlsbad-5?adjust_creative=oncXGL2aPIKrtJdnWeFSnA&utm_campaign=yelp_api_v3&utm_medium=api_v3_business_search&utm_source=oncXGL2aPIKrtJdnWeFSnA", "review_count": 2, "categories": [{"alias": "bagels", "title": "Bagels"}, {"alias": "sandwiches", "title": "Sandwiches"}, {"alias": "delis", "title": "Delis"}], "rating": 5.0, "coordinates": {"latitude": 33.12129, "longitude": -117.31881}, "transactions": [], "location": {"address1": "6020 Paseo Del Norte", "address2": "", "address3": null, "city": "Carlsbad", "zip_code": "92011", "country": "US", "state": "CA", "display_address": ["6020 Paseo Del Norte", "Carlsbad, CA 92011"]}, "phone": "+17604761000", "display_phone": "(760) 476-1000", "distance": 11645.162598865758}, {"id": "SSUQ_HsWKquoWzm3B-sBdw", "alias": "stater-bros-markets-oceanside-2", "name": "Stater Bros. Markets", "image_url": "https://s3-media1.fl.yelpcdn.com/bphoto/VIOwbqAN3ziVzgbwCaHuRw/o.jpg", "is_closed": false, "url": "https://www.yelp.com/biz/stater-bros-markets-oceanside-2?adjust_creative=oncXGL2aPIKrtJdnWeFSnA&utm_campaign=yelp_api_v3&utm_medium=api_v3_business_search&utm_source=oncXGL2aPIKrtJdnWeFSnA", "review_count": 55, "categories": [{"alias": "grocery", "title": "Grocery"}, {"alias": "delis", "title": "Delis"}, {"alias": "butcher", "title": "Butcher"}], "rating": 3.0, "coordinates": {"latitude": 33.2266728168863, "longitude": -117.332689538598}, "transactions": [], "price": "$$", "location": {"address1": "3770 Mission Ave", "address2": "", "address3": "", "city": "Oceanside", "zip_code": "92058", "country": "US", "state": "CA", "display_address": ["3770 Mission Ave", "Oceanside, CA 92058"]}, "phone": "+17607543770", "display_phone": "(760) 754-3770", "distance": 1350.560533392632}, {"id": "T7clD90oNlDnp9qlvziAOw", "alias": "on-a-roll-carlsbad", "name": "On A Roll", "image_url": "https://s3-media2.fl.yelpcdn.com/bphoto/hfliA0C0D5yL6SCzJG4wUA/o.jpg", "is_closed": false, "url": "https://www.yelp.com/biz/on-a-roll-carlsbad?adjust_creative=oncXGL2aPIKrtJdnWeFSnA&utm_campaign=yelp_api_v3&utm_medium=api_v3_business_search&utm_source=oncXGL2aPIKrtJdnWeFSnA", "review_count": 78, "categories": [{"alias": "sandwiches", "title": "Sandwiches"}, {"alias": "delis", "title": "Delis"}], "rating": 4.5, "coordinates": {"latitude": 33.131852, "longitude": -117.253401}, "transactions": [], "price": "$", "location": {"address1": "2794 Loker Ave W", "address2": "Ste 110", "address3": "", "city": "Carlsbad", "zip_code": "92008", "country": "US", "state": "CA", "display_address": ["2794 Loker Ave W", "Ste 110", "Carlsbad, CA 92008"]}, "phone": "+17604318148", "display_phone": "(760) 431-8148", "distance": 12082.039445636694}, {"id": "9mF7DltVsFwnG4z-OhyWdQ", "alias": "north-park-produce-vista", "name": "North Park Produce", "image_url": "https://s3-media4.fl.yelpcdn.com/bphoto/dLuy_fdOhsdS9iCrba1v3w/o.jpg", "is_closed": false, "url": "https://www.yelp.com/biz/north-park-produce-vista?adjust_creative=oncXGL2aPIKrtJdnWeFSnA&utm_campaign=yelp_api_v3&utm_medium=api_v3_business_search&utm_source=oncXGL2aPIKrtJdnWeFSnA", "review_count": 135, "categories": [{"alias": "grocery", "title": "Grocery"}, {"alias": "bakeries", "title": "Bakeries"}, {"alias": "delis", "title": "Delis"}], "rating": 3.5, "coordinates": {"latitude": 33.184873, "longitude": -117.282498}, "transactions": ["pickup", "delivery"], "price": "$", "location": {"address1": "1952 Hacienda Dr", "address2": "", "address3": "", "city": "Vista", "zip_code": "92081", "country": "US", "state": "CA", "display_address": ["1952 Hacienda Dr", "Vista, CA 92081"]}, "phone": "+17606318434", "display_phone": "(760) 631-8434", "distance": 5652.522621932841}, {"id": "x6SlqaQibFRR3vLapp-9ng", "alias": "yogurt-giant-vista", "name": "Yogurt Giant", "image_url": "https://s3-media1.fl.yelpcdn.com/bphoto/W6nlfCN1HE_ifJb0BnotJg/o.jpg", "is_closed": false, "url": "https://www.yelp.com/biz/yogurt-giant-vista?adjust_creative=oncXGL2aPIKrtJdnWeFSnA&utm_campaign=yelp_api_v3&utm_medium=api_v3_business_search&utm_source=oncXGL2aPIKrtJdnWeFSnA", "review_count": 31, "categories": [{"alias": "icecream", "title": "Ice Cream & Frozen Yogurt"}, {"alias": "delis", "title": "Delis"}], "rating": 4.5, "coordinates": {"latitude": 33.1889187544584, "longitude": -117.280108854175}, "transactions": [], "price": "$", "location": {"address1": "1817 W Vista Way", "address2": "Ste E", "address3": "", "city": "Vista", "zip_code": "92083", "country": "US", "state": "CA", "display_address": ["1817 W Vista Way", "Ste E", "Vista, CA 92083"]}, "phone": "+17607582361", "display_phone": "(760) 758-2361", "distance": 5386.2128625285}, {"id": "FTmg3nAWqHMFg_uqUhOf8Q", "alias": "firehouse-subs-oceanside", "name": "Firehouse Subs", "image_url": "https://s3-media2.fl.yelpcdn.com/bphoto/C0ir7tT9VhnOyO9mws2ltw/o.jpg", "is_closed": false, "url": "https://www.yelp.com/biz/firehouse-subs-oceanside?adjust_creative=oncXGL2aPIKrtJdnWeFSnA&utm_campaign=yelp_api_v3&utm_medium=api_v3_business_search&utm_source=oncXGL2aPIKrtJdnWeFSnA", "review_count": 208, "categories": [{"alias": "sandwiches", "title": "Sandwiches"}, {"alias": "hotdogs", "title": "Fast Food"}, {"alias": "delis", "title": "Delis"}], "rating": 3.5, "coordinates": {"latitude": 33.183075, "longitude": -117.3309326}, "transactions": ["pickup", "delivery"], "price": "$", "location": {"address1": "2619-B1 Vista Way", "address2": "", "address3": "", "city": "Oceanside", "zip_code": "92054", "country": "US", "state": "CA", "display_address": ["2619-B1 Vista Way", "Oceanside, CA 92054"]}, "phone": "+17607214321", "display_phone": "(760) 721-4321", "distance": 5041.772206116263}, {"id": "Kq3ZmMu-fY4bvKnqvyAXAw", "alias": "tropical-juices-and-deli-vista", "name": "Tropical Juices & Deli", "image_url": "https://s3-media1.fl.yelpcdn.com/bphoto/66XThM4WCVg5pJwWo0kAww/o.jpg", "is_closed": false, "url": "https://www.yelp.com/biz/tropical-juices-and-deli-vista?adjust_creative=oncXGL2aPIKrtJdnWeFSnA&utm_campaign=yelp_api_v3&utm_medium=api_v3_business_search&utm_source=oncXGL2aPIKrtJdnWeFSnA", "review_count": 192, "categories": [{"alias": "juicebars", "title": "Juice Bars & Smoothies"}, {"alias": "delis", "title": "Delis"}, {"alias": "sandwiches", "title": "Sandwiches"}], "rating": 4.5, "coordinates": {"latitude": 33.1564714, "longitude": -117.2237797}, "transactions": ["pickup"], "price": "$", "location": {"address1": "1116 Sycamore Ave", "address2": "", "address3": "", "city": "Vista", "zip_code": "92081", "country": "US", "state": "CA", "display_address": ["1116 Sycamore Ave", "Vista, CA 92081"]}, "phone": "+17605987039", "display_phone": "(760) 598-7039", "distance": 11747.727220448305}, {"id": "jlTP6czWJTT2cLZmEm4s8A", "alias": "stater-bros-markets-oceanside-3", "name": "Stater Bros. Markets", "image_url": "https://s3-media4.fl.yelpcdn.com/bphoto/QW0tfgSxUkGRUgnrviYfkQ/o.jpg", "is_closed": false, "url": "https://www.yelp.com/biz/stater-bros-markets-oceanside-3?adjust_creative=oncXGL2aPIKrtJdnWeFSnA&utm_campaign=yelp_api_v3&utm_medium=api_v3_business_search&utm_source=oncXGL2aPIKrtJdnWeFSnA", "review_count": 54, "categories": [{"alias": "grocery", "title": "Grocery"}, {"alias": "delis", "title": "Delis"}, {"alias": "butcher", "title": "Butcher"}], "rating": 3.5, "coordinates": {"latitude": 33.1824989318848, "longitude": -117.342506408691}, "transactions": [], "price": "$$", "location": {"address1": "2170 Vista Way", "address2": "", "address3": "", "city": "Oceanside", "zip_code": "92054", "country": "US", "state": "CA", "display_address": ["2170 Vista Way", "Oceanside, CA 92054"]}, "phone": "+17607573200", "display_phone": "(760) 757-3200", "distance": 5340.912898368268}, {"id": "7i-PPdA1TPfs4DSz-fmw3Q", "alias": "hello-deli-vista", "name": "Hello Deli", "image_url": "https://s3-media4.fl.yelpcdn.com/bphoto/8vXC_DipoXMNwYKKDMpQJA/o.jpg", "is_closed": false, "url": "https://www.yelp.com/biz/hello-deli-vista?adjust_creative=oncXGL2aPIKrtJdnWeFSnA&utm_campaign=yelp_api_v3&utm_medium=api_v3_business_search&utm_source=oncXGL2aPIKrtJdnWeFSnA", "review_count": 86, "categories": [{"alias": "delis", "title": "Delis"}, {"alias": "sandwiches", "title": "Sandwiches"}], "rating": 4.5, "coordinates": {"latitude": 33.147847, "longitude": -117.216487}, "transactions": ["pickup", "delivery"], "price": "$", "location": {"address1": "2820 La Mirada Dr", "address2": "Ste A", "address3": "", "city": "Vista", "zip_code": "92081", "country": "US", "state": "CA", "display_address": ["2820 La Mirada Dr", "Ste A", "Vista, CA 92081"]}, "phone": "+17605981055", "display_phone": "(760) 598-1055", "distance": 12849.616363096065}, {"id": "6RuFTvCe2lHGbY3juN1NkA", "alias": "jersey-mikes-subs-oceanside-3", "name": "Jersey Mike's Subs", "image_url": "https://s3-media2.fl.yelpcdn.com/bphoto/aYVqq_bhoaVVVeLyM6majw/o.jpg", "is_closed": false, "url": "https://www.yelp.com/biz/jersey-mikes-subs-oceanside-3?adjust_creative=oncXGL2aPIKrtJdnWeFSnA&utm_campaign=yelp_api_v3&utm_medium=api_v3_business_search&utm_source=oncXGL2aPIKrtJdnWeFSnA", "review_count": 89, "categories": [{"alias": "sandwiches", "title": "Sandwiches"}, {"alias": "hotdogs", "title": "Fast Food"}, {"alias": "delis", "title": "Delis"}], "rating": 3.0, "coordinates": {"latitude": 33.2054674112467, "longitude": -117.288587180336}, "transactions": [], "price": "$", "location": {"address1": "4111 Oceanside Blvd", "address2": "Ste 100", "address3": "", "city": "Oceanside", "zip_code": "92056", "country": "US", "state": "CA", "display_address": ["4111 Oceanside Blvd", "Ste 100", "Oceanside, CA 92056"]}, "phone": "+17602953339", "display_phone": "(760) 295-3339", "distance": 3577.9844594522924}, {"id": "SxHNYnio1-VwM4oObjejxA", "alias": "jersey-mikes-subs-oceanside-5", "name": "Jersey Mike's Subs", "image_url": "https://s3-media3.fl.yelpcdn.com/bphoto/iEqNEZVis17SAe-b-vPz8g/o.jpg", "is_closed": false, "url": "https://www.yelp.com/biz/jersey-mikes-subs-oceanside-5?adjust_creative=oncXGL2aPIKrtJdnWeFSnA&utm_campaign=yelp_api_v3&utm_medium=api_v3_business_search&utm_source=oncXGL2aPIKrtJdnWeFSnA", "review_count": 32, "categories": [{"alias": "sandwiches", "title": "Sandwiches"}, {"alias": "hotdogs", "title": "Fast Food"}, {"alias": "delis", "title": "Delis"}], "rating": 4.5, "coordinates": {"latitude": 33.1952972412109, "longitude": -117.381057739258}, "transactions": [], "price": "$", "location": {"address1": "302 Mission Ave", "address2": "", "address3": "", "city": "Oceanside", "zip_code": "92054", "country": "US", "state": "CA", "display_address": ["302 Mission Ave", "Oceanside, CA 92054"]}, "phone": "+17604350783", "display_phone": "(760) 435-0783", "distance": 6779.036042752816}, {"id": "lENUpZIYiGYyj3MQz66yXw", "alias": "ranch-market-vista-2", "name": "Ranch Market", "image_url": "", "is_closed": false, "url": "https://www.yelp.com/biz/ranch-market-vista-2?adjust_creative=oncXGL2aPIKrtJdnWeFSnA&utm_campaign=yelp_api_v3&utm_medium=api_v3_business_search&utm_source=oncXGL2aPIKrtJdnWeFSnA", "review_count": 1, "categories": [{"alias": "delis", "title": "Delis"}, {"alias": "grocery", "title": "Grocery"}, {"alias": "juicebars", "title": "Juice Bars & Smoothies"}], "rating": 4.0, "coordinates": {"latitude": 33.13312, "longitude": -117.22957}, "transactions": [], "location": {"address1": "3225 Business Park Dr", "address2": "", "address3": null, "city": "Vista", "zip_code": "92081", "country": "US", "state": "CA", "display_address": ["3225 Business Park Dr", "Vista, CA 92081"]}, "phone": "+17605997043", "display_phone": "(760) 599-7043", "distance": 13208.539629064373}, {"id": "67Ka_iWECfjXxuBs_lc6Jg", "alias": "patron-meat-market-and-deli-san-marcos", "name": "Patron Meat Market & Deli", "image_url": "https://s3-media3.fl.yelpcdn.com/bphoto/-c1Lp7jOh6OmmVfSpyKxlg/o.jpg", "is_closed": false, "url": "https://www.yelp.com/biz/patron-meat-market-and-deli-san-marcos?adjust_creative=oncXGL2aPIKrtJdnWeFSnA&utm_campaign=yelp_api_v3&utm_medium=api_v3_business_search&utm_source=oncXGL2aPIKrtJdnWeFSnA", "review_count": 20, "categories": [{"alias": "grocery", "title": "Grocery"}, {"alias": "meats", "title": "Meat Shops"}, {"alias": "delis", "title": "Delis"}], "rating": 4.5, "coordinates": {"latitude": 33.14114, "longitude": -117.16572}, "transactions": [], "price": "$", "location": {"address1": "204 W San Marcos Blvd", "address2": "Ste 101", "address3": "", "city": "San Marcos", "zip_code": "92069", "country": "US", "state": "CA", "display_address": ["204 W San Marcos Blvd", "Ste 101", "San Marcos, CA 92069"]}, "phone": "+17607360086", "display_phone": "(760) 736-0086", "distance": 17058.472309495104}, {"id": "Ql7ltF83fHTpPAA6Lmrarg", "alias": "togo-s-sandwiches-oceanside", "name": "Togo\u2019s Sandwiches", "image_url": "https://s3-media2.fl.yelpcdn.com/bphoto/ml8y_bQ0eL96led6jSFXbw/o.jpg", "is_closed": false, "url": "https://www.yelp.com/biz/togo-s-sandwiches-oceanside?adjust_creative=oncXGL2aPIKrtJdnWeFSnA&utm_campaign=yelp_api_v3&utm_medium=api_v3_business_search&utm_source=oncXGL2aPIKrtJdnWeFSnA", "review_count": 58, "categories": [{"alias": "sandwiches", "title": "Sandwiches"}, {"alias": "delis", "title": "Delis"}, {"alias": "hotdogs", "title": "Fast Food"}], "rating": 2.5, "coordinates": {"latitude": 33.20675, "longitude": -117.28429}, "transactions": ["pickup", "delivery"], "price": "$", "location": {"address1": "4201 Oceanside Blvd", "address2": "Unit A", "address3": "", "city": "Oceanside", "zip_code": "92056", "country": "US", "state": "CA", "display_address": ["4201 Oceanside Blvd", "Unit A", "Oceanside, CA 92056"]}, "phone": "+17606311375", "display_phone": "(760) 631-1375", "distance": 3791.4109747766465}, {"id": "Tf5Bs1iL7zWVKBblGPyvlA", "alias": "vistas-icebox-vista", "name": "Vista's Icebox", "image_url": "https://s3-media3.fl.yelpcdn.com/bphoto/HQUs0cv-e6Gya3HSIK2j-g/o.jpg", "is_closed": false, "url": "https://www.yelp.com/biz/vistas-icebox-vista?adjust_creative=oncXGL2aPIKrtJdnWeFSnA&utm_campaign=yelp_api_v3&utm_medium=api_v3_business_search&utm_source=oncXGL2aPIKrtJdnWeFSnA", "review_count": 180, "categories": [{"alias": "delis", "title": "Delis"}, {"alias": "sandwiches", "title": "Sandwiches"}, {"alias": "coffee", "title": "Coffee & Tea"}], "rating": 4.5, "coordinates": {"latitude": 33.1398968, "longitude": -117.2410642}, "transactions": ["pickup", "delivery"], "price": "$", "location": {"address1": "2260 Oak Ridge Way", "address2": "Ste B", "address3": "", "city": "Vista", "zip_code": "92081", "country": "US", "state": "CA", "display_address": ["2260 Oak Ridge Way", "Ste B", "Vista, CA 92081"]}, "phone": "+17605998874", "display_phone": "(760) 599-8874", "distance": 11966.793732406124}, {"id": "rw7PDNsREcPQXzaxoSzo2g", "alias": "franciscos-mexican-deli-vista", "name": "Francisco's Mexican Deli", "image_url": "https://s3-media2.fl.yelpcdn.com/bphoto/IMQxSbIFDvcHyzUIen-H7g/o.jpg", "is_closed": false, "url": "https://www.yelp.com/biz/franciscos-mexican-deli-vista?adjust_creative=oncXGL2aPIKrtJdnWeFSnA&utm_campaign=yelp_api_v3&utm_medium=api_v3_business_search&utm_source=oncXGL2aPIKrtJdnWeFSnA", "review_count": 28, "categories": [{"alias": "mexican", "title": "Mexican"}, {"alias": "delis", "title": "Delis"}, {"alias": "soup", "title": "Soup"}], "rating": 4.5, "coordinates": {"latitude": 33.2108, "longitude": -117.244499}, "transactions": [], "price": "$", "location": {"address1": "821 N Santa Fe Ave", "address2": "", "address3": "", "city": "Vista", "zip_code": "92084", "country": "US", "state": "CA", "display_address": ["821 N Santa Fe Ave", "Vista, CA 92084"]}, "phone": "+17607240045", "display_phone": "(760) 724-0045", "distance": 7069.816869325131}, {"id": "b53K_YhD918rxnk-VFXc6A", "alias": "jersey-mikes-oceanside-2", "name": "Jersey Mikes", "image_url": "https://s3-media2.fl.yelpcdn.com/bphoto/H3dTJ8WZ5Jol7Y_NKqMv2g/o.jpg", "is_closed": false, "url": "https://www.yelp.com/biz/jersey-mikes-oceanside-2?adjust_creative=oncXGL2aPIKrtJdnWeFSnA&utm_campaign=yelp_api_v3&utm_medium=api_v3_business_search&utm_source=oncXGL2aPIKrtJdnWeFSnA", "review_count": 5, "categories": [{"alias": "hotdogs", "title": "Fast Food"}, {"alias": "delis", "title": "Delis"}, {"alias": "sandwiches", "title": "Sandwiches"}], "rating": 5.0, "coordinates": {"latitude": 33.195073112179, "longitude": -117.381085976958}, "transactions": [], "location": {"address1": "302 Mission Ave", "address2": "", "address3": "", "city": "Oceanside", "zip_code": "92054", "country": "US", "state": "CA", "display_address": ["302 Mission Ave", "Oceanside, CA 92054"]}, "phone": "+17604350783", "display_phone": "(760) 435-0783", "distance": 6787.5093767943645}, {"id": "j_te1-9iaR9wKninc321ZA", "alias": "jimbos-naturally-carlsbad-2", "name": "Jimbo's Naturally", "image_url": "https://s3-media1.fl.yelpcdn.com/bphoto/K3ygk02bWaDy5LYckJr-YA/o.jpg", "is_closed": false, "url": "https://www.yelp.com/biz/jimbos-naturally-carlsbad-2?adjust_creative=oncXGL2aPIKrtJdnWeFSnA&utm_campaign=yelp_api_v3&utm_medium=api_v3_business_search&utm_source=oncXGL2aPIKrtJdnWeFSnA", "review_count": 183, "categories": [{"alias": "grocery", "title": "Grocery"}, {"alias": "delis", "title": "Delis"}, {"alias": "healthmarkets", "title": "Health Markets"}], "rating": 4.0, "coordinates": {"latitude": 33.0723073917475, "longitude": -117.265005342293}, "transactions": [], "price": "$$", "location": {"address1": "1923 Calle Barcelona", "address2": "Ste 149", "address3": "", "city": "Carlsbad", "zip_code": "92009", "country": "US", "state": "CA", "display_address": ["1923 Calle Barcelona", "Ste 149", "Carlsbad, CA 92009"]}, "phone": "+17603347755", "display_phone": "(760) 334-7755", "distance": 17793.68725851597}, {"id": "-ZJVaXutyni9O9dou0sJTA", "alias": "campus-cafe-carlsbad", "name": "Campus Cafe", "image_url": "https://s3-media1.fl.yelpcdn.com/bphoto/cyjsjGYNkARnS83MdlvveA/o.jpg", "is_closed": false, "url": "https://www.yelp.com/biz/campus-cafe-carlsbad?adjust_creative=oncXGL2aPIKrtJdnWeFSnA&utm_campaign=yelp_api_v3&utm_medium=api_v3_business_search&utm_source=oncXGL2aPIKrtJdnWeFSnA", "review_count": 121, "categories": [{"alias": "delis", "title": "Delis"}, {"alias": "cafes", "title": "Cafes"}, {"alias": "sandwiches", "title": "Sandwiches"}], "rating": 4.5, "coordinates": {"latitude": 33.131802, "longitude": -117.270076}, "transactions": [], "price": "$", "location": {"address1": "5966 La Place Ct", "address2": "Ste 150", "address3": "", "city": "Carlsbad", "zip_code": "92008", "country": "US", "state": "CA", "display_address": ["5966 La Place Ct", "Ste 150", "Carlsbad, CA 92008"]}, "phone": "+17604319210", "display_phone": "(760) 431-9210", "distance": 11392.339625367273}, {"id": "zbgK2W9N6akeTIsjVXPjXg", "alias": "gelsons-market-carlsbad", "name": "Gelson's Market", "image_url": "https://s3-media1.fl.yelpcdn.com/bphoto/vtZXWaYbDjXh9bslEWSuvA/o.jpg", "is_closed": false, "url": "https://www.yelp.com/biz/gelsons-market-carlsbad?adjust_creative=oncXGL2aPIKrtJdnWeFSnA&utm_campaign=yelp_api_v3&utm_medium=api_v3_business_search&utm_source=oncXGL2aPIKrtJdnWeFSnA", "review_count": 113, "categories": [{"alias": "delis", "title": "Delis"}, {"alias": "grocery", "title": "Grocery"}, {"alias": "wine_bars", "title": "Wine Bars"}], "rating": 3.5, "coordinates": {"latitude": 33.08707, "longitude": -117.26757}, "transactions": [], "price": "$$", "location": {"address1": "7660 El Camino Real", "address2": "", "address3": "", "city": "Carlsbad", "zip_code": "92009", "country": "US", "state": "CA", "display_address": ["7660 El Camino Real", "Carlsbad, CA 92009"]}, "phone": "+17606327511", "display_phone": "(760) 632-7511", "distance": 16135.547842653676}, {"id": "ifX08kFZ4I2madZUxzf1sA", "alias": "off-the-vine-gardens-deli-and-catering-carlsbad", "name": "Off the Vine Gardens Deli & Catering", "image_url": "https://s3-media3.fl.yelpcdn.com/bphoto/OfutisH7Zfj2KuAgqnRS-w/o.jpg", "is_closed": false, "url": "https://www.yelp.com/biz/off-the-vine-gardens-deli-and-catering-carlsbad?adjust_creative=oncXGL2aPIKrtJdnWeFSnA&utm_campaign=yelp_api_v3&utm_medium=api_v3_business_search&utm_source=oncXGL2aPIKrtJdnWeFSnA", "review_count": 41, "categories": [{"alias": "delis", "title": "Delis"}], "rating": 4.5, "coordinates": {"latitude": 33.1203511, "longitude": -117.2678072}, "transactions": [], "price": "$", "location": {"address1": "2382 Camino Vida Roble", "address2": "", "address3": "", "city": "Carlsbad", "zip_code": "92011", "country": "US", "state": "CA", "display_address": ["2382 Camino Vida Roble", "Carlsbad, CA 92011"]}, "phone": "+17604387701", "display_phone": "(760) 438-7701", "distance": 12649.952866918526}, {"id": "MHO_ugU11W8ZJ26wi93fTA", "alias": "stater-bros-markets-carlsbad-2", "name": "Stater Bros. Markets", "image_url": "https://s3-media2.fl.yelpcdn.com/bphoto/q14g-qeruIdFGEZ19KUxTQ/o.jpg", "is_closed": false, "url": "https://www.yelp.com/biz/stater-bros-markets-carlsbad-2?adjust_creative=oncXGL2aPIKrtJdnWeFSnA&utm_campaign=yelp_api_v3&utm_medium=api_v3_business_search&utm_source=oncXGL2aPIKrtJdnWeFSnA", "review_count": 94, "categories": [{"alias": "grocery", "title": "Grocery"}, {"alias": "butcher", "title": "Butcher"}, {"alias": "delis", "title": "Delis"}], "rating": 3.0, "coordinates": {"latitude": 33.126631, "longitude": -117.251903}, "transactions": [], "price": "$$", "location": {"address1": "2687 Gateway Rd", "address2": "", "address3": "", "city": "Carlsbad", "zip_code": "92009", "country": "US", "state": "CA", "display_address": ["2687 Gateway Rd", "Carlsbad, CA 92009"]}, "phone": "+17609297900", "display_phone": "(760) 929-7900", "distance": 12655.913604179572}, {"id": "xb1jTBh_VmLZuSNTAKOOeg", "alias": "jersey-mikes-subs-carlsbad-3", "name": "Jersey Mike's Subs", "image_url": "https://s3-media1.fl.yelpcdn.com/bphoto/lOD_Gvz95r3ebObAzVEAYA/o.jpg", "is_closed": false, "url": "https://www.yelp.com/biz/jersey-mikes-subs-carlsbad-3?adjust_creative=oncXGL2aPIKrtJdnWeFSnA&utm_campaign=yelp_api_v3&utm_medium=api_v3_business_search&utm_source=oncXGL2aPIKrtJdnWeFSnA", "review_count": 92, "categories": [{"alias": "sandwiches", "title": "Sandwiches"}, {"alias": "hotdogs", "title": "Fast Food"}, {"alias": "delis", "title": "Delis"}], "rating": 4.0, "coordinates": {"latitude": 33.1770245, "longitude": -117.3261232}, "transactions": [], "price": "$", "location": {"address1": "2604 El Camino Real", "address2": "", "address3": "", "city": "Carlsbad", "zip_code": "92008", "country": "US", "state": "CA", "display_address": ["2604 El Camino Real", "Carlsbad, CA 92008"]}, "phone": "+17607307300", "display_phone": "(760) 730-7300", "distance": 5496.636767676083}, {"id": "gmHkqenw3AIWoB-mQN60-Q", "alias": "lindas-yogurt-and-deli-carlsbad", "name": "Linda's Yogurt & Deli", "image_url": "https://s3-media4.fl.yelpcdn.com/bphoto/6iuMHxkPTR-piQSb9efn4g/o.jpg", "is_closed": false, "url": "https://www.yelp.com/biz/lindas-yogurt-and-deli-carlsbad?adjust_creative=oncXGL2aPIKrtJdnWeFSnA&utm_campaign=yelp_api_v3&utm_medium=api_v3_business_search&utm_source=oncXGL2aPIKrtJdnWeFSnA", "review_count": 120, "categories": [{"alias": "icecream", "title": "Ice Cream & Frozen Yogurt"}, {"alias": "delis", "title": "Delis"}, {"alias": "sandwiches", "title": "Sandwiches"}], "rating": 4.0, "coordinates": {"latitude": 33.1578780537403, "longitude": -117.351289075598}, "transactions": ["pickup", "delivery"], "price": "$", "location": {"address1": "3001 Carlsbad Blvd", "address2": "", "address3": "", "city": "Carlsbad", "zip_code": "92008", "country": "US", "state": "CA", "display_address": ["3001 Carlsbad Blvd", "Carlsbad, CA 92008"]}, "phone": "+17607293005", "display_phone": "(760) 729-3005", "distance": 8177.94590870689}, {"id": "7ch0XxdFIIvG4ybhSZYP6Q", "alias": "stater-bros-markets-vista-3", "name": "Stater Bros. Markets", "image_url": "https://s3-media2.fl.yelpcdn.com/bphoto/q577YAwuau8TvahwtEvIiQ/o.jpg", "is_closed": false, "url": "https://www.yelp.com/biz/stater-bros-markets-vista-3?adjust_creative=oncXGL2aPIKrtJdnWeFSnA&utm_campaign=yelp_api_v3&utm_medium=api_v3_business_search&utm_source=oncXGL2aPIKrtJdnWeFSnA", "review_count": 38, "categories": [{"alias": "grocery", "title": "Grocery"}, {"alias": "delis", "title": "Delis"}, {"alias": "butcher", "title": "Butcher"}], "rating": 2.5, "coordinates": {"latitude": 33.2203868, "longitude": -117.2436}, "transactions": [], "price": "$", "location": {"address1": "1451 N Santa Fe Ave", "address2": "", "address3": "", "city": "Vista", "zip_code": "92084", "country": "US", "state": "CA", "display_address": ["1451 N Santa Fe Ave", "Vista, CA 92084"]}, "phone": "+17607268485", "display_phone": "(760) 726-8485", "distance": 6966.554078447733}, {"id": "QoJO1cPX-SiQZBuI7NtzBg", "alias": "judys-deli-carlsbad", "name": "Judy's Deli", "image_url": "https://s3-media1.fl.yelpcdn.com/bphoto/0LG0xZjWEJwIsXG2o5J6Mg/o.jpg", "is_closed": false, "url": "https://www.yelp.com/biz/judys-deli-carlsbad?adjust_creative=oncXGL2aPIKrtJdnWeFSnA&utm_campaign=yelp_api_v3&utm_medium=api_v3_business_search&utm_source=oncXGL2aPIKrtJdnWeFSnA", "review_count": 42, "categories": [{"alias": "delis", "title": "Delis"}], "rating": 4.5, "coordinates": {"latitude": 33.1183369553985, "longitude": -117.278504349074}, "transactions": [], "price": "$", "location": {"address1": "2035 Corte Del Nogal", "address2": "", "address3": "", "city": "Carlsbad", "zip_code": "92009", "country": "US", "state": "CA", "display_address": ["2035 Corte Del Nogal", "Carlsbad, CA 92009"]}, "phone": "+17604317108", "display_phone": "(760) 431-7108", "distance": 12529.483209956656}, {"id": "UkRTgZnlewR-uaUR-1_LYg", "alias": "forum-deli-carlsbad", "name": "Forum Deli", "image_url": "https://s3-media3.fl.yelpcdn.com/bphoto/QDU6WceoP5yGZE9v-ZeEQw/o.jpg", "is_closed": false, "url": "https://www.yelp.com/biz/forum-deli-carlsbad?adjust_creative=oncXGL2aPIKrtJdnWeFSnA&utm_campaign=yelp_api_v3&utm_medium=api_v3_business_search&utm_source=oncXGL2aPIKrtJdnWeFSnA", "review_count": 19, "categories": [{"alias": "salad", "title": "Salad"}, {"alias": "delis", "title": "Delis"}, {"alias": "sandwiches", "title": "Sandwiches"}], "rating": 4.5, "coordinates": {"latitude": 33.13083, "longitude": -117.24115}, "transactions": ["pickup", "delivery"], "price": "$", "location": {"address1": "3132 Tiger Run Ct", "address2": "Ste 107", "address3": "", "city": "Carlsbad", "zip_code": "92010", "country": "US", "state": "CA", "display_address": ["3132 Tiger Run Ct", "Ste 107", "Carlsbad, CA 92010"]}, "phone": "+17605970228", "display_phone": "(760) 597-0228", "distance": 12692.154450279206}, {"id": "QdbtyP4SxLt_zx13NvC4XA", "alias": "dominicks-delicatessen-fallbrook-2", "name": "Dominick's Delicatessen", "image_url": "https://s3-media4.fl.yelpcdn.com/bphoto/Fmg8j-RvbjdOZesEZg2H-A/o.jpg", "is_closed": false, "url": "https://www.yelp.com/biz/dominicks-delicatessen-fallbrook-2?adjust_creative=oncXGL2aPIKrtJdnWeFSnA&utm_campaign=yelp_api_v3&utm_medium=api_v3_business_search&utm_source=oncXGL2aPIKrtJdnWeFSnA", "review_count": 152, "categories": [{"alias": "delis", "title": "Delis"}, {"alias": "intlgrocery", "title": "International Grocery"}], "rating": 4.0, "coordinates": {"latitude": 33.36205, "longitude": -117.24877}, "transactions": [], "price": "$", "location": {"address1": "1672 S Mission Rd", "address2": "Ste A", "address3": "", "city": "Fallbrook", "zip_code": "92028", "country": "US", "state": "CA", "display_address": ["1672 S Mission Rd", "Ste A", "Fallbrook, CA 92028"]}, "phone": "+17607287911", "display_phone": "(760) 728-7911", "distance": 16468.420320428442}, {"id": "5a01fuDf95DlUVxMZ0ahJA", "alias": "la-place-deli-carlsbad", "name": "La Place Deli", "image_url": "https://s3-media2.fl.yelpcdn.com/bphoto/3QhPlugX6JSDtvhIQpoelg/o.jpg", "is_closed": false, "url": "https://www.yelp.com/biz/la-place-deli-carlsbad?adjust_creative=oncXGL2aPIKrtJdnWeFSnA&utm_campaign=yelp_api_v3&utm_medium=api_v3_business_search&utm_source=oncXGL2aPIKrtJdnWeFSnA", "review_count": 43, "categories": [{"alias": "delis", "title": "Delis"}], "rating": 4.5, "coordinates": {"latitude": 33.1325855, "longitude": -117.2720141}, "transactions": [], "price": "$", "location": {"address1": "5950 La Place Ct", "address2": "Ste 150", "address3": "", "city": "Carlsbad", "zip_code": "92008", "country": "US", "state": "CA", "display_address": ["5950 La Place Ct", "Ste 150", "Carlsbad, CA 92008"]}, "phone": "+17604310584", "display_phone": "(760) 431-0584", "distance": 11243.450299278882}, {"id": "GateaPPRSQAEmlO03I2Ovg", "alias": "tinas-deli-san-marcos", "name": "Tina's Deli", "image_url": "https://s3-media1.fl.yelpcdn.com/bphoto/UBb_JIGMzgVoeFYsJq4eTA/o.jpg", "is_closed": false, "url": "https://www.yelp.com/biz/tinas-deli-san-marcos?adjust_creative=oncXGL2aPIKrtJdnWeFSnA&utm_campaign=yelp_api_v3&utm_medium=api_v3_business_search&utm_source=oncXGL2aPIKrtJdnWeFSnA", "review_count": 207, "categories": [{"alias": "sandwiches", "title": "Sandwiches"}, {"alias": "delis", "title": "Delis"}], "rating": 4.5, "coordinates": {"latitude": 33.1519447, "longitude": -117.1617649}, "transactions": [], "price": "$", "location": {"address1": "760 N Twin Oaks Valley Rd", "address2": "Ste D", "address3": "", "city": "San Marcos", "zip_code": "92069", "country": "US", "state": "CA", "display_address": ["760 N Twin Oaks Valley Rd", "Ste D", "San Marcos, CA 92069"]}, "phone": "+17604714808", "display_phone": "(760) 471-4808", "distance": 16700.627219982885}, {"id": "fjycoPdcexN6hpH0f-Jnng", "alias": "daniels-market-bonsall", "name": "Daniel's Market", "image_url": "https://s3-media1.fl.yelpcdn.com/bphoto/s2ldVUNddIfYUjRc3uIQpw/o.jpg", "is_closed": false, "url": "https://www.yelp.com/biz/daniels-market-bonsall?adjust_creative=oncXGL2aPIKrtJdnWeFSnA&utm_campaign=yelp_api_v3&utm_medium=api_v3_business_search&utm_source=oncXGL2aPIKrtJdnWeFSnA", "review_count": 44, "categories": [{"alias": "grocery", "title": "Grocery"}, {"alias": "beer_and_wine", "title": "Beer, Wine & Spirits"}, {"alias": "delis", "title": "Delis"}], "rating": 3.5, "coordinates": {"latitude": 33.2955319736878, "longitude": -117.221648366795}, "transactions": [], "price": "$$", "location": {"address1": "5256 S Mission Rd", "address2": "Ste 701", "address3": "", "city": "Bonsall", "zip_code": "92003", "country": "US", "state": "CA", "display_address": ["5256 S Mission Rd", "Ste 701", "Bonsall, CA 92003"]}, "phone": "+17607321135", "display_phone": "(760) 732-1135", "distance": 11846.474979152032}, {"id": "TtCzoOxZn5NW1OxXDwd29Q", "alias": "san-marcos-deli-san-marcos", "name": "San Marcos Deli", "image_url": "https://s3-media1.fl.yelpcdn.com/bphoto/yArb8sSCWs1kvV6B6qc78w/o.jpg", "is_closed": false, "url": "https://www.yelp.com/biz/san-marcos-deli-san-marcos?adjust_creative=oncXGL2aPIKrtJdnWeFSnA&utm_campaign=yelp_api_v3&utm_medium=api_v3_business_search&utm_source=oncXGL2aPIKrtJdnWeFSnA", "review_count": 58, "categories": [{"alias": "delis", "title": "Delis"}, {"alias": "cafes", "title": "Cafes"}, {"alias": "sandwiches", "title": "Sandwiches"}], "rating": 4.5, "coordinates": {"latitude": 33.1406173706055, "longitude": -117.180389404297}, "transactions": ["pickup", "delivery"], "price": "$", "location": {"address1": "125 Vallecitos De Oro", "address2": "Ste K", "address3": "", "city": "San Marcos", "zip_code": "92069", "country": "US", "state": "CA", "display_address": ["125 Vallecitos De Oro", "Ste K", "San Marcos, CA 92069"]}, "phone": "+17607529844", "display_phone": "(760) 752-9844", "distance": 15931.490788590343}, {"id": "uq2wxcWF2edznCGDGCwz_A", "alias": "quick-korner-market-oceanside-2", "name": "Quick Korner Market", "image_url": "https://s3-media4.fl.yelpcdn.com/bphoto/NOYyZ8zD-3AiF2vryLFxtA/o.jpg", "is_closed": false, "url": "https://www.yelp.com/biz/quick-korner-market-oceanside-2?adjust_creative=oncXGL2aPIKrtJdnWeFSnA&utm_campaign=yelp_api_v3&utm_medium=api_v3_business_search&utm_source=oncXGL2aPIKrtJdnWeFSnA", "review_count": 12, "categories": [{"alias": "convenience", "title": "Convenience Stores"}, {"alias": "delis", "title": "Delis"}, {"alias": "sandwiches", "title": "Sandwiches"}], "rating": 3.5, "coordinates": {"latitude": 33.195422973396, "longitude": -117.378727979958}, "transactions": [], "price": "$$", "location": {"address1": "102 N Coast Hwy", "address2": "", "address3": "", "city": "Oceanside", "zip_code": "92054", "country": "US", "state": "CA", "display_address": ["102 N Coast Hwy", "Oceanside, CA 92054"]}, "phone": "+17607224471", "display_phone": "(760) 722-4471", "distance": 6579.131152400449}, {"id": "XdqSjNSl02JUydM7MzYFCg", "alias": "twin-oaks-market-and-deli-san-marcos", "name": "Twin Oaks Market & Deli", "image_url": "https://s3-media2.fl.yelpcdn.com/bphoto/YEl_4OZHMoQHj-hJdqIklA/o.jpg", "is_closed": false, "url": "https://www.yelp.com/biz/twin-oaks-market-and-deli-san-marcos?adjust_creative=oncXGL2aPIKrtJdnWeFSnA&utm_campaign=yelp_api_v3&utm_medium=api_v3_business_search&utm_source=oncXGL2aPIKrtJdnWeFSnA", "review_count": 9, "categories": [{"alias": "grocery", "title": "Grocery"}, {"alias": "delis", "title": "Delis"}], "rating": 4.5, "coordinates": {"latitude": 33.1826361, "longitude": -117.1560743}, "transactions": [], "price": "$", "location": {"address1": "2148 N Twin Oaks Valley Rd", "address2": "", "address3": "", "city": "San Marcos", "zip_code": "92069", "country": "US", "state": "CA", "display_address": ["2148 N Twin Oaks Valley Rd", "San Marcos, CA 92069"]}, "phone": "+17607449457", "display_phone": "(760) 744-9457", "distance": 15818.752287715579}], "total": 66, "region": {"center": {"longitude": -117.31819152832031, "latitude": 33.226009439623446}}}