{"businesses": [{"id": "srpos5ZLzSsLUf3yIH26gw", "alias": "mission-asian-market-oceanside", "name": "Mission Asian Market", "image_url": "https://s3-media2.fl.yelpcdn.com/bphoto/xE325JMncND_naZmLjZTfA/o.jpg", "is_closed": false, "url": "https://www.yelp.com/biz/mission-asian-market-oceanside?adjust_creative=oncXGL2aPIKrtJdnWeFSnA&utm_campaign=yelp_api_v3&utm_medium=api_v3_business_search&utm_source=oncXGL2aPIKrtJdnWeFSnA", "review_count": 123, "categories": [{"alias": "grocery", "title": "Grocery"}, {"alias": "filipino", "title": "Filipino"}, {"alias": "karaoke", "title": "Karaoke"}], "rating": 4.0, "coordinates": {"latitude": 33.21637, "longitude": -117.34497}, "transactions": [], "price": "$", "location": {"address1": "3320 Mission Ave", "address2": "Ste L", "address3": "", "city": "Oceanside", "zip_code": "92054", "country": "US", "state": "CA", "display_address": ["3320 Mission Ave", "Ste L", "Oceanside, CA 92054"]}, "phone": "+17607228024", "display_phone": "(760) 722-8024", "distance": 2730.0376598114367}, {"id": "OwYHEHdTxz_e3MHOOpPqxg", "alias": "lutchi-and-mary-san-marcos-2", "name": "Lutchi and Mary", "image_url": "https://s3-media4.fl.yelpcdn.com/bphoto/SC8vKwgzhViT0fHMqyCmeg/o.jpg", "is_closed": false, "url": "https://www.yelp.com/biz/lutchi-and-mary-san-marcos-2?adjust_creative=oncXGL2aPIKrtJdnWeFSnA&utm_campaign=yelp_api_v3&utm_medium=api_v3_business_search&utm_source=oncXGL2aPIKrtJdnWeFSnA", "review_count": 31, "categories": [{"alias": "filipino", "title": "Filipino"}], "rating": 5.0, "coordinates": {"latitude": 33.13647, "longitude": -117.18331}, "transactions": [], "location": {"address1": "844 W San Marcos Blvd", "address2": "", "address3": null, "city": "San Marcos", "zip_code": "92078", "country": "US", "state": "CA", "display_address": ["844 W San Marcos Blvd", "San Marcos, CA 92078"]}, "phone": "+17605919551", "display_phone": "(760) 591-9551", "distance": 16000.343949385559}, {"id": "66ZXt0fExG4RF7cvxNmdcw", "alias": "carin-de-ria-encinitas-5", "name": "CARiN de RiA", "image_url": "https://s3-media2.fl.yelpcdn.com/bphoto/FyDvdxpVxYFKNDks9U1ejQ/o.jpg", "is_closed": false, "url": "https://www.yelp.com/biz/carin-de-ria-encinitas-5?adjust_creative=oncXGL2aPIKrtJdnWeFSnA&utm_campaign=yelp_api_v3&utm_medium=api_v3_business_search&utm_source=oncXGL2aPIKrtJdnWeFSnA", "review_count": 56, "categories": [{"alias": "filipino", "title": "Filipino"}], "rating": 4.5, "coordinates": {"latitude": 33.039585, "longitude": -117.293675}, "transactions": [], "price": "$$", "location": {"address1": "124 West I St", "address2": "", "address3": null, "city": "Encinitas", "zip_code": "92024", "country": "US", "state": "CA", "display_address": ["124 West I St", "Encinitas, CA 92024"]}, "phone": "+17605574873", "display_phone": "(760) 557-4873", "distance": 20854.751677080483}, {"id": "5hnyzWH6bJwpkpnP-TtOqQ", "alias": "carin-de-ria-escondido-2", "name": "CARiN de RiA", "image_url": "https://s3-media2.fl.yelpcdn.com/bphoto/RNkWAh_8rf4X_y5KwPo_eQ/o.jpg", "is_closed": false, "url": "https://www.yelp.com/biz/carin-de-ria-escondido-2?adjust_creative=oncXGL2aPIKrtJdnWeFSnA&utm_campaign=yelp_api_v3&utm_medium=api_v3_business_search&utm_source=oncXGL2aPIKrtJdnWeFSnA", "review_count": 258, "categories": [{"alias": "filipino", "title": "Filipino"}], "rating": 4.0, "coordinates": {"latitude": 33.07098, "longitude": -117.07064}, "transactions": ["pickup"], "price": "$", "location": {"address1": "3440 Del Lago Blvd", "address2": "", "address3": "", "city": "Escondido", "zip_code": "92029", "country": "US", "state": "CA", "display_address": ["3440 Del Lago Blvd", "Escondido, CA 92029"]}, "phone": "+17607811340", "display_phone": "(760) 781-1340", "distance": 28806.37051966911}, {"id": "tBJm5CVF8m4zgZjhqmu5JQ", "alias": "mexipino-craft-chula-vista", "name": "Mexipino Craft", "image_url": "https://s3-media3.fl.yelpcdn.com/bphoto/rjbEoRiqSm4d0AYUhxDBGQ/o.jpg", "is_closed": false, "url": "https://www.yelp.com/biz/mexipino-craft-chula-vista?adjust_creative=oncXGL2aPIKrtJdnWeFSnA&utm_campaign=yelp_api_v3&utm_medium=api_v3_business_search&utm_source=oncXGL2aPIKrtJdnWeFSnA", "review_count": 139, "categories": [{"alias": "filipino", "title": "Filipino"}, {"alias": "mexican", "title": "Mexican"}, {"alias": "breakfast_brunch", "title": "Breakfast & Brunch"}], "rating": 4.0, "coordinates": {"latitude": 32.596794, "longitude": -117.076788}, "transactions": [], "price": "$$", "location": {"address1": "1660 Broadway", "address2": "Ste 14", "address3": null, "city": "Chula Vista", "zip_code": "91911", "country": "US", "state": "CA", "display_address": ["1660 Broadway", "Ste 14", "Chula Vista, CA 91911"]}, "phone": "+16194222044", "display_phone": "(619) 422-2044", "distance": 73504.94955153164}, {"id": "ym84yuTITyweq8jG923X2w", "alias": "tambayan-filipino-bbq-and-grill-spring-valley-3", "name": "Tambayan Filipino Bbq and Grill", "image_url": "https://s3-media2.fl.yelpcdn.com/bphoto/LjgazsqAMQocwzmjHpsBlQ/o.jpg", "is_closed": false, "url": "https://www.yelp.com/biz/tambayan-filipino-bbq-and-grill-spring-valley-3?adjust_creative=oncXGL2aPIKrtJdnWeFSnA&utm_campaign=yelp_api_v3&utm_medium=api_v3_business_search&utm_source=oncXGL2aPIKrtJdnWeFSnA", "review_count": 74, "categories": [{"alias": "bbq", "title": "Barbeque"}, {"alias": "filipino", "title": "Filipino"}, {"alias": "breakfast_brunch", "title": "Breakfast & Brunch"}], "rating": 4.5, "coordinates": {"latitude": 32.698149, "longitude": -117.020117}, "transactions": [], "price": "$", "location": {"address1": "8300 Paradise Valley Rd", "address2": "Ste 110", "address3": null, "city": "Spring Valley", "zip_code": "91977", "country": "US", "state": "CA", "display_address": ["8300 Paradise Valley Rd", "Ste 110", "Spring Valley, CA 91977"]}, "phone": "+16195121700", "display_phone": "(619) 512-1700", "distance": 64949.80434230187}, {"id": "xWqmcC9uVZ_giCib-89SFQ", "alias": "nanays-best-bbq-san-diego", "name": "Nanay's Best BBQ", "image_url": "https://s3-media4.fl.yelpcdn.com/bphoto/iCVudzsa8LcYyyVRVbA5qw/o.jpg", "is_closed": false, "url": "https://www.yelp.com/biz/nanays-best-bbq-san-diego?adjust_creative=oncXGL2aPIKrtJdnWeFSnA&utm_campaign=yelp_api_v3&utm_medium=api_v3_business_search&utm_source=oncXGL2aPIKrtJdnWeFSnA", "review_count": 209, "categories": [{"alias": "bbq", "title": "Barbeque"}, {"alias": "filipino", "title": "Filipino"}], "rating": 4.0, "coordinates": {"latitude": 32.9064147002979, "longitude": -117.173668406904}, "transactions": [], "price": "$", "location": {"address1": "6715 Mira Mesa Blvd", "address2": "Ste 103", "address3": "", "city": "San Diego", "zip_code": "92121", "country": "US", "state": "CA", "display_address": ["6715 Mira Mesa Blvd", "Ste 103", "San Diego, CA 92121"]}, "phone": "+18586250827", "display_phone": "(858) 625-0827", "distance": 38003.55557959646}, {"id": "BofHtsi15Hmv6eu_nlApBQ", "alias": "andells-bakery-san-diego", "name": "Andell's Bakery", "image_url": "https://s3-media4.fl.yelpcdn.com/bphoto/FtdgazrIWJ_qlfSnT0NoGg/o.jpg", "is_closed": false, "url": "https://www.yelp.com/biz/andells-bakery-san-diego?adjust_creative=oncXGL2aPIKrtJdnWeFSnA&utm_campaign=yelp_api_v3&utm_medium=api_v3_business_search&utm_source=oncXGL2aPIKrtJdnWeFSnA", "review_count": 64, "categories": [{"alias": "bakeries", "title": "Bakeries"}, {"alias": "vietnamese", "title": "Vietnamese"}, {"alias": "filipino", "title": "Filipino"}], "rating": 4.5, "coordinates": {"latitude": 32.96147, "longitude": -117.114133}, "transactions": [], "price": "$", "location": {"address1": "9926 Carmel Mountain Rd", "address2": "Ste F", "address3": "", "city": "San Diego", "zip_code": "92129", "country": "US", "state": "CA", "display_address": ["9926 Carmel Mountain Rd", "Ste F", "San Diego, CA 92129"]}, "phone": "+18585388308", "display_phone": "(858) 538-8308", "distance": 35023.16496297509}, {"id": "P0IECcDRvWfaQnzzvqMcEQ", "alias": "totos-grill-national-city-4", "name": "Toto's Grill", "image_url": "https://s3-media4.fl.yelpcdn.com/bphoto/w3S1K6yQr_4HOcs_D1Ig2g/o.jpg", "is_closed": false, "url": "https://www.yelp.com/biz/totos-grill-national-city-4?adjust_creative=oncXGL2aPIKrtJdnWeFSnA&utm_campaign=yelp_api_v3&utm_medium=api_v3_business_search&utm_source=oncXGL2aPIKrtJdnWeFSnA", "review_count": 116, "categories": [{"alias": "filipino", "title": "Filipino"}, {"alias": "bbq", "title": "Barbeque"}], "rating": 4.5, "coordinates": {"latitude": 32.66164, "longitude": -117.08315}, "transactions": [], "price": "$", "location": {"address1": "1615 Sweetwater Rd", "address2": "", "address3": "", "city": "National City", "zip_code": "91950", "country": "US", "state": "CA", "display_address": ["1615 Sweetwater Rd", "National City, CA 91950"]}, "phone": "+16194749811", "display_phone": "(619) 474-9811", "distance": 66473.1490098855}, {"id": "z16FML9_mdUKajVZHUTWMA", "alias": "auntie-coras-filipino-bakery-and-restaurant-temecula-2", "name": "Auntie Cora's Filipino Bakery & Restaurant", "image_url": "https://s3-media3.fl.yelpcdn.com/bphoto/gGZfgev2qgthIxFIvSTb5Q/o.jpg", "is_closed": false, "url": "https://www.yelp.com/biz/auntie-coras-filipino-bakery-and-restaurant-temecula-2?adjust_creative=oncXGL2aPIKrtJdnWeFSnA&utm_campaign=yelp_api_v3&utm_medium=api_v3_business_search&utm_source=oncXGL2aPIKrtJdnWeFSnA", "review_count": 81, "categories": [{"alias": "filipino", "title": "Filipino"}, {"alias": "bakeries", "title": "Bakeries"}], "rating": 4.0, "coordinates": {"latitude": 33.497958, "longitude": -117.15283}, "transactions": [], "price": "$", "location": {"address1": "28290 Old Town Front St", "address2": "", "address3": "", "city": "Temecula", "zip_code": "92590", "country": "US", "state": "CA", "display_address": ["28290 Old Town Front St", "Temecula, CA 92590"]}, "phone": "+19516954991", "display_phone": "(951) 695-4991", "distance": 33906.2880657665}, {"id": "GR7yLrv4HJ-FHKXRsCIkOg", "alias": "orient-valley-filipino-cuisine-san-diego", "name": "Orient Valley Filipino Cuisine", "image_url": "https://s3-media4.fl.yelpcdn.com/bphoto/4nvKC9mvGYxsbHyKN-nOLQ/o.jpg", "is_closed": false, "url": "https://www.yelp.com/biz/orient-valley-filipino-cuisine-san-diego?adjust_creative=oncXGL2aPIKrtJdnWeFSnA&utm_campaign=yelp_api_v3&utm_medium=api_v3_business_search&utm_source=oncXGL2aPIKrtJdnWeFSnA", "review_count": 178, "categories": [{"alias": "filipino", "title": "Filipino"}], "rating": 4.0, "coordinates": {"latitude": 32.96009, "longitude": -117.11187}, "transactions": [], "price": "$", "location": {"address1": "9951 Carmel Mountain Rd", "address2": "", "address3": "", "city": "San Diego", "zip_code": "92129", "country": "US", "state": "CA", "display_address": ["9951 Carmel Mountain Rd", "San Diego, CA 92129"]}, "phone": "+18584849637", "display_phone": "(858) 484-9637", "distance": 35176.93307095324}, {"id": "qBg_fJFBG8jcSpu7WCBDBA", "alias": "oi-asian-fusion-san-diego-3", "name": "Oi Asian Fusion", "image_url": "https://s3-media3.fl.yelpcdn.com/bphoto/Fm1u2HA1j_u7G07_xJLeNg/o.jpg", "is_closed": false, "url": "https://www.yelp.com/biz/oi-asian-fusion-san-diego-3?adjust_creative=oncXGL2aPIKrtJdnWeFSnA&utm_campaign=yelp_api_v3&utm_medium=api_v3_business_search&utm_source=oncXGL2aPIKrtJdnWeFSnA", "review_count": 181, "categories": [{"alias": "filipino", "title": "Filipino"}, {"alias": "asianfusion", "title": "Asian Fusion"}], "rating": 4.5, "coordinates": {"latitude": 32.699888, "longitude": -117.144874}, "transactions": ["delivery", "pickup"], "price": "$", "location": {"address1": "1985 National Ave", "address2": "Ste 1133", "address3": "", "city": "San Diego", "zip_code": "92113", "country": "US", "state": "CA", "display_address": ["1985 National Ave", "Ste 1133", "San Diego, CA 92113"]}, "phone": "+16192289857", "display_phone": "(619) 228-9857", "distance": 60700.450452225734}, {"id": "7DyWbyCm0g1FmsE7rjglVA", "alias": "mama-cinia-rice-and-noodles-san-diego", "name": "Mama Cinia Rice & Noodles", "image_url": "https://s3-media3.fl.yelpcdn.com/bphoto/jVFoq4sqiLYKQQOs1UX8fA/o.jpg", "is_closed": false, "url": "https://www.yelp.com/biz/mama-cinia-rice-and-noodles-san-diego?adjust_creative=oncXGL2aPIKrtJdnWeFSnA&utm_campaign=yelp_api_v3&utm_medium=api_v3_business_search&utm_source=oncXGL2aPIKrtJdnWeFSnA", "review_count": 129, "categories": [{"alias": "filipino", "title": "Filipino"}, {"alias": "noodles", "title": "Noodles"}, {"alias": "seafood", "title": "Seafood"}], "rating": 4.0, "coordinates": {"latitude": 32.9173372, "longitude": -117.1268268}, "transactions": [], "price": "$", "location": {"address1": "9178 Mira Mesa Blvd", "address2": "", "address3": null, "city": "San Diego", "zip_code": "92126", "country": "US", "state": "CA", "display_address": ["9178 Mira Mesa Blvd", "San Diego, CA 92126"]}, "phone": "+18588605125", "display_phone": "(858) 860-5125", "distance": 38616.98580172384}, {"id": "COZq9Cz_nngsA4UvGEuDQg", "alias": "sarap-filipino-kitchen-san-diego-2", "name": "Sarap Filipino Kitchen", "image_url": "https://s3-media4.fl.yelpcdn.com/bphoto/zgTHU8FxwLGtE5i0Qa40zg/o.jpg", "is_closed": false, "url": "https://www.yelp.com/biz/sarap-filipino-kitchen-san-diego-2?adjust_creative=oncXGL2aPIKrtJdnWeFSnA&utm_campaign=yelp_api_v3&utm_medium=api_v3_business_search&utm_source=oncXGL2aPIKrtJdnWeFSnA", "review_count": 120, "categories": [{"alias": "filipino", "title": "Filipino"}], "rating": 3.5, "coordinates": {"latitude": 32.88651, "longitude": -117.15267}, "transactions": ["delivery", "pickup"], "price": "$$", "location": {"address1": "7580 Miramar Rd", "address2": null, "address3": "", "city": "San Diego", "zip_code": "92126", "country": "US", "state": "CA", "display_address": ["7580 Miramar Rd", "San Diego, CA 92126"]}, "phone": "+18583860090", "display_phone": "(858) 386-0090", "distance": 40986.603538160765}, {"id": "0rFr3awwtbgZ4uIDFIj14g", "alias": "lady-gs-canteen-san-diego", "name": "Lady G's Canteen", "image_url": "https://s3-media2.fl.yelpcdn.com/bphoto/mpbNNOD2nhMJloHTLH1Sxw/o.jpg", "is_closed": false, "url": "https://www.yelp.com/biz/lady-gs-canteen-san-diego?adjust_creative=oncXGL2aPIKrtJdnWeFSnA&utm_campaign=yelp_api_v3&utm_medium=api_v3_business_search&utm_source=oncXGL2aPIKrtJdnWeFSnA", "review_count": 16, "categories": [{"alias": "farmersmarket", "title": "Farmers Market"}, {"alias": "catering", "title": "Caterers"}, {"alias": "filipino", "title": "Filipino"}], "rating": 5.0, "coordinates": {"latitude": 32.6969451904297, "longitude": -117.118110656738}, "transactions": [], "location": {"address1": "", "address2": "", "address3": null, "city": "San Diego", "zip_code": "92113", "country": "US", "state": "CA", "display_address": ["San Diego, CA 92113"]}, "phone": "+16196469815", "display_phone": "(619) 646-9815", "distance": 61532.23796663409}, {"id": "yI02yG7wFc39LhAcXgBgtA", "alias": "olgas-food-place-san-diego", "name": "Olgas Food Place", "image_url": "https://s3-media3.fl.yelpcdn.com/bphoto/ud0cRMHNxS5MAOPHdIVrVg/o.jpg", "is_closed": false, "url": "https://www.yelp.com/biz/olgas-food-place-san-diego?adjust_creative=oncXGL2aPIKrtJdnWeFSnA&utm_campaign=yelp_api_v3&utm_medium=api_v3_business_search&utm_source=oncXGL2aPIKrtJdnWeFSnA", "review_count": 65, "categories": [{"alias": "filipino", "title": "Filipino"}], "rating": 4.5, "coordinates": {"latitude": 32.78538, "longitude": -117.17148}, "transactions": [], "price": "$", "location": {"address1": "2314 Morley St", "address2": "", "address3": "", "city": "San Diego", "zip_code": "92111", "country": "US", "state": "CA", "display_address": ["2314 Morley St", "San Diego, CA 92111"]}, "phone": "+18585713356", "display_phone": "(858) 571-3356", "distance": 50853.585295040764}, {"id": "uAt8fVBCqzQE1CPXz21xzw", "alias": "r-and-b-filipino-cuisine-san-diego", "name": "R & B Filipino Cuisine", "image_url": "https://s3-media2.fl.yelpcdn.com/bphoto/UmK2LQbtt0eIk_TKKCGEEA/o.jpg", "is_closed": false, "url": "https://www.yelp.com/biz/r-and-b-filipino-cuisine-san-diego?adjust_creative=oncXGL2aPIKrtJdnWeFSnA&utm_campaign=yelp_api_v3&utm_medium=api_v3_business_search&utm_source=oncXGL2aPIKrtJdnWeFSnA", "review_count": 129, "categories": [{"alias": "filipino", "title": "Filipino"}], "rating": 4.0, "coordinates": {"latitude": 32.926444213362, "longitude": -117.143369169588}, "transactions": [], "price": "$", "location": {"address1": "11257 Camino Ruiz", "address2": "", "address3": "", "city": "San Diego", "zip_code": "92126", "country": "US", "state": "CA", "display_address": ["11257 Camino Ruiz", "San Diego, CA 92126"]}, "phone": "+18586958455", "display_phone": "(858) 695-8455", "distance": 37079.5884746612}, {"id": "nJstnPIHtduA5G_8mOoiLw", "alias": "manila-sunset-grille-san-diego", "name": "Manila Sunset Grille", "image_url": "https://s3-media1.fl.yelpcdn.com/bphoto/FdcdGzpteASUawTKGFlVGg/o.jpg", "is_closed": false, "url": "https://www.yelp.com/biz/manila-sunset-grille-san-diego?adjust_creative=oncXGL2aPIKrtJdnWeFSnA&utm_campaign=yelp_api_v3&utm_medium=api_v3_business_search&utm_source=oncXGL2aPIKrtJdnWeFSnA", "review_count": 353, "categories": [{"alias": "filipino", "title": "Filipino"}], "rating": 3.0, "coordinates": {"latitude": 32.9162022060627, "longitude": -117.114088833332}, "transactions": [], "price": "$", "location": {"address1": "9837 Mira Mesa Blvd", "address2": "", "address3": "", "city": "San Diego", "zip_code": "92131", "country": "US", "state": "CA", "display_address": ["9837 Mira Mesa Blvd", "San Diego, CA 92131"]}, "phone": "+18585786200", "display_phone": "(858) 578-6200", "distance": 39350.07190471273}, {"id": "EFc3OTwVV_KKBTrleGEfaw", "alias": "jollibee-national-city", "name": "Jollibee", "image_url": "https://s3-media1.fl.yelpcdn.com/bphoto/3jDHyCB8pHsAoufQsI11HA/o.jpg", "is_closed": false, "url": "https://www.yelp.com/biz/jollibee-national-city?adjust_creative=oncXGL2aPIKrtJdnWeFSnA&utm_campaign=yelp_api_v3&utm_medium=api_v3_business_search&utm_source=oncXGL2aPIKrtJdnWeFSnA", "review_count": 328, "categories": [{"alias": "hotdogs", "title": "Fast Food"}, {"alias": "filipino", "title": "Filipino"}, {"alias": "tradamerican", "title": "American (Traditional)"}], "rating": 2.5, "coordinates": {"latitude": 32.677224, "longitude": -117.091653}, "transactions": [], "price": "$", "location": {"address1": "1401 E Plz Blvd", "address2": "", "address3": "", "city": "National City", "zip_code": "91950", "country": "US", "state": "CA", "display_address": ["1401 E Plz Blvd", "National City, CA 91950"]}, "phone": "+16194740973", "display_phone": "(619) 474-0973", "distance": 64579.30066278014}, {"id": "UZgF26zT4k0kHbQ7bWv1Rg", "alias": "k-and-k-orient-valley-escondido", "name": "K & K Orient Valley", "image_url": "https://s3-media2.fl.yelpcdn.com/bphoto/dzfaBWMc-GVZkc7TV1jjUQ/o.jpg", "is_closed": false, "url": "https://www.yelp.com/biz/k-and-k-orient-valley-escondido?adjust_creative=oncXGL2aPIKrtJdnWeFSnA&utm_campaign=yelp_api_v3&utm_medium=api_v3_business_search&utm_source=oncXGL2aPIKrtJdnWeFSnA", "review_count": 47, "categories": [{"alias": "filipino", "title": "Filipino"}], "rating": 3.5, "coordinates": {"latitude": 33.1283749, "longitude": -117.0846411}, "transactions": [], "price": "$", "location": {"address1": "665 N Broadway", "address2": "", "address3": "", "city": "Escondido", "zip_code": "92025", "country": "US", "state": "CA", "display_address": ["665 N Broadway", "Escondido, CA 92025"]}, "phone": "+17607964176", "display_phone": "(760) 796-4176", "distance": 24250.03400681566}, {"id": "hEWEvVROOefQyFlmEHqwTw", "alias": "titas-kitchenette-national-city", "name": "Tita's Kitchenette", "image_url": "https://s3-media2.fl.yelpcdn.com/bphoto/K4yRcj_mdP1W-R9KKefuOg/o.jpg", "is_closed": false, "url": "https://www.yelp.com/biz/titas-kitchenette-national-city?adjust_creative=oncXGL2aPIKrtJdnWeFSnA&utm_campaign=yelp_api_v3&utm_medium=api_v3_business_search&utm_source=oncXGL2aPIKrtJdnWeFSnA", "review_count": 743, "categories": [{"alias": "filipino", "title": "Filipino"}], "rating": 4.0, "coordinates": {"latitude": 32.680098, "longitude": -117.078301}, "transactions": [], "price": "$", "location": {"address1": "2720 E Plaza Blvd", "address2": "", "address3": "", "city": "National City", "zip_code": "91950", "country": "US", "state": "CA", "display_address": ["2720 E Plaza Blvd", "National City, CA 91950"]}, "phone": "+16194343879", "display_phone": "(619) 434-3879", "distance": 64697.67306613208}, {"id": "8-9Veg6YWTBcAXegjr8ymg", "alias": "valerios-finest-bake-shop-national-city-2", "name": "Valerio's Finest Bake Shop", "image_url": "https://s3-media3.fl.yelpcdn.com/bphoto/zDnC3fe90R6b_PsmgHDk8A/o.jpg", "is_closed": false, "url": "https://www.yelp.com/biz/valerios-finest-bake-shop-national-city-2?adjust_creative=oncXGL2aPIKrtJdnWeFSnA&utm_campaign=yelp_api_v3&utm_medium=api_v3_business_search&utm_source=oncXGL2aPIKrtJdnWeFSnA", "review_count": 140, "categories": [{"alias": "bakeries", "title": "Bakeries"}, {"alias": "filipino", "title": "Filipino"}], "rating": 4.0, "coordinates": {"latitude": 32.68019, "longitude": -117.0781}, "transactions": [], "price": "$", "location": {"address1": "2720 E Plaza Blvd", "address2": "Ste H", "address3": "", "city": "National City", "zip_code": "91950", "country": "US", "state": "CA", "display_address": ["2720 E Plaza Blvd", "Ste H", "National City, CA 91950"]}, "phone": "+16194703742", "display_phone": "(619) 470-3742", "distance": 64699.81880550088}, {"id": "yURVZYW7NlOArCU5cdlKAQ", "alias": "fredcel-lumpias-and-catering-san-diego", "name": "Fredcel Lumpias & Catering", "image_url": "https://s3-media1.fl.yelpcdn.com/bphoto/ogDiIN1YrK_z9eR6hscMjA/o.jpg", "is_closed": false, "url": "https://www.yelp.com/biz/fredcel-lumpias-and-catering-san-diego?adjust_creative=oncXGL2aPIKrtJdnWeFSnA&utm_campaign=yelp_api_v3&utm_medium=api_v3_business_search&utm_source=oncXGL2aPIKrtJdnWeFSnA", "review_count": 267, "categories": [{"alias": "filipino", "title": "Filipino"}], "rating": 4.5, "coordinates": {"latitude": 32.74926, "longitude": -117.11223}, "transactions": [], "price": "$", "location": {"address1": "3876 38th St", "address2": "", "address3": "", "city": "San Diego", "zip_code": "92105", "country": "US", "state": "CA", "display_address": ["3876 38th St", "San Diego, CA 92105"]}, "phone": "+16192822305", "display_phone": "(619) 282-2305", "distance": 56389.75798910251}, {"id": "gk4g_6M925IKXnZsfN5k_Q", "alias": "manila-kusina-grill-mission-viejo-5", "name": "Manila Kusina Grill", "image_url": "https://s3-media2.fl.yelpcdn.com/bphoto/xtUK2KLkgQrS6lNV--viTg/o.jpg", "is_closed": false, "url": "https://www.yelp.com/biz/manila-kusina-grill-mission-viejo-5?adjust_creative=oncXGL2aPIKrtJdnWeFSnA&utm_campaign=yelp_api_v3&utm_medium=api_v3_business_search&utm_source=oncXGL2aPIKrtJdnWeFSnA", "review_count": 123, "categories": [{"alias": "filipino", "title": "Filipino"}, {"alias": "breakfast_brunch", "title": "Breakfast & Brunch"}], "rating": 3.5, "coordinates": {"latitude": 33.62291, "longitude": -117.6838}, "transactions": [], "price": "$", "location": {"address1": "25571 Jeronimo Rd", "address2": "Ste 1", "address3": null, "city": "Mission Viejo", "zip_code": "92691", "country": "US", "state": "CA", "display_address": ["25571 Jeronimo Rd", "Ste 1", "Mission Viejo, CA 92691"]}, "phone": "+19494610113", "display_phone": "(949) 461-0113", "distance": 55640.143764554436}, {"id": "Q7654fbwvjhFrLKAGQBXzA", "alias": "zarlitos-family-restaurant-national-city", "name": "Zarlitos Family Restaurant", "image_url": "https://s3-media2.fl.yelpcdn.com/bphoto/foslEQzfSI25V_Riaxvubg/o.jpg", "is_closed": false, "url": "https://www.yelp.com/biz/zarlitos-family-restaurant-national-city?adjust_creative=oncXGL2aPIKrtJdnWeFSnA&utm_campaign=yelp_api_v3&utm_medium=api_v3_business_search&utm_source=oncXGL2aPIKrtJdnWeFSnA", "review_count": 589, "categories": [{"alias": "filipino", "title": "Filipino"}, {"alias": "hotdogs", "title": "Fast Food"}, {"alias": "hawaiian", "title": "Hawaiian"}], "rating": 3.0, "coordinates": {"latitude": 32.67758, "longitude": -117.10159}, "transactions": [], "price": "$", "location": {"address1": "505 E 8th St", "address2": null, "address3": "", "city": "National City", "zip_code": "91950", "country": "US", "state": "CA", "display_address": ["505 E 8th St", "National City, CA 91950"]}, "phone": "+16194741144", "display_phone": "(619) 474-1144", "distance": 64244.47471475651}, {"id": "M9NOQgg-mF-0ePF7akpUcg", "alias": "manila-fast-food-and-desserts-san-diego", "name": "Manila Fast Food & Desserts", "image_url": "https://s3-media2.fl.yelpcdn.com/bphoto/bDi2a0ygDQHTDkFlqOKaLA/o.jpg", "is_closed": false, "url": "https://www.yelp.com/biz/manila-fast-food-and-desserts-san-diego?adjust_creative=oncXGL2aPIKrtJdnWeFSnA&utm_campaign=yelp_api_v3&utm_medium=api_v3_business_search&utm_source=oncXGL2aPIKrtJdnWeFSnA", "review_count": 197, "categories": [{"alias": "filipino", "title": "Filipino"}, {"alias": "desserts", "title": "Desserts"}, {"alias": "seafood", "title": "Seafood"}], "rating": 3.5, "coordinates": {"latitude": 32.9137716100263, "longitude": -117.130555054215}, "transactions": [], "price": "$", "location": {"address1": "8979 Mira Mesa Blvd", "address2": "", "address3": "", "city": "San Diego", "zip_code": "92126", "country": "US", "state": "CA", "display_address": ["8979 Mira Mesa Blvd", "San Diego, CA 92126"]}, "phone": "+18585780968", "display_phone": "(858) 578-0968", "distance": 38873.17907766111}, {"id": "VmlPZo3N6m7mVFeOXzYREg", "alias": "porkys-lechon-and-barbecue-national-city-2", "name": "Porky's Lechon and Barbecue", "image_url": "https://s3-media4.fl.yelpcdn.com/bphoto/zA-rZbGRmurUCUBt2bDX9g/o.jpg", "is_closed": false, "url": "https://www.yelp.com/biz/porkys-lechon-and-barbecue-national-city-2?adjust_creative=oncXGL2aPIKrtJdnWeFSnA&utm_campaign=yelp_api_v3&utm_medium=api_v3_business_search&utm_source=oncXGL2aPIKrtJdnWeFSnA", "review_count": 81, "categories": [{"alias": "bbq", "title": "Barbeque"}, {"alias": "filipino", "title": "Filipino"}], "rating": 3.5, "coordinates": {"latitude": 32.67615, "longitude": -117.09144}, "transactions": [], "price": "$", "location": {"address1": "1430 E Plaza Blvd", "address2": "Ste E12", "address3": "", "city": "National City", "zip_code": "91950", "country": "US", "state": "CA", "display_address": ["1430 E Plaza Blvd", "Ste E12", "National City, CA 91950"]}, "phone": "+16194740062", "display_phone": "(619) 474-0062", "distance": 64710.44047887589}, {"id": "iVF6z9y6LUnkkz6HxeDx_g", "alias": "manila-sunset-national-city", "name": "Manila Sunset", "image_url": "https://s3-media2.fl.yelpcdn.com/bphoto/g7NsYvN5S-O6FEJSuoBPkw/o.jpg", "is_closed": false, "url": "https://www.yelp.com/biz/manila-sunset-national-city?adjust_creative=oncXGL2aPIKrtJdnWeFSnA&utm_campaign=yelp_api_v3&utm_medium=api_v3_business_search&utm_source=oncXGL2aPIKrtJdnWeFSnA", "review_count": 340, "categories": [{"alias": "filipino", "title": "Filipino"}, {"alias": "hotdogs", "title": "Fast Food"}], "rating": 4.0, "coordinates": {"latitude": 32.6773071289062, "longitude": -117.09593963623}, "transactions": [], "price": "$", "location": {"address1": "925 E Plaza Blvd", "address2": "Ste I", "address3": "", "city": "National City", "zip_code": "91950", "country": "US", "state": "CA", "display_address": ["925 E Plaza Blvd", "Ste I", "National City, CA 91950"]}, "phone": "+16194740421", "display_phone": "(619) 474-0421", "distance": 64423.80512942013}, {"id": "awk8EjKVJ17rsnhLuV59VQ", "alias": "hemet-asian-market-hemet", "name": "Hemet Asian Market", "image_url": "https://s3-media3.fl.yelpcdn.com/bphoto/HaDvF6ZI-87z_-UkrAG1Tg/o.jpg", "is_closed": false, "url": "https://www.yelp.com/biz/hemet-asian-market-hemet?adjust_creative=oncXGL2aPIKrtJdnWeFSnA&utm_campaign=yelp_api_v3&utm_medium=api_v3_business_search&utm_source=oncXGL2aPIKrtJdnWeFSnA", "review_count": 25, "categories": [{"alias": "grocery", "title": "Grocery"}, {"alias": "filipino", "title": "Filipino"}, {"alias": "seafood", "title": "Seafood"}], "rating": 4.5, "coordinates": {"latitude": 33.7474009394646, "longitude": -116.98953576386}, "transactions": [], "price": "$$", "location": {"address1": "1729 W Florida Ave", "address2": "", "address3": "", "city": "Hemet", "zip_code": "92545", "country": "US", "state": "CA", "display_address": ["1729 W Florida Ave", "Hemet, CA 92545"]}, "phone": "+19519296886", "display_phone": "(951) 929-6886", "distance": 65376.66655650783}, {"id": "e4mGYbHYHcTSAtdslPyaOg", "alias": "red-ribbon-bakeshop-san-diego", "name": "Red Ribbon Bakeshop", "image_url": "https://s3-media3.fl.yelpcdn.com/bphoto/qHwv70mAcDgDbLILB3TtXg/o.jpg", "is_closed": false, "url": "https://www.yelp.com/biz/red-ribbon-bakeshop-san-diego?adjust_creative=oncXGL2aPIKrtJdnWeFSnA&utm_campaign=yelp_api_v3&utm_medium=api_v3_business_search&utm_source=oncXGL2aPIKrtJdnWeFSnA", "review_count": 110, "categories": [{"alias": "bakeries", "title": "Bakeries"}, {"alias": "hotdogs", "title": "Fast Food"}, {"alias": "filipino", "title": "Filipino"}], "rating": 3.5, "coordinates": {"latitude": 32.913792372786, "longitude": -117.131617069244}, "transactions": [], "price": "$", "location": {"address1": "8955 Mira Mesa Blvd", "address2": "", "address3": "", "city": "San Diego", "zip_code": "92126", "country": "US", "state": "CA", "display_address": ["8955 Mira Mesa Blvd", "San Diego, CA 92126"]}, "phone": "+18586891443", "display_phone": "(858) 689-1443", "distance": 38826.704367208644}, {"id": "mC5a4C01RjLbxXgi4ULahg", "alias": "my-haus-filipino-bakery-and-restaurant-murrieta", "name": "My Haus Filipino Bakery & Restaurant", "image_url": "https://s3-media1.fl.yelpcdn.com/bphoto/sFRUfNXvnx2f-HP0OMTy8Q/o.jpg", "is_closed": false, "url": "https://www.yelp.com/biz/my-haus-filipino-bakery-and-restaurant-murrieta?adjust_creative=oncXGL2aPIKrtJdnWeFSnA&utm_campaign=yelp_api_v3&utm_medium=api_v3_business_search&utm_source=oncXGL2aPIKrtJdnWeFSnA", "review_count": 81, "categories": [{"alias": "filipino", "title": "Filipino"}], "rating": 3.0, "coordinates": {"latitude": 33.555335, "longitude": -117.174616}, "transactions": [], "price": "$", "location": {"address1": "40250 Murrieta Hot Springs Rd", "address2": "Ste 108", "address3": "", "city": "Murrieta", "zip_code": "92563", "country": "US", "state": "CA", "display_address": ["40250 Murrieta Hot Springs Rd", "Ste 108", "Murrieta, CA 92563"]}, "phone": "+19516007878", "display_phone": "(951) 600-7878", "distance": 38969.872712962875}, {"id": "VwQO81iV-iKkJeQI9b9OOw", "alias": "tacos-plus-spring-valley-4", "name": "Tacos Plus", "image_url": "https://s3-media1.fl.yelpcdn.com/bphoto/X0-PgKybOuG9qGA9cUCaQg/o.jpg", "is_closed": false, "url": "https://www.yelp.com/biz/tacos-plus-spring-valley-4?adjust_creative=oncXGL2aPIKrtJdnWeFSnA&utm_campaign=yelp_api_v3&utm_medium=api_v3_business_search&utm_source=oncXGL2aPIKrtJdnWeFSnA", "review_count": 2, "categories": [{"alias": "tacos", "title": "Tacos"}, {"alias": "filipino", "title": "Filipino"}], "rating": 4.5, "coordinates": {"latitude": 32.7368455166487, "longitude": -117.01413732022}, "transactions": [], "location": {"address1": "8614 Troy St", "address2": "", "address3": null, "city": "Spring Valley", "zip_code": "91977", "country": "US", "state": "CA", "display_address": ["8614 Troy St", "Spring Valley, CA 91977"]}, "phone": "+16193030646", "display_phone": "(619) 303-0646", "distance": 61342.19805560167}, {"id": "16-4exek44UP46MkahXFbw", "alias": "leocynns-lumpia-spring-valley", "name": "Leocynn's Lumpia", "image_url": "https://s3-media2.fl.yelpcdn.com/bphoto/QSMVKgG7QSvcRnAmz8cikg/o.jpg", "is_closed": false, "url": "https://www.yelp.com/biz/leocynns-lumpia-spring-valley?adjust_creative=oncXGL2aPIKrtJdnWeFSnA&utm_campaign=yelp_api_v3&utm_medium=api_v3_business_search&utm_source=oncXGL2aPIKrtJdnWeFSnA", "review_count": 107, "categories": [{"alias": "filipino", "title": "Filipino"}], "rating": 3.0, "coordinates": {"latitude": 32.6975326538086, "longitude": -117.019081115723}, "transactions": [], "price": "$", "location": {"address1": "8360 Paradise Valley Rd", "address2": "Ste C", "address3": "", "city": "Spring Valley", "zip_code": "91977", "country": "US", "state": "CA", "display_address": ["8360 Paradise Valley Rd", "Ste C", "Spring Valley, CA 91977"]}, "phone": "+16192678210", "display_phone": "(619) 267-8210", "distance": 65046.25140076902}, {"id": "3IKdLF6DjuMiI3oqyEdQdg", "alias": "villa-manila-national-city", "name": "Villa Manila", "image_url": "https://s3-media1.fl.yelpcdn.com/bphoto/fQbhy2LHdudcx0xHXhbVFw/o.jpg", "is_closed": false, "url": "https://www.yelp.com/biz/villa-manila-national-city?adjust_creative=oncXGL2aPIKrtJdnWeFSnA&utm_campaign=yelp_api_v3&utm_medium=api_v3_business_search&utm_source=oncXGL2aPIKrtJdnWeFSnA", "review_count": 214, "categories": [{"alias": "filipino", "title": "Filipino"}], "rating": 3.5, "coordinates": {"latitude": 32.67711, "longitude": -117.10091}, "transactions": [], "price": "$$", "location": {"address1": "500 E 8th St", "address2": "", "address3": "", "city": "National City", "zip_code": "91950", "country": "US", "state": "CA", "display_address": ["500 E 8th St", "National City, CA 91950"]}, "phone": "+16194778512", "display_phone": "(619) 477-8512", "distance": 64303.039148597636}, {"id": "y-yptcvk27mIsIjGWCqcAg", "alias": "halo-halo-cafe-and-ice-cream-parlor-chula-vista", "name": "Halo Halo Cafe & Ice Cream Parlor", "image_url": "https://s3-media3.fl.yelpcdn.com/bphoto/_u-nwsPk2WbLcb9s3L_pyg/o.jpg", "is_closed": false, "url": "https://www.yelp.com/biz/halo-halo-cafe-and-ice-cream-parlor-chula-vista?adjust_creative=oncXGL2aPIKrtJdnWeFSnA&utm_campaign=yelp_api_v3&utm_medium=api_v3_business_search&utm_source=oncXGL2aPIKrtJdnWeFSnA", "review_count": 223, "categories": [{"alias": "icecream", "title": "Ice Cream & Frozen Yogurt"}, {"alias": "filipino", "title": "Filipino"}, {"alias": "bubbletea", "title": "Bubble Tea"}], "rating": 3.5, "coordinates": {"latitude": 32.6614953040893, "longitude": -116.970271751605}, "transactions": [], "price": "$", "location": {"address1": "2326 Proctor Valley Rd", "address2": "Ste 103", "address3": "", "city": "Chula Vista", "zip_code": "91914", "country": "US", "state": "CA", "display_address": ["2326 Proctor Valley Rd", "Ste 103", "Chula Vista, CA 91914"]}, "phone": "+16199464878", "display_phone": "(619) 946-4878", "distance": 70669.92130410906}, {"id": "PuhByF8y355GPF1WnDukIw", "alias": "sayulitas-mexican-food-san-diego-6", "name": "Sayulitas Mexican Food", "image_url": "https://s3-media2.fl.yelpcdn.com/bphoto/QtHtst94Yi10lkaaYR81Cg/o.jpg", "is_closed": false, "url": "https://www.yelp.com/biz/sayulitas-mexican-food-san-diego-6?adjust_creative=oncXGL2aPIKrtJdnWeFSnA&utm_campaign=yelp_api_v3&utm_medium=api_v3_business_search&utm_source=oncXGL2aPIKrtJdnWeFSnA", "review_count": 52, "categories": [{"alias": "mexican", "title": "Mexican"}, {"alias": "filipino", "title": "Filipino"}], "rating": 4.5, "coordinates": {"latitude": 32.574474, "longitude": -117.055273}, "transactions": ["delivery", "pickup"], "price": "$", "location": {"address1": "1270 Picador Blvd", "address2": "Ste I", "address3": null, "city": "San Diego", "zip_code": "92154", "country": "US", "state": "CA", "display_address": ["1270 Picador Blvd", "Ste I", "San Diego, CA 92154"]}, "phone": "+16196903788", "display_phone": "(619) 690-3788", "distance": 76492.66877784929}, {"id": "vEQ7OUFFritEBAGM_3ntwA", "alias": "twisted-hutt-chula-vista", "name": "Twisted Hutt", "image_url": "https://s3-media2.fl.yelpcdn.com/bphoto/-sw9-o0Fsx6-RN6Uk7OF3A/o.jpg", "is_closed": false, "url": "https://www.yelp.com/biz/twisted-hutt-chula-vista?adjust_creative=oncXGL2aPIKrtJdnWeFSnA&utm_campaign=yelp_api_v3&utm_medium=api_v3_business_search&utm_source=oncXGL2aPIKrtJdnWeFSnA", "review_count": 2, "categories": [{"alias": "catering", "title": "Caterers"}, {"alias": "filipino", "title": "Filipino"}], "rating": 4.5, "coordinates": {"latitude": 32.6315879821777, "longitude": -116.986122131348}, "transactions": [], "location": {"address1": null, "address2": null, "address3": "", "city": "Chula Vista", "zip_code": "91913", "country": "US", "state": "CA", "display_address": ["Chula Vista, CA 91913"]}, "phone": "+16199004957", "display_phone": "(619) 900-4957", "distance": 74070.01736333196}, {"id": "3-0KOYQMUNONiXo4ZYamDg", "alias": "kamay-kainan-riverside-2", "name": "Kamay Kainan", "image_url": "https://s3-media1.fl.yelpcdn.com/bphoto/EhEw6e9HdZG_mJrmXyyu7g/o.jpg", "is_closed": false, "url": "https://www.yelp.com/biz/kamay-kainan-riverside-2?adjust_creative=oncXGL2aPIKrtJdnWeFSnA&utm_campaign=yelp_api_v3&utm_medium=api_v3_business_search&utm_source=oncXGL2aPIKrtJdnWeFSnA", "review_count": 28, "categories": [{"alias": "filipino", "title": "Filipino"}], "rating": 4.5, "coordinates": {"latitude": 33.90736, "longitude": -117.47071}, "transactions": [], "price": "$", "location": {"address1": "10759 Magnolia Ave", "address2": "", "address3": null, "city": "Riverside", "zip_code": "92505", "country": "US", "state": "CA", "display_address": ["10759 Magnolia Ave", "Riverside, CA 92505"]}, "phone": "+19513545488", "display_phone": "(951) 354-5488", "distance": 77069.20728995708}, {"id": "Ru3FcAYiHLPwVy3JrLPvAQ", "alias": "donas-hawaiian-and-filipino-grill-san-diego", "name": "Dona's Hawaiian & Filipino Grill", "image_url": "https://s3-media2.fl.yelpcdn.com/bphoto/9DferSIHzzUZbd9XtGoHIA/o.jpg", "is_closed": false, "url": "https://www.yelp.com/biz/donas-hawaiian-and-filipino-grill-san-diego?adjust_creative=oncXGL2aPIKrtJdnWeFSnA&utm_campaign=yelp_api_v3&utm_medium=api_v3_business_search&utm_source=oncXGL2aPIKrtJdnWeFSnA", "review_count": 25, "categories": [{"alias": "filipino", "title": "Filipino"}, {"alias": "hawaiian", "title": "Hawaiian"}], "rating": 3.0, "coordinates": {"latitude": 32.57692, "longitude": -117.09403}, "transactions": [], "price": "$", "location": {"address1": "1828 Coronado Ave", "address2": "", "address3": "", "city": "San Diego", "zip_code": "92154", "country": "US", "state": "CA", "display_address": ["1828 Coronado Ave", "San Diego, CA 92154"]}, "phone": "+16194295778", "display_phone": "(619) 429-5778", "distance": 75138.68257959209}, {"id": "Yslsrf-tzNPcmWvUhMn7bg", "alias": "lumpia-house-poway", "name": "Lumpia House", "image_url": "https://s3-media3.fl.yelpcdn.com/bphoto/r3Po2_o3pxVTnWlY0TyfPw/o.jpg", "is_closed": false, "url": "https://www.yelp.com/biz/lumpia-house-poway?adjust_creative=oncXGL2aPIKrtJdnWeFSnA&utm_campaign=yelp_api_v3&utm_medium=api_v3_business_search&utm_source=oncXGL2aPIKrtJdnWeFSnA", "review_count": 97, "categories": [{"alias": "filipino", "title": "Filipino"}, {"alias": "chicken_wings", "title": "Chicken Wings"}], "rating": 3.5, "coordinates": {"latitude": 32.9567024, "longitude": -117.0455719}, "transactions": [], "price": "$", "location": {"address1": "13160 Poway Rd", "address2": "", "address3": "", "city": "Poway", "zip_code": "92064", "country": "US", "state": "CA", "display_address": ["13160 Poway Rd", "Poway, CA 92064"]}, "phone": "+18586790644", "display_phone": "(858) 679-0644", "distance": 39215.1401139518}, {"id": "IPfEuEhKHyIGJUjSc28mUg", "alias": "titas-ii-restaurant-national-city", "name": "Tita's II Restaurant", "image_url": "https://s3-media3.fl.yelpcdn.com/bphoto/_VOnUuRNEj16_w0Hqk7Q6w/o.jpg", "is_closed": false, "url": "https://www.yelp.com/biz/titas-ii-restaurant-national-city?adjust_creative=oncXGL2aPIKrtJdnWeFSnA&utm_campaign=yelp_api_v3&utm_medium=api_v3_business_search&utm_source=oncXGL2aPIKrtJdnWeFSnA", "review_count": 98, "categories": [{"alias": "filipino", "title": "Filipino"}, {"alias": "karaoke", "title": "Karaoke"}, {"alias": "musicvenues", "title": "Music Venues"}], "rating": 2.5, "coordinates": {"latitude": 32.684998, "longitude": -117.07112}, "transactions": [], "price": "$$", "location": {"address1": "3421 E Plaza Blvd", "address2": "", "address3": "", "city": "National City", "zip_code": "91950", "country": "US", "state": "CA", "display_address": ["3421 E Plaza Blvd", "National City, CA 91950"]}, "phone": "+16194347371", "display_phone": "(619) 434-7371", "distance": 64423.21994091241}, {"id": "SgdIemHhZr2M5mjkhpCwdA", "alias": "grill-city-mira-mesa", "name": "Grill City", "image_url": "https://s3-media3.fl.yelpcdn.com/bphoto/66w83MvlWEevmV8nh5zgsw/o.jpg", "is_closed": false, "url": "https://www.yelp.com/biz/grill-city-mira-mesa?adjust_creative=oncXGL2aPIKrtJdnWeFSnA&utm_campaign=yelp_api_v3&utm_medium=api_v3_business_search&utm_source=oncXGL2aPIKrtJdnWeFSnA", "review_count": 87, "categories": [{"alias": "filipino", "title": "Filipino"}, {"alias": "seafood", "title": "Seafood"}, {"alias": "bbq", "title": "Barbeque"}], "rating": 2.0, "coordinates": {"latitude": 32.9137137688869, "longitude": -117.13169823}, "transactions": ["delivery", "pickup"], "price": "$", "location": {"address1": "Seafood City Supermarket 8955 Mira Mesa Blvd", "address2": "8955 Mira Mesa Blvd", "address3": "", "city": "Mira Mesa", "zip_code": "92126", "country": "US", "state": "CA", "display_address": ["Seafood City Supermarket 8955 Mira Mesa Blvd", "8955 Mira Mesa Blvd", "Mira Mesa, CA 92126"]}, "phone": "+18585490200", "display_phone": "(858) 549-0200", "distance": 38831.138162571224}, {"id": "0BuzxrG62k4YODLbrGrGVQ", "alias": "maxs-restaurant-chula-vista-chula-vista", "name": "Max's Restaurant - Chula Vista", "image_url": "https://s3-media1.fl.yelpcdn.com/bphoto/TPKybBpueNi1I5gSZWwq9Q/o.jpg", "is_closed": false, "url": "https://www.yelp.com/biz/maxs-restaurant-chula-vista-chula-vista?adjust_creative=oncXGL2aPIKrtJdnWeFSnA&utm_campaign=yelp_api_v3&utm_medium=api_v3_business_search&utm_source=oncXGL2aPIKrtJdnWeFSnA", "review_count": 237, "categories": [{"alias": "filipino", "title": "Filipino"}, {"alias": "seafood", "title": "Seafood"}, {"alias": "breakfast_brunch", "title": "Breakfast & Brunch"}], "rating": 3.0, "coordinates": {"latitude": 32.62857, "longitude": -116.96569}, "transactions": ["delivery", "pickup"], "price": "$$", "location": {"address1": "2127 Olympic Pkwy", "address2": "Ste 1001", "address3": "", "city": "Chula Vista", "zip_code": "91915", "country": "US", "state": "CA", "display_address": ["2127 Olympic Pkwy", "Ste 1001", "Chula Vista, CA 91915"]}, "phone": "+16197375913", "display_phone": "(619) 737-5913", "distance": 74139.93486105987}, {"id": "OQtA9ZwoXeb-WIw3xqFkbA", "alias": "jollibee-irvine-2", "name": "Jollibee", "image_url": "https://s3-media3.fl.yelpcdn.com/bphoto/GBAQuBqLE2HBfavpqgShTw/o.jpg", "is_closed": false, "url": "https://www.yelp.com/biz/jollibee-irvine-2?adjust_creative=oncXGL2aPIKrtJdnWeFSnA&utm_campaign=yelp_api_v3&utm_medium=api_v3_business_search&utm_source=oncXGL2aPIKrtJdnWeFSnA", "review_count": 184, "categories": [{"alias": "hotdogs", "title": "Fast Food"}, {"alias": "filipino", "title": "Filipino"}, {"alias": "breakfast_brunch", "title": "Breakfast & Brunch"}], "rating": 3.0, "coordinates": {"latitude": 33.6991411087071, "longitude": -117.836661525071}, "transactions": [], "price": "$", "location": {"address1": "2180 Barranca Pkwy", "address2": "Ste 120", "address3": "", "city": "Irvine", "zip_code": "92606", "country": "US", "state": "CA", "display_address": ["2180 Barranca Pkwy", "Ste 120", "Irvine, CA 92606"]}, "phone": "+19496601586", "display_phone": "(949) 660-1586", "distance": 71280.49355851642}, {"id": "OJAM-fZ88QQYnKux8n59-g", "alias": "pinoy-pams-best-lake-forest", "name": "Pinoy Pam's Best", "image_url": "https://s3-media2.fl.yelpcdn.com/bphoto/kYqnhvAQz1UZP618FEhCqw/o.jpg", "is_closed": false, "url": "https://www.yelp.com/biz/pinoy-pams-best-lake-forest?adjust_creative=oncXGL2aPIKrtJdnWeFSnA&utm_campaign=yelp_api_v3&utm_medium=api_v3_business_search&utm_source=oncXGL2aPIKrtJdnWeFSnA", "review_count": 275, "categories": [{"alias": "filipino", "title": "Filipino"}], "rating": 3.0, "coordinates": {"latitude": 33.6200848, "longitude": -117.7042235}, "transactions": [], "price": "$", "location": {"address1": "23635 El Toro Rd", "address2": "", "address3": "", "city": "Lake Forest", "zip_code": "92630", "country": "US", "state": "CA", "display_address": ["23635 El Toro Rd", "Lake Forest, CA 92630"]}, "phone": "+19492927695", "display_phone": "(949) 292-7695", "distance": 56600.48238614209}, {"id": "vKvscnPcm8I5ZyHsND8DWA", "alias": "karihan-filipino-food-national-city", "name": "Karihan Filipino Food", "image_url": "https://s3-media2.fl.yelpcdn.com/bphoto/IsFXupREMp9ynIRBDkc-0g/o.jpg", "is_closed": false, "url": "https://www.yelp.com/biz/karihan-filipino-food-national-city?adjust_creative=oncXGL2aPIKrtJdnWeFSnA&utm_campaign=yelp_api_v3&utm_medium=api_v3_business_search&utm_source=oncXGL2aPIKrtJdnWeFSnA", "review_count": 104, "categories": [{"alias": "filipino", "title": "Filipino"}, {"alias": "asianfusion", "title": "Asian Fusion"}, {"alias": "catering", "title": "Caterers"}], "rating": 3.5, "coordinates": {"latitude": 32.6773097707335, "longitude": -117.082402747291}, "transactions": [], "price": "$", "location": {"address1": "2220 E Plaza Blvd", "address2": "Ste B", "address3": "", "city": "National City", "zip_code": "91950", "country": "US", "state": "CA", "display_address": ["2220 E Plaza Blvd", "Ste B", "National City, CA 91950"]}, "phone": "+16194700783", "display_phone": "(619) 470-0783", "distance": 64857.95476688612}, {"id": "Xnr78BrEyBuBdh8vnk5RGw", "alias": "red-ribbon-bakeshop-national-city-6", "name": "Red Ribbon Bakeshop", "image_url": "https://s3-media3.fl.yelpcdn.com/bphoto/BEgx-OUgVcMgGcBAUvFZiA/o.jpg", "is_closed": false, "url": "https://www.yelp.com/biz/red-ribbon-bakeshop-national-city-6?adjust_creative=oncXGL2aPIKrtJdnWeFSnA&utm_campaign=yelp_api_v3&utm_medium=api_v3_business_search&utm_source=oncXGL2aPIKrtJdnWeFSnA", "review_count": 45, "categories": [{"alias": "bakeries", "title": "Bakeries"}, {"alias": "hotdogs", "title": "Fast Food"}, {"alias": "filipino", "title": "Filipino"}], "rating": 4.0, "coordinates": {"latitude": 32.6775536, "longitude": -117.0820782}, "transactions": [], "price": "$", "location": {"address1": "2220 E Plz Blvd", "address2": "Ste G", "address3": "", "city": "National City", "zip_code": "91950", "country": "US", "state": "CA", "display_address": ["2220 E Plz Blvd", "Ste G", "National City, CA 91950"]}, "phone": "+16194701947", "display_phone": "(619) 470-1947", "distance": 64842.72244833597}, {"id": "GWqpaNOzrwLAPdK8SwZAbQ", "alias": "enzos-way-filipino-fast-food-orange", "name": "Enzo's Way: Filipino Fast Food", "image_url": "https://s3-media2.fl.yelpcdn.com/bphoto/ymyMIi0lnk4duOEC23-wXQ/o.jpg", "is_closed": false, "url": "https://www.yelp.com/biz/enzos-way-filipino-fast-food-orange?adjust_creative=oncXGL2aPIKrtJdnWeFSnA&utm_campaign=yelp_api_v3&utm_medium=api_v3_business_search&utm_source=oncXGL2aPIKrtJdnWeFSnA", "review_count": 42, "categories": [{"alias": "filipino", "title": "Filipino"}], "rating": 3.5, "coordinates": {"latitude": 33.78829, "longitude": -117.87103}, "transactions": [], "price": "$", "location": {"address1": "1715 W Chapman Ave", "address2": "", "address3": "", "city": "Orange", "zip_code": "92868", "country": "US", "state": "CA", "display_address": ["1715 W Chapman Ave", "Orange, CA 92868"]}, "phone": "+17146348816", "display_phone": "(714) 634-8816", "distance": 80849.20784934824}, {"id": "86NPUwHrkwrM_y84lo3ceA", "alias": "erlindas-filipino-cuisine-national-city", "name": "Erlinda's Filipino Cuisine", "image_url": "https://s3-media4.fl.yelpcdn.com/bphoto/YZGLOnM8OSN7smhxhyK3fg/o.jpg", "is_closed": false, "url": "https://www.yelp.com/biz/erlindas-filipino-cuisine-national-city?adjust_creative=oncXGL2aPIKrtJdnWeFSnA&utm_campaign=yelp_api_v3&utm_medium=api_v3_business_search&utm_source=oncXGL2aPIKrtJdnWeFSnA", "review_count": 113, "categories": [{"alias": "filipino", "title": "Filipino"}, {"alias": "icecream", "title": "Ice Cream & Frozen Yogurt"}], "rating": 4.0, "coordinates": {"latitude": 32.68533, "longitude": -117.07157}, "transactions": [], "price": "$", "location": {"address1": "3400 E 8th St", "address2": "Ste 115", "address3": "", "city": "National City", "zip_code": "91950", "country": "US", "state": "CA", "display_address": ["3400 E 8th St", "Ste 115", "National City, CA 91950"]}, "phone": "+16194706993", "display_phone": "(619) 470-6993", "distance": 64391.158908975056}, {"id": "S3O6iqjo3blqjs-caEYw4w", "alias": "irenia-santa-ana", "name": "Irenia", "image_url": "https://s3-media2.fl.yelpcdn.com/bphoto/Z_8pnyiXDrt0KWLfvO65qw/o.jpg", "is_closed": false, "url": "https://www.yelp.com/biz/irenia-santa-ana?adjust_creative=oncXGL2aPIKrtJdnWeFSnA&utm_campaign=yelp_api_v3&utm_medium=api_v3_business_search&utm_source=oncXGL2aPIKrtJdnWeFSnA", "review_count": 277, "categories": [{"alias": "newamerican", "title": "American (New)"}, {"alias": "filipino", "title": "Filipino"}], "rating": 4.0, "coordinates": {"latitude": 33.7481129, "longitude": -117.8698822}, "transactions": [], "price": "$$", "location": {"address1": "400 N Broadway", "address2": "", "address3": "", "city": "Santa Ana", "zip_code": "92701", "country": "US", "state": "CA", "display_address": ["400 N Broadway", "Santa Ana, CA 92701"]}, "phone": "+16572453466", "display_phone": "(657) 245-3466", "distance": 77390.7881356305}], "total": 113, "region": {"center": {"longitude": -117.31819152832031, "latitude": 33.226009439623446}}}