{"businesses": [{"id": "oJiVUEQWKJkBB0e3gZNOuQ", "alias": "doughside-donuts-oceanside", "name": "Doughside Donuts", "image_url": "https://s3-media1.fl.yelpcdn.com/bphoto/VP6x1eSGgnd_gq2QmqxP3w/o.jpg", "is_closed": false, "url": "https://www.yelp.com/biz/doughside-donuts-oceanside?adjust_creative=oncXGL2aPIKrtJdnWeFSnA&utm_campaign=yelp_api_v3&utm_medium=api_v3_business_search&utm_source=oncXGL2aPIKrtJdnWeFSnA", "review_count": 7, "categories": [{"alias": "donuts", "title": "Donuts"}, {"alias": "foodstands", "title": "Food Stands"}], "rating": 5.0, "coordinates": {"latitude": 33.19533, "longitude": -117.37817}, "transactions": [], "location": {"address1": "", "address2": "", "address3": null, "city": "Oceanside", "zip_code": "92049", "country": "US", "state": "CA", "display_address": ["Oceanside, CA 92049"]}, "phone": "+13185059074", "display_phone": "(318) 505-9074", "distance": 6591.347901299374}, {"id": "7mEQz_574FzZ8X45z-JXCQ", "alias": "veggyjess-oceanside", "name": "VeggyJess", "image_url": "https://s3-media1.fl.yelpcdn.com/bphoto/GA028q94gYEC3C8OWvHZMQ/o.jpg", "is_closed": false, "url": "https://www.yelp.com/biz/veggyjess-oceanside?adjust_creative=oncXGL2aPIKrtJdnWeFSnA&utm_campaign=yelp_api_v3&utm_medium=api_v3_business_search&utm_source=oncXGL2aPIKrtJdnWeFSnA", "review_count": 2, "categories": [{"alias": "vegan", "title": "Vegan"}, {"alias": "foodstands", "title": "Food Stands"}, {"alias": "vegetarian", "title": "Vegetarian"}], "rating": 5.0, "coordinates": {"latitude": 33.1971723144385, "longitude": -117.381693333333}, "transactions": [], "location": {"address1": "701 Mission Ave", "address2": "", "address3": "Oceanside Sunset Market", "city": "Oceanside", "zip_code": "92003", "country": "US", "state": "CA", "display_address": ["701 Mission Ave", "Oceanside Sunset Market", "Oceanside, CA 92003"]}, "phone": "+17608964164", "display_phone": "(760) 896-4164", "distance": 6721.789011639713}, {"id": "gXrNkMxueZZQDZ9fWSiWQA", "alias": "m-and-m-tacos-ensenada-style-oceanside", "name": "M&M Taco's Ensenada Style", "image_url": "https://s3-media2.fl.yelpcdn.com/bphoto/jWQyZll-jl8qU6EZ-dZqjQ/o.jpg", "is_closed": false, "url": "https://www.yelp.com/biz/m-and-m-tacos-ensenada-style-oceanside?adjust_creative=oncXGL2aPIKrtJdnWeFSnA&utm_campaign=yelp_api_v3&utm_medium=api_v3_business_search&utm_source=oncXGL2aPIKrtJdnWeFSnA", "review_count": 1, "categories": [{"alias": "foodstands", "title": "Food Stands"}, {"alias": "mexican", "title": "Mexican"}], "rating": 5.0, "coordinates": {"latitude": 33.2094145927583, "longitude": -117.357322946191}, "transactions": [], "location": {"address1": "2300 Mission Ave", "address2": "", "address3": null, "city": "Oceanside", "zip_code": "92058", "country": "US", "state": "CA", "display_address": ["2300 Mission Ave", "Oceanside, CA 92058"]}, "phone": "+17605297430", "display_phone": "(760) 529-7430", "distance": 4081.182271210564}, {"id": "FVBgAN591l9sljCHCsY1Rw", "alias": "baps-oceanside", "name": "BAPS!", "image_url": "https://s3-media3.fl.yelpcdn.com/bphoto/YnceYLMhHbIxEujJeijtfg/o.jpg", "is_closed": false, "url": "https://www.yelp.com/biz/baps-oceanside?adjust_creative=oncXGL2aPIKrtJdnWeFSnA&utm_campaign=yelp_api_v3&utm_medium=api_v3_business_search&utm_source=oncXGL2aPIKrtJdnWeFSnA", "review_count": 7, "categories": [{"alias": "foodstands", "title": "Food Stands"}], "rating": 4.5, "coordinates": {"latitude": 33.20666, "longitude": -117.30309}, "transactions": [], "price": "$$", "location": {"address1": "3830 Oceanic Dr", "address2": "Ste 411", "address3": "", "city": "Oceanside", "zip_code": "92056", "country": "US", "state": "CA", "display_address": ["3830 Oceanic Dr", "Ste 411", "Oceanside, CA 92056"]}, "phone": "+19493932723", "display_phone": "(949) 393-2723", "distance": 2581.5997716150964}, {"id": "nRTglEyZdfyursQIV598oQ", "alias": "nessy-burgers-fallbrook-3", "name": "Nessy Burgers", "image_url": "https://s3-media1.fl.yelpcdn.com/bphoto/Bxw_rP63qAtFjcHQ5qqnCw/o.jpg", "is_closed": false, "url": "https://www.yelp.com/biz/nessy-burgers-fallbrook-3?adjust_creative=oncXGL2aPIKrtJdnWeFSnA&utm_campaign=yelp_api_v3&utm_medium=api_v3_business_search&utm_source=oncXGL2aPIKrtJdnWeFSnA", "review_count": 531, "categories": [{"alias": "burgers", "title": "Burgers"}, {"alias": "foodstands", "title": "Food Stands"}], "rating": 4.0, "coordinates": {"latitude": 33.332287, "longitude": -117.1620891}, "transactions": [], "price": "$", "location": {"address1": "3235 Old Hwy 395", "address2": "", "address3": "", "city": "Fallbrook", "zip_code": "92028", "country": "US", "state": "CA", "display_address": ["3235 Old Hwy 395", "Fallbrook, CA 92028"]}, "phone": "+17605059955", "display_phone": "(760) 505-9955", "distance": 18714.409379587298}, {"id": "PM7BDSkI8otItDBp7QabMA", "alias": "devil-dog-snack-bar-oceanside", "name": "Devil Dog Snack Bar", "image_url": "https://s3-media3.fl.yelpcdn.com/bphoto/C1Ko9pPOgfWrCNFxtTdDqQ/o.jpg", "is_closed": false, "url": "https://www.yelp.com/biz/devil-dog-snack-bar-oceanside?adjust_creative=oncXGL2aPIKrtJdnWeFSnA&utm_campaign=yelp_api_v3&utm_medium=api_v3_business_search&utm_source=oncXGL2aPIKrtJdnWeFSnA", "review_count": 4, "categories": [{"alias": "foodstands", "title": "Food Stands"}], "rating": 2.5, "coordinates": {"latitude": 33.2018318, "longitude": -117.3323135}, "transactions": [], "price": "$$$$", "location": {"address1": "Mcas Camp Pendleton", "address2": "", "address3": "", "city": "Oceanside", "zip_code": "92055", "country": "US", "state": "CA", "display_address": ["Mcas Camp Pendleton", "Oceanside, CA 92055"]}, "phone": "+17607253870", "display_phone": "(760) 725-3870", "distance": 9057.7440576246}, {"id": "8SnzXDzn1LIJYdEMN7AzaQ", "alias": "smokey-jakes-bbq-vista", "name": "Smokey Jake's BBQ", "image_url": "https://s3-media3.fl.yelpcdn.com/bphoto/CZ_g3dtT-nRyiBzk0whyhg/o.jpg", "is_closed": false, "url": "https://www.yelp.com/biz/smokey-jakes-bbq-vista?adjust_creative=oncXGL2aPIKrtJdnWeFSnA&utm_campaign=yelp_api_v3&utm_medium=api_v3_business_search&utm_source=oncXGL2aPIKrtJdnWeFSnA", "review_count": 12, "categories": [{"alias": "foodstands", "title": "Food Stands"}, {"alias": "bbq", "title": "Barbeque"}], "rating": 4.5, "coordinates": {"latitude": 33.1679534912109, "longitude": -117.225868225098}, "transactions": [], "location": {"address1": "", "address2": "", "address3": "", "city": "Vista", "zip_code": "92081", "country": "US", "state": "CA", "display_address": ["Vista, CA 92081"]}, "phone": "+17604405475", "display_phone": "(760) 440-5475", "distance": 8059.596549460822}, {"id": "hw7js1jU8KqibsFFvM1Fug", "alias": "cassies-crepes-vista-2", "name": "Cassie's Crepes", "image_url": "https://s3-media1.fl.yelpcdn.com/bphoto/GoBnzi8-L_kRz2Jh6l9Sbw/o.jpg", "is_closed": false, "url": "https://www.yelp.com/biz/cassies-crepes-vista-2?adjust_creative=oncXGL2aPIKrtJdnWeFSnA&utm_campaign=yelp_api_v3&utm_medium=api_v3_business_search&utm_source=oncXGL2aPIKrtJdnWeFSnA", "review_count": 26, "categories": [{"alias": "breakfast_brunch", "title": "Breakfast & Brunch"}, {"alias": "creperies", "title": "Creperies"}, {"alias": "foodstands", "title": "Food Stands"}], "rating": 4.5, "coordinates": {"latitude": 33.19103, "longitude": -117.25469}, "transactions": [], "price": "$", "location": {"address1": "325 S Melrose", "address2": null, "address3": "", "city": "Vista", "zip_code": "92081", "country": "US", "state": "CA", "display_address": ["325 S Melrose", "Vista, CA 92081"]}, "phone": "+18583359768", "display_phone": "(858) 335-9768", "distance": 6856.965310078943}, {"id": "0GIrHPnKwcuCe_AAbLqPQQ", "alias": "sd-lemon-life-oceanside", "name": "SD Lemon Life", "image_url": "https://s3-media1.fl.yelpcdn.com/bphoto/aYp7ntF41pZdEYatpmIS4Q/o.jpg", "is_closed": false, "url": "https://www.yelp.com/biz/sd-lemon-life-oceanside?adjust_creative=oncXGL2aPIKrtJdnWeFSnA&utm_campaign=yelp_api_v3&utm_medium=api_v3_business_search&utm_source=oncXGL2aPIKrtJdnWeFSnA", "review_count": 13, "categories": [{"alias": "juicebars", "title": "Juice Bars & Smoothies"}, {"alias": "foodstands", "title": "Food Stands"}], "rating": 5.0, "coordinates": {"latitude": 33.1928558, "longitude": -117.3827364}, "transactions": [], "price": "$", "location": {"address1": "200 N The Strand", "address2": null, "address3": "", "city": "Oceanside", "zip_code": "92054", "country": "US", "state": "CA", "display_address": ["200 N The Strand", "Oceanside, CA 92054"]}, "phone": "+17605738286", "display_phone": "(760) 573-8286", "distance": 7064.560683991966}, {"id": "tr2FMU5HeKIXNAj8Wzn8Gw", "alias": "up-skewerz-oceanside", "name": "Up Skewerz", "image_url": "https://s3-media1.fl.yelpcdn.com/bphoto/Oi3D-79e_8iTgV5yxHxElQ/o.jpg", "is_closed": false, "url": "https://www.yelp.com/biz/up-skewerz-oceanside?adjust_creative=oncXGL2aPIKrtJdnWeFSnA&utm_campaign=yelp_api_v3&utm_medium=api_v3_business_search&utm_source=oncXGL2aPIKrtJdnWeFSnA", "review_count": 13, "categories": [{"alias": "bbq", "title": "Barbeque"}, {"alias": "foodstands", "title": "Food Stands"}], "rating": 4.5, "coordinates": {"latitude": 33.18951, "longitude": -117.37193}, "transactions": [], "location": {"address1": "", "address2": "", "address3": null, "city": "Oceanside", "zip_code": "92054", "country": "US", "state": "CA", "display_address": ["Oceanside, CA 92054"]}, "phone": "", "display_phone": "", "distance": 5915.220459531363}, {"id": "S7_byw5XYalo5hxsbAW8GQ", "alias": "the-break-carlsbad", "name": "The Break", "image_url": "https://s3-media4.fl.yelpcdn.com/bphoto/OsVKRPZ7hq3BlzYXs-BhBQ/o.jpg", "is_closed": false, "url": "https://www.yelp.com/biz/the-break-carlsbad?adjust_creative=oncXGL2aPIKrtJdnWeFSnA&utm_campaign=yelp_api_v3&utm_medium=api_v3_business_search&utm_source=oncXGL2aPIKrtJdnWeFSnA", "review_count": 1, "categories": [{"alias": "food_court", "title": "Food Court"}, {"alias": "foodstands", "title": "Food Stands"}], "rating": 5.0, "coordinates": {"latitude": 33.1305825203357, "longitude": -117.308545086122}, "transactions": [], "price": "$$", "location": {"address1": "5480 Grand Pacific Dr", "address2": "", "address3": null, "city": "Carlsbad", "zip_code": "92008", "country": "US", "state": "CA", "display_address": ["5480 Grand Pacific Dr", "Carlsbad, CA 92008"]}, "phone": "", "display_phone": "", "distance": 10648.888420533814}, {"id": "7U_0BeDA1TJ9LLuaNbpGqQ", "alias": "super-antojitos-mexicanos-oceanside", "name": "Super Antojitos Mexicanos", "image_url": "https://s3-media2.fl.yelpcdn.com/bphoto/HIY3tESDRYLHJHL1nggDvw/o.jpg", "is_closed": false, "url": "https://www.yelp.com/biz/super-antojitos-mexicanos-oceanside?adjust_creative=oncXGL2aPIKrtJdnWeFSnA&utm_campaign=yelp_api_v3&utm_medium=api_v3_business_search&utm_source=oncXGL2aPIKrtJdnWeFSnA", "review_count": 1, "categories": [{"alias": "candy", "title": "Candy Stores"}, {"alias": "icecream", "title": "Ice Cream & Frozen Yogurt"}, {"alias": "foodstands", "title": "Food Stands"}], "rating": 4.0, "coordinates": {"latitude": 33.2062276, "longitude": -117.3622504}, "transactions": [], "price": "$", "location": {"address1": "2027 Mission Ave", "address2": null, "address3": null, "city": "Oceanside", "zip_code": "92058", "country": "US", "state": "CA", "display_address": ["2027 Mission Ave", "Oceanside, CA 92058"]}, "phone": "+17607120068", "display_phone": "(760) 712-0068", "distance": 4651.596850148217}, {"id": "L7ho5M3Xu7Wgif00jlkn_A", "alias": "calituna-oceanside-2", "name": "Calituna", "image_url": "https://s3-media2.fl.yelpcdn.com/bphoto/qrvKoTna4ZcJfTrJ-C_GrA/o.jpg", "is_closed": false, "url": "https://www.yelp.com/biz/calituna-oceanside-2?adjust_creative=oncXGL2aPIKrtJdnWeFSnA&utm_campaign=yelp_api_v3&utm_medium=api_v3_business_search&utm_source=oncXGL2aPIKrtJdnWeFSnA", "review_count": 2, "categories": [{"alias": "foodstands", "title": "Food Stands"}], "rating": 4.5, "coordinates": {"latitude": 33.1953048706055, "longitude": -117.378684997559}, "transactions": [], "location": {"address1": "", "address2": null, "address3": "", "city": "Oceanside", "zip_code": "92049", "country": "US", "state": "CA", "display_address": ["Oceanside, CA 92049"]}, "phone": "+17606722512", "display_phone": "(760) 672-2512", "distance": 6591.347901299374}, {"id": "LFeBkWAduHleXQYSSeASDQ", "alias": "el-veganito-escondido", "name": "El Veganito", "image_url": "https://s3-media1.fl.yelpcdn.com/bphoto/yTGjqogV1f_-6LUBsed5mA/o.jpg", "is_closed": false, "url": "https://www.yelp.com/biz/el-veganito-escondido?adjust_creative=oncXGL2aPIKrtJdnWeFSnA&utm_campaign=yelp_api_v3&utm_medium=api_v3_business_search&utm_source=oncXGL2aPIKrtJdnWeFSnA", "review_count": 38, "categories": [{"alias": "vegan", "title": "Vegan"}, {"alias": "mexican", "title": "Mexican"}, {"alias": "foodstands", "title": "Food Stands"}], "rating": 4.5, "coordinates": {"latitude": 33.0844917297363, "longitude": -117.028190612793}, "transactions": [], "price": "$$", "location": {"address1": "", "address2": "", "address3": "", "city": "Escondido", "zip_code": "92025", "country": "US", "state": "CA", "display_address": ["Escondido, CA 92025"]}, "phone": "+17607166420", "display_phone": "(760) 716-6420", "distance": 29173.69229705974}, {"id": "YyI2wI76pFMiQZ0Gi7dyyA", "alias": "sweet-delights-of-joy-vista", "name": "Sweet Delights of Joy", "image_url": "https://s3-media1.fl.yelpcdn.com/bphoto/mCJeR7D8KqAqSEs3-_JQsQ/o.jpg", "is_closed": false, "url": "https://www.yelp.com/biz/sweet-delights-of-joy-vista?adjust_creative=oncXGL2aPIKrtJdnWeFSnA&utm_campaign=yelp_api_v3&utm_medium=api_v3_business_search&utm_source=oncXGL2aPIKrtJdnWeFSnA", "review_count": 4, "categories": [{"alias": "foodstands", "title": "Food Stands"}], "rating": 5.0, "coordinates": {"latitude": 33.1649627685547, "longitude": -117.240905761719}, "transactions": [], "location": {"address1": "", "address2": null, "address3": "", "city": "Vista", "zip_code": "92081", "country": "US", "state": "CA", "display_address": ["Vista, CA 92081"]}, "phone": "+17604735159", "display_phone": "(760) 473-5159", "distance": 8059.596549460822}, {"id": "BdCBt7v2WWMjjyk4Eqpe0w", "alias": "beach-street-tacos-carlsbad", "name": "Beach Street Tacos", "image_url": "https://s3-media2.fl.yelpcdn.com/bphoto/O-N7zhpWW5sZP3SBcbgXtA/o.jpg", "is_closed": false, "url": "https://www.yelp.com/biz/beach-street-tacos-carlsbad?adjust_creative=oncXGL2aPIKrtJdnWeFSnA&utm_campaign=yelp_api_v3&utm_medium=api_v3_business_search&utm_source=oncXGL2aPIKrtJdnWeFSnA", "review_count": 11, "categories": [{"alias": "tacos", "title": "Tacos"}, {"alias": "foodstands", "title": "Food Stands"}], "rating": 3.5, "coordinates": {"latitude": 33.1288389356242, "longitude": -117.313159109876}, "transactions": [], "price": "$$", "location": {"address1": "1 Legoland Dr", "address2": "", "address3": null, "city": "Carlsbad", "zip_code": "92008", "country": "US", "state": "CA", "display_address": ["1 Legoland Dr", "Carlsbad, CA 92008"]}, "phone": "", "display_phone": "", "distance": 10815.00119117755}, {"id": "twXXI04o0GxU2RFxdyHEXw", "alias": "tacos-el-jalisience-fallbrook", "name": "Tacos El Jalisience", "image_url": "https://s3-media3.fl.yelpcdn.com/bphoto/fZAFQJTzB6ve2RyRUNd4jg/o.jpg", "is_closed": false, "url": "https://www.yelp.com/biz/tacos-el-jalisience-fallbrook?adjust_creative=oncXGL2aPIKrtJdnWeFSnA&utm_campaign=yelp_api_v3&utm_medium=api_v3_business_search&utm_source=oncXGL2aPIKrtJdnWeFSnA", "review_count": 19, "categories": [{"alias": "mexican", "title": "Mexican"}, {"alias": "foodstands", "title": "Food Stands"}], "rating": 4.5, "coordinates": {"latitude": 33.371519, "longitude": -117.251996}, "transactions": [], "price": "$", "location": {"address1": "418 W Aviation Rd", "address2": "", "address3": "", "city": "Fallbrook", "zip_code": "92028", "country": "US", "state": "CA", "display_address": ["418 W Aviation Rd", "Fallbrook, CA 92028"]}, "phone": "+17606446670", "display_phone": "(760) 644-6670", "distance": 17310.05608625877}, {"id": "izdus4r5sowZ6ezsjLBjWA", "alias": "caffe-vacanza-carlsbad-4", "name": "Caffe Vacanza", "image_url": "https://s3-media1.fl.yelpcdn.com/bphoto/fRlg2ypP0mtuNnQD0kg0gg/o.jpg", "is_closed": false, "url": "https://www.yelp.com/biz/caffe-vacanza-carlsbad-4?adjust_creative=oncXGL2aPIKrtJdnWeFSnA&utm_campaign=yelp_api_v3&utm_medium=api_v3_business_search&utm_source=oncXGL2aPIKrtJdnWeFSnA", "review_count": 36, "categories": [{"alias": "coffee", "title": "Coffee & Tea"}, {"alias": "foodstands", "title": "Food Stands"}, {"alias": "sandwiches", "title": "Sandwiches"}], "rating": 4.5, "coordinates": {"latitude": 33.1215199, "longitude": -117.27023}, "transactions": [], "price": "$", "location": {"address1": "2283 Cosmos Ct", "address2": null, "address3": "Inside Carlsbad Icetown", "city": "Carlsbad", "zip_code": "92011", "country": "US", "state": "CA", "display_address": ["2283 Cosmos Ct", "Inside Carlsbad Icetown", "Carlsbad, CA 92011"]}, "phone": "+17609787116", "display_phone": "(760) 978-7116", "distance": 12452.270191666952}, {"id": "L_16Y1IaBthdXzlbTgX4yA", "alias": "la-huerta-mexicana-vista-2", "name": "La Huerta Mexicana", "image_url": "https://s3-media2.fl.yelpcdn.com/bphoto/tCFayrSbPGwmEBhmZHyZTA/o.jpg", "is_closed": false, "url": "https://www.yelp.com/biz/la-huerta-mexicana-vista-2?adjust_creative=oncXGL2aPIKrtJdnWeFSnA&utm_campaign=yelp_api_v3&utm_medium=api_v3_business_search&utm_source=oncXGL2aPIKrtJdnWeFSnA", "review_count": 3, "categories": [{"alias": "grocery", "title": "Grocery"}, {"alias": "foodstands", "title": "Food Stands"}, {"alias": "markets", "title": "Fruits & Veggies"}], "rating": 5.0, "coordinates": {"latitude": 33.1541129131764, "longitude": -117.209320714046}, "transactions": [], "price": "$$", "location": {"address1": "545 Smilax Rd", "address2": "", "address3": null, "city": "Vista", "zip_code": "92081", "country": "US", "state": "CA", "display_address": ["545 Smilax Rd", "Vista, CA 92081"]}, "phone": "+17606596663", "display_phone": "(760) 659-6663", "distance": 12905.33310629727}, {"id": "SmzQdOEBu3gpT_ZwmBIIlg", "alias": "ritro-vending-san-marcos", "name": "Ritro Vending", "image_url": "https://s3-media4.fl.yelpcdn.com/bphoto/J-m0rI0aj1z1pU8PYCzQVA/o.jpg", "is_closed": false, "url": "https://www.yelp.com/biz/ritro-vending-san-marcos?adjust_creative=oncXGL2aPIKrtJdnWeFSnA&utm_campaign=yelp_api_v3&utm_medium=api_v3_business_search&utm_source=oncXGL2aPIKrtJdnWeFSnA", "review_count": 5, "categories": [{"alias": "hotdog", "title": "Hot Dogs"}, {"alias": "catering", "title": "Caterers"}, {"alias": "foodstands", "title": "Food Stands"}], "rating": 4.0, "coordinates": {"latitude": 33.14709, "longitude": -117.19768}, "transactions": [], "location": {"address1": "139 Pawnee St", "address2": null, "address3": "", "city": "San Marcos", "zip_code": "92078", "country": "US", "state": "CA", "display_address": ["139 Pawnee St", "San Marcos, CA 92078"]}, "phone": "+19105813883", "display_phone": "(910) 581-3883", "distance": 14252.608288196787}], "total": 20, "region": {"center": {"longitude": -117.31819152832031, "latitude": 33.226009439623446}}}