{"businesses": [{"id": "Ako_u4uXUOIqQlg5x72N4Q", "alias": "raising-canes-vista-2", "name": "Raising Cane's", "image_url": "https://s3-media3.fl.yelpcdn.com/bphoto/-VXHkbxATRFYMWuK2Ev6ag/o.jpg", "is_closed": false, "url": "https://www.yelp.com/biz/raising-canes-vista-2?adjust_creative=oncXGL2aPIKrtJdnWeFSnA&utm_campaign=yelp_api_v3&utm_medium=api_v3_business_search&utm_source=oncXGL2aPIKrtJdnWeFSnA", "review_count": 154, "categories": [{"alias": "hotdogs", "title": "Fast Food"}], "rating": 3.5, "coordinates": {"latitude": 33.198175, "longitude": -117.247727}, "transactions": [], "price": "$$", "location": {"address1": "303 Vista Village Dr", "address2": "", "address3": null, "city": "Vista", "zip_code": "92083", "country": "US", "state": "CA", "display_address": ["303 Vista Village Dr", "Vista, CA 92083"]}, "phone": "+17606396086", "display_phone": "(760) 639-6086", "distance": 7249.301457715731}, {"id": "IoRpFKnJsuUrengoF_dgrA", "alias": "chick-fil-a-oceanside", "name": "Chick-fil-A", "image_url": "https://s3-media4.fl.yelpcdn.com/bphoto/qT6GVkHvWC9GdkzjjLTh4A/o.jpg", "is_closed": false, "url": "https://www.yelp.com/biz/chick-fil-a-oceanside?adjust_creative=oncXGL2aPIKrtJdnWeFSnA&utm_campaign=yelp_api_v3&utm_medium=api_v3_business_search&utm_source=oncXGL2aPIKrtJdnWeFSnA", "review_count": 234, "categories": [{"alias": "hotdogs", "title": "Fast Food"}], "rating": 4.0, "coordinates": {"latitude": 33.1779819396667, "longitude": -117.29483058614}, "transactions": ["delivery", "pickup"], "price": "$", "location": {"address1": "3475 Marron Rd", "address2": null, "address3": "", "city": "Oceanside", "zip_code": "92056", "country": "US", "state": "CA", "display_address": ["3475 Marron Rd", "Oceanside, CA 92056"]}, "phone": "+17605763128", "display_phone": "(760) 576-3128", "distance": 5765.78246852712}, {"id": "OKBQuo7uN_sGKst59K6L-A", "alias": "waba-grill-oceanside", "name": "WaBa Grill", "image_url": "https://s3-media1.fl.yelpcdn.com/bphoto/ju_y8ZRv93FPXkautFKQJQ/o.jpg", "is_closed": false, "url": "https://www.yelp.com/biz/waba-grill-oceanside?adjust_creative=oncXGL2aPIKrtJdnWeFSnA&utm_campaign=yelp_api_v3&utm_medium=api_v3_business_search&utm_source=oncXGL2aPIKrtJdnWeFSnA", "review_count": 201, "categories": [{"alias": "hotdogs", "title": "Fast Food"}, {"alias": "asianfusion", "title": "Asian Fusion"}], "rating": 3.5, "coordinates": {"latitude": 33.2273492907876, "longitude": -117.331380054845}, "transactions": [], "price": "$", "location": {"address1": "3780 Mission Ave", "address2": "Ste 2", "address3": "", "city": "Oceanside", "zip_code": "92058", "country": "US", "state": "CA", "display_address": ["3780 Mission Ave", "Ste 2", "Oceanside, CA 92058"]}, "phone": "+17607212702", "display_phone": "(760) 721-2702", "distance": 1235.7509509963763}, {"id": "Li5i83xVhK2HfM5J0JHY6Q", "alias": "in-n-out-burger-oceanside", "name": "In-N-Out Burger", "image_url": "https://s3-media3.fl.yelpcdn.com/bphoto/OSJuAZ2mwEdROgVQB7iIrQ/o.jpg", "is_closed": false, "url": "https://www.yelp.com/biz/in-n-out-burger-oceanside?adjust_creative=oncXGL2aPIKrtJdnWeFSnA&utm_campaign=yelp_api_v3&utm_medium=api_v3_business_search&utm_source=oncXGL2aPIKrtJdnWeFSnA", "review_count": 164, "categories": [{"alias": "hotdogs", "title": "Fast Food"}, {"alias": "burgers", "title": "Burgers"}], "rating": 4.0, "coordinates": {"latitude": 33.2378799, "longitude": -117.29921}, "transactions": [], "price": "$", "location": {"address1": "4605 Frazee Rd", "address2": "", "address3": "", "city": "Oceanside", "zip_code": "92057", "country": "US", "state": "CA", "display_address": ["4605 Frazee Rd", "Oceanside, CA 92057"]}, "phone": "+18007861000", "display_phone": "(800) 786-1000", "distance": 2188.710997389508}, {"id": "okZZffUQuh0JK6mhJkIGyA", "alias": "in-n-out-burger-oceanside-2", "name": "In-N-Out Burger", "image_url": "https://s3-media1.fl.yelpcdn.com/bphoto/_qkxgqBAaCVnel-XMQikbA/o.jpg", "is_closed": false, "url": "https://www.yelp.com/biz/in-n-out-burger-oceanside-2?adjust_creative=oncXGL2aPIKrtJdnWeFSnA&utm_campaign=yelp_api_v3&utm_medium=api_v3_business_search&utm_source=oncXGL2aPIKrtJdnWeFSnA", "review_count": 110, "categories": [{"alias": "burgers", "title": "Burgers"}, {"alias": "hotdogs", "title": "Fast Food"}], "rating": 4.5, "coordinates": {"latitude": 33.2029384011908, "longitude": -117.384183262118}, "transactions": [], "price": "$", "location": {"address1": "936 N Coast Hwy", "address2": "", "address3": "", "city": "Oceanside", "zip_code": "92054", "country": "US", "state": "CA", "display_address": ["936 N Coast Hwy", "Oceanside, CA 92054"]}, "phone": "+18007861000", "display_phone": "(800) 786-1000", "distance": 6596.523363558078}, {"id": "WpK9ORuaHcJ4PN8_EbOFJg", "alias": "robertos-tacos-shop-13-oceanside", "name": "Roberto's Tacos Shop 13", "image_url": "https://s3-media3.fl.yelpcdn.com/bphoto/lw4Nb-pmlhPwIHRW3QNrPg/o.jpg", "is_closed": false, "url": "https://www.yelp.com/biz/robertos-tacos-shop-13-oceanside?adjust_creative=oncXGL2aPIKrtJdnWeFSnA&utm_campaign=yelp_api_v3&utm_medium=api_v3_business_search&utm_source=oncXGL2aPIKrtJdnWeFSnA", "review_count": 143, "categories": [{"alias": "hotdogs", "title": "Fast Food"}, {"alias": "mexican", "title": "Mexican"}], "rating": 4.0, "coordinates": {"latitude": 33.1838646, "longitude": -117.3690414}, "transactions": [], "price": "$", "location": {"address1": "518 Oceanside Blvd", "address2": "Ste 111", "address3": "", "city": "Oceanside", "zip_code": "92054", "country": "US", "state": "CA", "display_address": ["518 Oceanside Blvd", "Ste 111", "Oceanside, CA 92054"]}, "phone": "+17607572377", "display_phone": "(760) 757-2377", "distance": 6615.718934610654}, {"id": "eTiQGScV5TbUfFeH4etwMQ", "alias": "blaze-fast-fired-pizza-carlsbad", "name": "Blaze Fast-Fire'd Pizza", "image_url": "https://s3-media4.fl.yelpcdn.com/bphoto/RdiWPOGfcK5C4bmnuL0MvA/o.jpg", "is_closed": false, "url": "https://www.yelp.com/biz/blaze-fast-fired-pizza-carlsbad?adjust_creative=oncXGL2aPIKrtJdnWeFSnA&utm_campaign=yelp_api_v3&utm_medium=api_v3_business_search&utm_source=oncXGL2aPIKrtJdnWeFSnA", "review_count": 686, "categories": [{"alias": "pizza", "title": "Pizza"}, {"alias": "salad", "title": "Salad"}, {"alias": "hotdogs", "title": "Fast Food"}], "rating": 4.5, "coordinates": {"latitude": 33.1250977336068, "longitude": -117.320182059245}, "transactions": [], "price": "$", "location": {"address1": "5620 Paseo Del Norte", "address2": "", "address3": "", "city": "Carlsbad", "zip_code": "92008", "country": "US", "state": "CA", "display_address": ["5620 Paseo Del Norte", "Carlsbad, CA 92008"]}, "phone": "+17608945029", "display_phone": "(760) 894-5029", "distance": 11222.386521930675}, {"id": "swfhBizj8QYIkJj1OsXgOQ", "alias": "jersey-mikes-subs-oceanside-4", "name": "Jersey Mike's Subs", "image_url": "https://s3-media3.fl.yelpcdn.com/bphoto/xwI3dkNoEiOuv43pNa4isA/o.jpg", "is_closed": false, "url": "https://www.yelp.com/biz/jersey-mikes-subs-oceanside-4?adjust_creative=oncXGL2aPIKrtJdnWeFSnA&utm_campaign=yelp_api_v3&utm_medium=api_v3_business_search&utm_source=oncXGL2aPIKrtJdnWeFSnA", "review_count": 77, "categories": [{"alias": "hotdogs", "title": "Fast Food"}, {"alias": "delis", "title": "Delis"}, {"alias": "sandwiches", "title": "Sandwiches"}], "rating": 3.5, "coordinates": {"latitude": 33.2509308, "longitude": -117.3005905}, "transactions": [], "price": "$", "location": {"address1": "4904 N River Rd", "address2": "Ste 400", "address3": null, "city": "Oceanside", "zip_code": "92057", "country": "US", "state": "CA", "display_address": ["4904 N River Rd", "Ste 400", "Oceanside, CA 92057"]}, "phone": "+17605290130", "display_phone": "(760) 529-0130", "distance": 3220.727146295666}, {"id": "mMO-7aKKO29vQ3thjrL7xQ", "alias": "pepper-tree-frosty-vista", "name": "Pepper Tree Frosty", "image_url": "https://s3-media4.fl.yelpcdn.com/bphoto/5Up_r65hEQbrISn2EEXf0Q/o.jpg", "is_closed": false, "url": "https://www.yelp.com/biz/pepper-tree-frosty-vista?adjust_creative=oncXGL2aPIKrtJdnWeFSnA&utm_campaign=yelp_api_v3&utm_medium=api_v3_business_search&utm_source=oncXGL2aPIKrtJdnWeFSnA", "review_count": 357, "categories": [{"alias": "hotdogs", "title": "Fast Food"}, {"alias": "icecream", "title": "Ice Cream & Frozen Yogurt"}], "rating": 4.0, "coordinates": {"latitude": 33.1999, "longitude": -117.24167}, "transactions": [], "price": "$", "location": {"address1": "270 S Santa Fe Ave", "address2": "", "address3": "", "city": "Vista", "zip_code": "92084", "country": "US", "state": "CA", "display_address": ["270 S Santa Fe Ave", "Vista, CA 92084"]}, "phone": "+17607260732", "display_phone": "(760) 726-0732", "distance": 7681.923096152082}, {"id": "nRKvaT9vmo_XwTRw6QK16Q", "alias": "surf-brothers-teriyaki-carlsbad", "name": "Surf Brothers Teriyaki", "image_url": "https://s3-media4.fl.yelpcdn.com/bphoto/Qw6in2aB9moeBBHhMa4LYQ/o.jpg", "is_closed": false, "url": "https://www.yelp.com/biz/surf-brothers-teriyaki-carlsbad?adjust_creative=oncXGL2aPIKrtJdnWeFSnA&utm_campaign=yelp_api_v3&utm_medium=api_v3_business_search&utm_source=oncXGL2aPIKrtJdnWeFSnA", "review_count": 251, "categories": [{"alias": "hawaiian", "title": "Hawaiian"}, {"alias": "bbq", "title": "Barbeque"}, {"alias": "hotdogs", "title": "Fast Food"}], "rating": 4.0, "coordinates": {"latitude": 33.13106, "longitude": -117.260566}, "transactions": [], "price": "$", "location": {"address1": "2708 Loker Ave W", "address2": "Ste 103", "address3": "", "city": "Carlsbad", "zip_code": "92010", "country": "US", "state": "CA", "display_address": ["2708 Loker Ave W", "Ste 103", "Carlsbad, CA 92010"]}, "phone": "+17604597973", "display_phone": "(760) 459-7973", "distance": 11841.909945375348}, {"id": "9K-2oBXU6MmBPn0XIfU6eA", "alias": "chipotle-mexican-grill-oceanside-5", "name": "Chipotle Mexican Grill", "image_url": "https://s3-media2.fl.yelpcdn.com/bphoto/AaadVAae67SOdZako2T6SQ/o.jpg", "is_closed": false, "url": "https://www.yelp.com/biz/chipotle-mexican-grill-oceanside-5?adjust_creative=oncXGL2aPIKrtJdnWeFSnA&utm_campaign=yelp_api_v3&utm_medium=api_v3_business_search&utm_source=oncXGL2aPIKrtJdnWeFSnA", "review_count": 43, "categories": [{"alias": "mexican", "title": "Mexican"}, {"alias": "hotdogs", "title": "Fast Food"}], "rating": 2.5, "coordinates": {"latitude": 33.2452251149466, "longitude": -117.290513811569}, "transactions": [], "price": "$", "location": {"address1": "495 College BLVD", "address2": "Ste A&B", "address3": "", "city": "Oceanside", "zip_code": "92057", "country": "US", "state": "CA", "display_address": ["495 College BLVD", "Ste A&B", "Oceanside, CA 92057"]}, "phone": "+17607581493", "display_phone": "(760) 758-1493", "distance": 3345.427476319177}, {"id": "mDajqXWWdEitENzdb1_wzg", "alias": "el-pollo-loco-oceanside-6", "name": "El Pollo Loco", "image_url": "https://s3-media2.fl.yelpcdn.com/bphoto/FR-Z7uPSGt1xgiar81et9g/o.jpg", "is_closed": false, "url": "https://www.yelp.com/biz/el-pollo-loco-oceanside-6?adjust_creative=oncXGL2aPIKrtJdnWeFSnA&utm_campaign=yelp_api_v3&utm_medium=api_v3_business_search&utm_source=oncXGL2aPIKrtJdnWeFSnA", "review_count": 41, "categories": [{"alias": "hotdogs", "title": "Fast Food"}, {"alias": "mexican", "title": "Mexican"}], "rating": 3.0, "coordinates": {"latitude": 33.2469313201159, "longitude": -117.291715446391}, "transactions": ["delivery"], "price": "$", "location": {"address1": "483 College Blvd", "address2": null, "address3": null, "city": "Oceanside", "zip_code": "92057", "country": "US", "state": "CA", "display_address": ["483 College Blvd", "Oceanside, CA 92057"]}, "phone": "+17604078279", "display_phone": "(760) 407-8279", "distance": 3387.5683446775365}, {"id": "Mm1kzhW7TSA7wssjSuSoOw", "alias": "panda-express-oceanside-3", "name": "Panda Express", "image_url": "https://s3-media4.fl.yelpcdn.com/bphoto/p9DoPWAwn7E__lc228k5Cw/o.jpg", "is_closed": false, "url": "https://www.yelp.com/biz/panda-express-oceanside-3?adjust_creative=oncXGL2aPIKrtJdnWeFSnA&utm_campaign=yelp_api_v3&utm_medium=api_v3_business_search&utm_source=oncXGL2aPIKrtJdnWeFSnA", "review_count": 52, "categories": [{"alias": "chinese", "title": "Chinese"}, {"alias": "hotdogs", "title": "Fast Food"}], "rating": 3.5, "coordinates": {"latitude": 33.22728, "longitude": -117.32638}, "transactions": [], "price": "$", "location": {"address1": "47 Douglas Dr", "address2": null, "address3": null, "city": "Oceanside", "zip_code": "92054", "country": "US", "state": "CA", "display_address": ["47 Douglas Dr", "Oceanside, CA 92054"]}, "phone": "+17609679006", "display_phone": "(760) 967-9006", "distance": 788.9674726518251}, {"id": "Kc01yD005y0qYKTbwKuLYg", "alias": "the-money-pit-drive-thru-san-marcos", "name": "The Money Pit Drive Thru", "image_url": "https://s3-media1.fl.yelpcdn.com/bphoto/VGfb8hXrzFkscOcJZkDZEA/o.jpg", "is_closed": false, "url": "https://www.yelp.com/biz/the-money-pit-drive-thru-san-marcos?adjust_creative=oncXGL2aPIKrtJdnWeFSnA&utm_campaign=yelp_api_v3&utm_medium=api_v3_business_search&utm_source=oncXGL2aPIKrtJdnWeFSnA", "review_count": 625, "categories": [{"alias": "hotdogs", "title": "Fast Food"}, {"alias": "tradamerican", "title": "American (Traditional)"}, {"alias": "breakfast_brunch", "title": "Breakfast & Brunch"}], "rating": 4.0, "coordinates": {"latitude": 33.13599, "longitude": -117.12939}, "transactions": [], "price": "$", "location": {"address1": "1360 E Mission Rd", "address2": "", "address3": "", "city": "San Marcos", "zip_code": "92069", "country": "US", "state": "CA", "display_address": ["1360 E Mission Rd", "San Marcos, CA 92069"]}, "phone": "+17607437775", "display_phone": "(760) 743-7775", "distance": 20221.966268256492}, {"id": "Jp467vA2j5p5DhGs36sZ2A", "alias": "popeyes-louisiana-kitchen-oceanside", "name": "Popeyes Louisiana Kitchen", "image_url": "https://s3-media3.fl.yelpcdn.com/bphoto/tLclRZf7U_cJPOqP7FHpEQ/o.jpg", "is_closed": false, "url": "https://www.yelp.com/biz/popeyes-louisiana-kitchen-oceanside?adjust_creative=oncXGL2aPIKrtJdnWeFSnA&utm_campaign=yelp_api_v3&utm_medium=api_v3_business_search&utm_source=oncXGL2aPIKrtJdnWeFSnA", "review_count": 75, "categories": [{"alias": "hotdogs", "title": "Fast Food"}, {"alias": "chicken_wings", "title": "Chicken Wings"}], "rating": 2.0, "coordinates": {"latitude": 33.2567978528058, "longitude": -117.29944245121}, "transactions": [], "price": "$", "location": {"address1": "511 Vandegrift Blvd", "address2": "", "address3": "", "city": "Oceanside", "zip_code": "92057", "country": "US", "state": "CA", "display_address": ["511 Vandegrift Blvd", "Oceanside, CA 92057"]}, "phone": "+17607579150", "display_phone": "(760) 757-9150", "distance": 3841.97659678475}, {"id": "JUF1NuIshtihwYKf_PvVqA", "alias": "naan-n-curry-carlsbad", "name": "Naan N Curry", "image_url": "https://s3-media3.fl.yelpcdn.com/bphoto/6bgU7WKFUFxNbJ3A71R17g/o.jpg", "is_closed": false, "url": "https://www.yelp.com/biz/naan-n-curry-carlsbad?adjust_creative=oncXGL2aPIKrtJdnWeFSnA&utm_campaign=yelp_api_v3&utm_medium=api_v3_business_search&utm_source=oncXGL2aPIKrtJdnWeFSnA", "review_count": 154, "categories": [{"alias": "indpak", "title": "Indian"}, {"alias": "hotdogs", "title": "Fast Food"}], "rating": 4.0, "coordinates": {"latitude": 33.13105, "longitude": -117.26056}, "transactions": ["delivery", "pickup"], "price": "$$", "location": {"address1": "2708 Loker Ave W", "address2": "Ste 104", "address3": "", "city": "Carlsbad", "zip_code": "92010", "country": "US", "state": "CA", "display_address": ["2708 Loker Ave W", "Ste 104", "Carlsbad, CA 92010"]}, "phone": "+17608142996", "display_phone": "(760) 814-2996", "distance": 11828.22318659751}, {"id": "KNzcCh1NBDWFaU9SwKQhKw", "alias": "sourdough-and-co-carlsbad-2", "name": "Sourdough & Co", "image_url": "https://s3-media2.fl.yelpcdn.com/bphoto/IYAo_TE38oqSGCSS06Lasg/o.jpg", "is_closed": false, "url": "https://www.yelp.com/biz/sourdough-and-co-carlsbad-2?adjust_creative=oncXGL2aPIKrtJdnWeFSnA&utm_campaign=yelp_api_v3&utm_medium=api_v3_business_search&utm_source=oncXGL2aPIKrtJdnWeFSnA", "review_count": 51, "categories": [{"alias": "hotdogs", "title": "Fast Food"}, {"alias": "sandwiches", "title": "Sandwiches"}, {"alias": "salad", "title": "Salad"}], "rating": 5.0, "coordinates": {"latitude": 33.1355195, "longitude": -117.2877662}, "transactions": [], "location": {"address1": "5814 Van Allen Way", "address2": "Ste 155", "address3": "", "city": "Carlsbad", "zip_code": "92008", "country": "US", "state": "CA", "display_address": ["5814 Van Allen Way", "Ste 155", "Carlsbad, CA 92008"]}, "phone": "+17608142488", "display_phone": "(760) 814-2488", "distance": 10550.2236351866}, {"id": "eQcrc1ugY-aUNM-samcrLQ", "alias": "jack-in-the-box-oceanside-2", "name": "Jack in the Box", "image_url": "https://s3-media4.fl.yelpcdn.com/bphoto/3llopiNZHYY1IjlonI93bw/o.jpg", "is_closed": false, "url": "https://www.yelp.com/biz/jack-in-the-box-oceanside-2?adjust_creative=oncXGL2aPIKrtJdnWeFSnA&utm_campaign=yelp_api_v3&utm_medium=api_v3_business_search&utm_source=oncXGL2aPIKrtJdnWeFSnA", "review_count": 37, "categories": [{"alias": "hotdogs", "title": "Fast Food"}], "rating": 3.0, "coordinates": {"latitude": 33.2279289, "longitude": -117.3251453}, "transactions": ["delivery"], "price": "$", "location": {"address1": "3909 Mission Ave", "address2": null, "address3": null, "city": "Oceanside", "zip_code": "92058", "country": "US", "state": "CA", "display_address": ["3909 Mission Ave", "Oceanside, CA 92058"]}, "phone": "+17604399852", "display_phone": "(760) 439-9852", "distance": 676.5358865500679}, {"id": "MCEJykdFu21UbBCMPurHKQ", "alias": "sacs-magic-fry-oceanside", "name": "Sac's Magic Fry", "image_url": "https://s3-media2.fl.yelpcdn.com/bphoto/Rx2YcVga2KfIBL921UeF5w/o.jpg", "is_closed": false, "url": "https://www.yelp.com/biz/sacs-magic-fry-oceanside?adjust_creative=oncXGL2aPIKrtJdnWeFSnA&utm_campaign=yelp_api_v3&utm_medium=api_v3_business_search&utm_source=oncXGL2aPIKrtJdnWeFSnA", "review_count": 6, "categories": [{"alias": "hotdogs", "title": "Fast Food"}], "rating": 3.5, "coordinates": {"latitude": 33.244665786624, "longitude": -117.322525978088}, "transactions": [], "price": "$", "location": {"address1": "650 Douglas Dr", "address2": "", "address3": "", "city": "Oceanside", "zip_code": "92058", "country": "US", "state": "CA", "display_address": ["650 Douglas Dr", "Oceanside, CA 92058"]}, "phone": "+16193425966", "display_phone": "(619) 342-5966", "distance": 2176.450450498944}, {"id": "AWysF3FqR5RxqCsO-ZoqDw", "alias": "chipotle-mexican-grill-oceanside-3", "name": "Chipotle Mexican Grill", "image_url": "https://s3-media4.fl.yelpcdn.com/bphoto/5EH5ktmaGJIeJ2379LSadA/o.jpg", "is_closed": false, "url": "https://www.yelp.com/biz/chipotle-mexican-grill-oceanside-3?adjust_creative=oncXGL2aPIKrtJdnWeFSnA&utm_campaign=yelp_api_v3&utm_medium=api_v3_business_search&utm_source=oncXGL2aPIKrtJdnWeFSnA", "review_count": 115, "categories": [{"alias": "mexican", "title": "Mexican"}, {"alias": "hotdogs", "title": "Fast Food"}], "rating": 2.5, "coordinates": {"latitude": 33.20575, "longitude": -117.28835}, "transactions": [], "price": "$", "location": {"address1": "4111 Oceanside Blvd", "address2": "", "address3": "", "city": "Oceanside", "zip_code": "92056", "country": "US", "state": "CA", "display_address": ["4111 Oceanside Blvd", "Oceanside, CA 92056"]}, "phone": "+17606594147", "display_phone": "(760) 659-4147", "distance": 3563.845522903192}, {"id": "jAyvOg5I2OnRJjl7Hqhwbg", "alias": "taco-bell-oceanside-5", "name": "Taco Bell", "image_url": "https://s3-media3.fl.yelpcdn.com/bphoto/yFIgRwnJpOKaTTN7uF6u1g/o.jpg", "is_closed": false, "url": "https://www.yelp.com/biz/taco-bell-oceanside-5?adjust_creative=oncXGL2aPIKrtJdnWeFSnA&utm_campaign=yelp_api_v3&utm_medium=api_v3_business_search&utm_source=oncXGL2aPIKrtJdnWeFSnA", "review_count": 33, "categories": [{"alias": "mexican", "title": "Mexican"}, {"alias": "hotdogs", "title": "Fast Food"}], "rating": 3.5, "coordinates": {"latitude": 33.2272119758825, "longitude": -117.32697895513}, "transactions": ["delivery"], "price": "$", "location": {"address1": "3895 Mission Ave", "address2": null, "address3": null, "city": "Oceanside", "zip_code": "92054", "country": "US", "state": "CA", "display_address": ["3895 Mission Ave", "Oceanside, CA 92054"]}, "phone": "+17609677533", "display_phone": "(760) 967-7533", "distance": 828.2326644378004}, {"id": "IZHSeQG5Fgvh5kVLbmGB3Q", "alias": "arbys-roast-beef-restaurant-oceanside", "name": "Arby's Roast Beef Restaurant", "image_url": "https://s3-media1.fl.yelpcdn.com/bphoto/YpnYTza9v8sS2RpN-iDVVQ/o.jpg", "is_closed": false, "url": "https://www.yelp.com/biz/arbys-roast-beef-restaurant-oceanside?adjust_creative=oncXGL2aPIKrtJdnWeFSnA&utm_campaign=yelp_api_v3&utm_medium=api_v3_business_search&utm_source=oncXGL2aPIKrtJdnWeFSnA", "review_count": 32, "categories": [{"alias": "hotdogs", "title": "Fast Food"}, {"alias": "sandwiches", "title": "Sandwiches"}], "rating": 3.5, "coordinates": {"latitude": 33.202445, "longitude": -117.365066}, "transactions": [], "price": "$", "location": {"address1": "1863 Mission Ave", "address2": "", "address3": "", "city": "Oceanside", "zip_code": "92054", "country": "US", "state": "CA", "display_address": ["1863 Mission Ave", "Oceanside, CA 92054"]}, "phone": "+17607228467", "display_phone": "(760) 722-8467", "distance": 5053.419881838896}, {"id": "q2xn0Bg3tIXKeFU9Z-prQw", "alias": "chipotle-mexican-grill-oceanside-2", "name": "Chipotle Mexican Grill", "image_url": "https://s3-media2.fl.yelpcdn.com/bphoto/-0G9rzLc7hLLhDeHnvAu1g/o.jpg", "is_closed": false, "url": "https://www.yelp.com/biz/chipotle-mexican-grill-oceanside-2?adjust_creative=oncXGL2aPIKrtJdnWeFSnA&utm_campaign=yelp_api_v3&utm_medium=api_v3_business_search&utm_source=oncXGL2aPIKrtJdnWeFSnA", "review_count": 148, "categories": [{"alias": "mexican", "title": "Mexican"}, {"alias": "hotdogs", "title": "Fast Food"}], "rating": 3.5, "coordinates": {"latitude": 33.181867, "longitude": -117.331756}, "transactions": [], "price": "$", "location": {"address1": "2611 Vista Way", "address2": "", "address3": "", "city": "Oceanside", "zip_code": "92054", "country": "US", "state": "CA", "display_address": ["2611 Vista Way", "Oceanside, CA 92054"]}, "phone": "+17607216904", "display_phone": "(760) 721-6904", "distance": 5068.058485602963}, {"id": "FTmg3nAWqHMFg_uqUhOf8Q", "alias": "firehouse-subs-oceanside", "name": "Firehouse Subs", "image_url": "https://s3-media2.fl.yelpcdn.com/bphoto/C0ir7tT9VhnOyO9mws2ltw/o.jpg", "is_closed": false, "url": "https://www.yelp.com/biz/firehouse-subs-oceanside?adjust_creative=oncXGL2aPIKrtJdnWeFSnA&utm_campaign=yelp_api_v3&utm_medium=api_v3_business_search&utm_source=oncXGL2aPIKrtJdnWeFSnA", "review_count": 208, "categories": [{"alias": "sandwiches", "title": "Sandwiches"}, {"alias": "hotdogs", "title": "Fast Food"}, {"alias": "delis", "title": "Delis"}], "rating": 3.5, "coordinates": {"latitude": 33.183075, "longitude": -117.3309326}, "transactions": ["delivery", "pickup"], "price": "$", "location": {"address1": "2619-B1 Vista Way", "address2": "", "address3": "", "city": "Oceanside", "zip_code": "92054", "country": "US", "state": "CA", "display_address": ["2619-B1 Vista Way", "Oceanside, CA 92054"]}, "phone": "+17607214321", "display_phone": "(760) 721-4321", "distance": 5041.772206116263}, {"id": "8b2hjebFENFjY4X71cQpwg", "alias": "leap-coffee-carlsbad-3", "name": "Leap Coffee", "image_url": "https://s3-media1.fl.yelpcdn.com/bphoto/bET-Yao-fDUxJ4HBI7gEYw/o.jpg", "is_closed": false, "url": "https://www.yelp.com/biz/leap-coffee-carlsbad-3?adjust_creative=oncXGL2aPIKrtJdnWeFSnA&utm_campaign=yelp_api_v3&utm_medium=api_v3_business_search&utm_source=oncXGL2aPIKrtJdnWeFSnA", "review_count": 189, "categories": [{"alias": "coffee", "title": "Coffee & Tea"}, {"alias": "hotdogs", "title": "Fast Food"}, {"alias": "sandwiches", "title": "Sandwiches"}], "rating": 4.5, "coordinates": {"latitude": 33.140489, "longitude": -117.273316}, "transactions": ["pickup"], "price": "$", "location": {"address1": "5611 Palmer Way", "address2": "Ste D", "address3": null, "city": "Carlsbad", "zip_code": "92010", "country": "US", "state": "CA", "display_address": ["5611 Palmer Way", "Ste D", "Carlsbad, CA 92010"]}, "phone": "+17604486167", "display_phone": "(760) 448-6167", "distance": 10386.038082290162}, {"id": "gZntgfa1HZGb2DOkbFpIQA", "alias": "senor-albertos-oceanside", "name": "Senor Alberto's", "image_url": "https://s3-media2.fl.yelpcdn.com/bphoto/RetsqFslWSQNf8TKS5jsVQ/o.jpg", "is_closed": false, "url": "https://www.yelp.com/biz/senor-albertos-oceanside?adjust_creative=oncXGL2aPIKrtJdnWeFSnA&utm_campaign=yelp_api_v3&utm_medium=api_v3_business_search&utm_source=oncXGL2aPIKrtJdnWeFSnA", "review_count": 37, "categories": [{"alias": "mexican", "title": "Mexican"}, {"alias": "latin", "title": "Latin American"}, {"alias": "hotdogs", "title": "Fast Food"}], "rating": 3.0, "coordinates": {"latitude": 33.2450226655832, "longitude": -117.321352706771}, "transactions": [], "price": "$", "location": {"address1": "650 Douglas Dr", "address2": "", "address3": "", "city": "Oceanside", "zip_code": "92058", "country": "US", "state": "CA", "display_address": ["650 Douglas Dr", "Oceanside, CA 92058"]}, "phone": "+14426157303", "display_phone": "(442) 615-7303", "distance": 2134.5172992176026}, {"id": "m0SB2eHVRUPfgTZndmGsrQ", "alias": "el-pollo-loco-oceanside-5", "name": "El Pollo Loco", "image_url": "https://s3-media1.fl.yelpcdn.com/bphoto/Re3rfzWAkE2sy5J42FLT0A/o.jpg", "is_closed": false, "url": "https://www.yelp.com/biz/el-pollo-loco-oceanside-5?adjust_creative=oncXGL2aPIKrtJdnWeFSnA&utm_campaign=yelp_api_v3&utm_medium=api_v3_business_search&utm_source=oncXGL2aPIKrtJdnWeFSnA", "review_count": 64, "categories": [{"alias": "hotdogs", "title": "Fast Food"}, {"alias": "mexican", "title": "Mexican"}], "rating": 3.5, "coordinates": {"latitude": 33.1816788, "longitude": -117.2959824}, "transactions": ["delivery", "pickup"], "price": "$", "location": {"address1": "3500 College Blvd", "address2": "", "address3": "", "city": "Oceanside", "zip_code": "92056", "country": "US", "state": "CA", "display_address": ["3500 College Blvd", "Oceanside, CA 92056"]}, "phone": "+17604779345", "display_phone": "(760) 477-9345", "distance": 5355.570452650194}, {"id": "G4tCExEOux5t1zfyDLjxcA", "alias": "pure-burger-carlsbad", "name": "Pure Burger", "image_url": "https://s3-media4.fl.yelpcdn.com/bphoto/v0Ht-pC-UFPzuYA-Pi4z5Q/o.jpg", "is_closed": false, "url": "https://www.yelp.com/biz/pure-burger-carlsbad?adjust_creative=oncXGL2aPIKrtJdnWeFSnA&utm_campaign=yelp_api_v3&utm_medium=api_v3_business_search&utm_source=oncXGL2aPIKrtJdnWeFSnA", "review_count": 767, "categories": [{"alias": "burgers", "title": "Burgers"}, {"alias": "hotdogs", "title": "Fast Food"}, {"alias": "newamerican", "title": "American (New)"}], "rating": 4.0, "coordinates": {"latitude": 33.1268903, "longitude": -117.2541476}, "transactions": ["delivery", "pickup"], "price": "$$", "location": {"address1": "2641 Gateway Rd", "address2": null, "address3": "", "city": "Carlsbad", "zip_code": "92009", "country": "US", "state": "CA", "display_address": ["2641 Gateway Rd", "Carlsbad, CA 92009"]}, "phone": "+17606835101", "display_phone": "(760) 683-5101", "distance": 12530.031121618473}, {"id": "WTF19rg16ufVuYuOlAxc2w", "alias": "popeyes-louisiana-kitchen-vista-2", "name": "Popeyes Louisiana Kitchen", "image_url": "https://s3-media1.fl.yelpcdn.com/bphoto/eeuXGelz9FnHDyC3A6qO3w/o.jpg", "is_closed": false, "url": "https://www.yelp.com/biz/popeyes-louisiana-kitchen-vista-2?adjust_creative=oncXGL2aPIKrtJdnWeFSnA&utm_campaign=yelp_api_v3&utm_medium=api_v3_business_search&utm_source=oncXGL2aPIKrtJdnWeFSnA", "review_count": 119, "categories": [{"alias": "hotdogs", "title": "Fast Food"}, {"alias": "chicken_wings", "title": "Chicken Wings"}], "rating": 3.5, "coordinates": {"latitude": 33.1889182654643, "longitude": -117.280109350946}, "transactions": [], "price": "$", "location": {"address1": "1817 W Vista Way", "address2": "", "address3": "", "city": "Vista", "zip_code": "92083", "country": "US", "state": "CA", "display_address": ["1817 W Vista Way", "Vista, CA 92083"]}, "phone": "+17607323405", "display_phone": "(760) 732-3405", "distance": 5386.2128625285}, {"id": "a5dmCm_1sLVPGoxzTwyouA", "alias": "taco-bell-oceanside-3", "name": "Taco Bell", "image_url": "https://s3-media2.fl.yelpcdn.com/bphoto/OIeWXOScXTsoVZpNEJd1PA/o.jpg", "is_closed": false, "url": "https://www.yelp.com/biz/taco-bell-oceanside-3?adjust_creative=oncXGL2aPIKrtJdnWeFSnA&utm_campaign=yelp_api_v3&utm_medium=api_v3_business_search&utm_source=oncXGL2aPIKrtJdnWeFSnA", "review_count": 39, "categories": [{"alias": "mexican", "title": "Mexican"}, {"alias": "tex-mex", "title": "Tex-Mex"}, {"alias": "hotdogs", "title": "Fast Food"}], "rating": 2.5, "coordinates": {"latitude": 33.24304, "longitude": -117.29161}, "transactions": ["delivery"], "price": "$", "location": {"address1": "695 College Blvd", "address2": "", "address3": "", "city": "Oceanside", "zip_code": "92057", "country": "US", "state": "CA", "display_address": ["695 College Blvd", "Oceanside, CA 92057"]}, "phone": "+17606317860", "display_phone": "(760) 631-7860", "distance": 3126.9562639154105}, {"id": "JUFvFVlWC8NcM-wi0MnVAQ", "alias": "mcdonalds-oceanside-10", "name": "McDonald's", "image_url": "https://s3-media1.fl.yelpcdn.com/bphoto/aD4N3UhoZ9XNVj2EC3ydJw/o.jpg", "is_closed": false, "url": "https://www.yelp.com/biz/mcdonalds-oceanside-10?adjust_creative=oncXGL2aPIKrtJdnWeFSnA&utm_campaign=yelp_api_v3&utm_medium=api_v3_business_search&utm_source=oncXGL2aPIKrtJdnWeFSnA", "review_count": 40, "categories": [{"alias": "hotdogs", "title": "Fast Food"}, {"alias": "burgers", "title": "Burgers"}, {"alias": "coffee", "title": "Coffee & Tea"}], "rating": 2.0, "coordinates": {"latitude": 33.2243291957312, "longitude": -117.333398233177}, "transactions": [], "price": "$", "location": {"address1": "3720 Misson Blvd", "address2": null, "address3": null, "city": "Oceanside", "zip_code": "92054", "country": "US", "state": "CA", "display_address": ["3720 Misson Blvd", "Oceanside, CA 92054"]}, "phone": "+17607578001", "display_phone": "(760) 757-8001", "distance": 1426.769208337851}, {"id": "j8vPTZfjUwBZIKHgyFXP9A", "alias": "in-n-out-burger-carlsbad", "name": "In-N-Out Burger", "image_url": "https://s3-media2.fl.yelpcdn.com/bphoto/EGpILzQjNRdYBPbvLeKing/o.jpg", "is_closed": false, "url": "https://www.yelp.com/biz/in-n-out-burger-carlsbad?adjust_creative=oncXGL2aPIKrtJdnWeFSnA&utm_campaign=yelp_api_v3&utm_medium=api_v3_business_search&utm_source=oncXGL2aPIKrtJdnWeFSnA", "review_count": 377, "categories": [{"alias": "hotdogs", "title": "Fast Food"}, {"alias": "burgers", "title": "Burgers"}], "rating": 4.5, "coordinates": {"latitude": 33.12501, "longitude": -117.32458}, "transactions": [], "price": "$", "location": {"address1": "5950 Avenida Encinas", "address2": "", "address3": "", "city": "Carlsbad", "zip_code": "92008", "country": "US", "state": "CA", "display_address": ["5950 Avenida Encinas", "Carlsbad, CA 92008"]}, "phone": "+18007861000", "display_phone": "(800) 786-1000", "distance": 11240.01624954503}, {"id": "QW3CunRu2rNB9l7X847lEA", "alias": "churchs-chicken-oceanside", "name": "Church's Chicken", "image_url": "https://s3-media2.fl.yelpcdn.com/bphoto/hprFKZRodbXroVGCROK-4Q/o.jpg", "is_closed": false, "url": "https://www.yelp.com/biz/churchs-chicken-oceanside?adjust_creative=oncXGL2aPIKrtJdnWeFSnA&utm_campaign=yelp_api_v3&utm_medium=api_v3_business_search&utm_source=oncXGL2aPIKrtJdnWeFSnA", "review_count": 68, "categories": [{"alias": "hotdogs", "title": "Fast Food"}, {"alias": "chicken_wings", "title": "Chicken Wings"}], "rating": 2.0, "coordinates": {"latitude": 33.1838864, "longitude": -117.3690057}, "transactions": [], "price": "$", "location": {"address1": "510 Oceanside Blvd", "address2": "", "address3": "", "city": "Oceanside", "zip_code": "92054", "country": "US", "state": "CA", "display_address": ["510 Oceanside Blvd", "Oceanside, CA 92054"]}, "phone": "+17604395636", "display_phone": "(760) 439-5636", "distance": 6662.9172019248645}, {"id": "6RuFTvCe2lHGbY3juN1NkA", "alias": "jersey-mikes-subs-oceanside-3", "name": "Jersey Mike's Subs", "image_url": "https://s3-media2.fl.yelpcdn.com/bphoto/aYVqq_bhoaVVVeLyM6majw/o.jpg", "is_closed": false, "url": "https://www.yelp.com/biz/jersey-mikes-subs-oceanside-3?adjust_creative=oncXGL2aPIKrtJdnWeFSnA&utm_campaign=yelp_api_v3&utm_medium=api_v3_business_search&utm_source=oncXGL2aPIKrtJdnWeFSnA", "review_count": 89, "categories": [{"alias": "sandwiches", "title": "Sandwiches"}, {"alias": "hotdogs", "title": "Fast Food"}, {"alias": "delis", "title": "Delis"}], "rating": 3.0, "coordinates": {"latitude": 33.2054674112467, "longitude": -117.288587180336}, "transactions": [], "price": "$", "location": {"address1": "4111 Oceanside Blvd", "address2": "Ste 100", "address3": "", "city": "Oceanside", "zip_code": "92056", "country": "US", "state": "CA", "display_address": ["4111 Oceanside Blvd", "Ste 100", "Oceanside, CA 92056"]}, "phone": "+17602953339", "display_phone": "(760) 295-3339", "distance": 3577.9844594522924}, {"id": "SxHNYnio1-VwM4oObjejxA", "alias": "jersey-mikes-subs-oceanside-5", "name": "Jersey Mike's Subs", "image_url": "https://s3-media3.fl.yelpcdn.com/bphoto/iEqNEZVis17SAe-b-vPz8g/o.jpg", "is_closed": false, "url": "https://www.yelp.com/biz/jersey-mikes-subs-oceanside-5?adjust_creative=oncXGL2aPIKrtJdnWeFSnA&utm_campaign=yelp_api_v3&utm_medium=api_v3_business_search&utm_source=oncXGL2aPIKrtJdnWeFSnA", "review_count": 32, "categories": [{"alias": "sandwiches", "title": "Sandwiches"}, {"alias": "hotdogs", "title": "Fast Food"}, {"alias": "delis", "title": "Delis"}], "rating": 4.5, "coordinates": {"latitude": 33.1952972412109, "longitude": -117.381057739258}, "transactions": [], "price": "$", "location": {"address1": "302 Mission Ave", "address2": "", "address3": "", "city": "Oceanside", "zip_code": "92054", "country": "US", "state": "CA", "display_address": ["302 Mission Ave", "Oceanside, CA 92054"]}, "phone": "+17604350783", "display_phone": "(760) 435-0783", "distance": 6779.036042752816}, {"id": "oDe5egvJbI1Mb10nwQyiEw", "alias": "hibachi-san-camp-pendleton-north-3", "name": "Hibachi-San", "image_url": "https://s3-media4.fl.yelpcdn.com/bphoto/8ygRG3eiLuGShw2QSe6CEg/o.jpg", "is_closed": false, "url": "https://www.yelp.com/biz/hibachi-san-camp-pendleton-north-3?adjust_creative=oncXGL2aPIKrtJdnWeFSnA&utm_campaign=yelp_api_v3&utm_medium=api_v3_business_search&utm_source=oncXGL2aPIKrtJdnWeFSnA", "review_count": 33, "categories": [{"alias": "hotdogs", "title": "Fast Food"}, {"alias": "japanese", "title": "Japanese"}], "rating": 3.5, "coordinates": {"latitude": 33.3011138406316, "longitude": -117.311384139215}, "transactions": [], "price": "$", "location": {"address1": "20846 Pacific Plz", "address2": "", "address3": "", "city": "Camp Pendleton North", "zip_code": "92058", "country": "US", "state": "CA", "display_address": ["20846 Pacific Plz", "Camp Pendleton North, CA 92058"]}, "phone": "", "display_phone": "", "distance": 8375.168949139927}, {"id": "V2exKVZgIvly83qK0fhFWw", "alias": "wienerschnitzel-oceanside-2", "name": "Wienerschnitzel", "image_url": "https://s3-media2.fl.yelpcdn.com/bphoto/iuk1qLzPuP_DyVhDEdaaNw/o.jpg", "is_closed": false, "url": "https://www.yelp.com/biz/wienerschnitzel-oceanside-2?adjust_creative=oncXGL2aPIKrtJdnWeFSnA&utm_campaign=yelp_api_v3&utm_medium=api_v3_business_search&utm_source=oncXGL2aPIKrtJdnWeFSnA", "review_count": 24, "categories": [{"alias": "hotdog", "title": "Hot Dogs"}, {"alias": "hotdogs", "title": "Fast Food"}, {"alias": "sandwiches", "title": "Sandwiches"}], "rating": 3.5, "coordinates": {"latitude": 33.1945980869188, "longitude": -117.354382569297}, "transactions": [], "price": "$", "location": {"address1": "1960 Oceanside Blvd", "address2": "", "address3": "", "city": "Oceanside", "zip_code": "92054", "country": "US", "state": "CA", "display_address": ["1960 Oceanside Blvd", "Oceanside, CA 92054"]}, "phone": "+17607541909", "display_phone": "(760) 754-1909", "distance": 4857.63456548488}, {"id": "ptaF8CBiNWMyd9TurD3RbQ", "alias": "kfc-oceanside-2", "name": "KFC", "image_url": "https://s3-media1.fl.yelpcdn.com/bphoto/9T5sq2nNJArl3Giu23EBIQ/o.jpg", "is_closed": false, "url": "https://www.yelp.com/biz/kfc-oceanside-2?adjust_creative=oncXGL2aPIKrtJdnWeFSnA&utm_campaign=yelp_api_v3&utm_medium=api_v3_business_search&utm_source=oncXGL2aPIKrtJdnWeFSnA", "review_count": 34, "categories": [{"alias": "hotdogs", "title": "Fast Food"}, {"alias": "chicken_wings", "title": "Chicken Wings"}, {"alias": "chickenshop", "title": "Chicken Shop"}], "rating": 2.5, "coordinates": {"latitude": 33.2063, "longitude": -117.289}, "transactions": ["delivery"], "price": "$", "location": {"address1": "4100 Oceanside Blvd", "address2": "", "address3": "", "city": "Oceanside", "zip_code": "92056", "country": "US", "state": "CA", "display_address": ["4100 Oceanside Blvd", "Oceanside, CA 92056"]}, "phone": "+17606309600", "display_phone": "(760) 630-9600", "distance": 3489.6257121008334}, {"id": "Ql7ltF83fHTpPAA6Lmrarg", "alias": "togo-s-sandwiches-oceanside", "name": "Togo\u2019s Sandwiches", "image_url": "https://s3-media2.fl.yelpcdn.com/bphoto/ml8y_bQ0eL96led6jSFXbw/o.jpg", "is_closed": false, "url": "https://www.yelp.com/biz/togo-s-sandwiches-oceanside?adjust_creative=oncXGL2aPIKrtJdnWeFSnA&utm_campaign=yelp_api_v3&utm_medium=api_v3_business_search&utm_source=oncXGL2aPIKrtJdnWeFSnA", "review_count": 58, "categories": [{"alias": "sandwiches", "title": "Sandwiches"}, {"alias": "delis", "title": "Delis"}, {"alias": "hotdogs", "title": "Fast Food"}], "rating": 2.5, "coordinates": {"latitude": 33.20675, "longitude": -117.28429}, "transactions": ["delivery", "pickup"], "price": "$", "location": {"address1": "4201 Oceanside Blvd", "address2": "Unit A", "address3": "", "city": "Oceanside", "zip_code": "92056", "country": "US", "state": "CA", "display_address": ["4201 Oceanside Blvd", "Unit A", "Oceanside, CA 92056"]}, "phone": "+17606311375", "display_phone": "(760) 631-1375", "distance": 3791.4109747766465}, {"id": "0YVSnUrOFilIIQbOUfqNVA", "alias": "del-taco-oceanside-2", "name": "Del Taco", "image_url": "https://s3-media1.fl.yelpcdn.com/bphoto/d1cjGi5_w86GytESMqVtqQ/o.jpg", "is_closed": false, "url": "https://www.yelp.com/biz/del-taco-oceanside-2?adjust_creative=oncXGL2aPIKrtJdnWeFSnA&utm_campaign=yelp_api_v3&utm_medium=api_v3_business_search&utm_source=oncXGL2aPIKrtJdnWeFSnA", "review_count": 50, "categories": [{"alias": "mexican", "title": "Mexican"}, {"alias": "hotdogs", "title": "Fast Food"}], "rating": 2.5, "coordinates": {"latitude": 33.209, "longitude": -117.28432}, "transactions": [], "price": "$", "location": {"address1": "1970 College Blvd", "address2": "", "address3": "", "city": "Oceanside", "zip_code": "92056", "country": "US", "state": "CA", "display_address": ["1970 College Blvd", "Oceanside, CA 92056"]}, "phone": "+17609453786", "display_phone": "(760) 945-3786", "distance": 3659.7913337344967}, {"id": "Q22nhcm4jqnIl7gqHF21Ag", "alias": "del-taco-oceanside", "name": "Del Taco", "image_url": "https://s3-media3.fl.yelpcdn.com/bphoto/LOGImStUBpRGOnqczZ-ucw/o.jpg", "is_closed": false, "url": "https://www.yelp.com/biz/del-taco-oceanside?adjust_creative=oncXGL2aPIKrtJdnWeFSnA&utm_campaign=yelp_api_v3&utm_medium=api_v3_business_search&utm_source=oncXGL2aPIKrtJdnWeFSnA", "review_count": 61, "categories": [{"alias": "hotdogs", "title": "Fast Food"}], "rating": 2.5, "coordinates": {"latitude": 33.2082138061523, "longitude": -117.388488769531}, "transactions": [], "price": "$", "location": {"address1": "1601 Carmelo Dr", "address2": "", "address3": "", "city": "Oceanside", "zip_code": "92054", "country": "US", "state": "CA", "display_address": ["1601 Carmelo Dr", "Oceanside, CA 92054"]}, "phone": "+17607219003", "display_phone": "(760) 721-9003", "distance": 6842.563698111722}, {"id": "_QGAvJJpQQ04h_OhR3D2tw", "alias": "wendys-oceanside-3", "name": "Wendy's", "image_url": "https://s3-media3.fl.yelpcdn.com/bphoto/1i1xiwKzU3JdJYJqsWonyQ/o.jpg", "is_closed": false, "url": "https://www.yelp.com/biz/wendys-oceanside-3?adjust_creative=oncXGL2aPIKrtJdnWeFSnA&utm_campaign=yelp_api_v3&utm_medium=api_v3_business_search&utm_source=oncXGL2aPIKrtJdnWeFSnA", "review_count": 46, "categories": [{"alias": "hotdogs", "title": "Fast Food"}, {"alias": "burgers", "title": "Burgers"}], "rating": 3.0, "coordinates": {"latitude": 33.1815920618444, "longitude": -117.295728412086}, "transactions": [], "price": "$", "location": {"address1": "3705 Plz Dr", "address2": "", "address3": "", "city": "Oceanside", "zip_code": "92056", "country": "US", "state": "CA", "display_address": ["3705 Plz Dr", "Oceanside, CA 92056"]}, "phone": "+17606306732", "display_phone": "(760) 630-6732", "distance": 5362.973786879676}, {"id": "kNNt-y6MUZY5HVQ1AFXoBQ", "alias": "kfc-oceanside", "name": "KFC", "image_url": "https://s3-media3.fl.yelpcdn.com/bphoto/ky7vtpPJo9PAer-kkv5rRA/o.jpg", "is_closed": false, "url": "https://www.yelp.com/biz/kfc-oceanside?adjust_creative=oncXGL2aPIKrtJdnWeFSnA&utm_campaign=yelp_api_v3&utm_medium=api_v3_business_search&utm_source=oncXGL2aPIKrtJdnWeFSnA", "review_count": 52, "categories": [{"alias": "hotdogs", "title": "Fast Food"}, {"alias": "chicken_wings", "title": "Chicken Wings"}, {"alias": "chickenshop", "title": "Chicken Shop"}], "rating": 1.5, "coordinates": {"latitude": 33.2238824094632, "longitude": -117.332548979286}, "transactions": ["delivery"], "price": "$$", "location": {"address1": "3747 Mission Ave", "address2": "", "address3": "", "city": "Oceanside", "zip_code": "92058", "country": "US", "state": "CA", "display_address": ["3747 Mission Ave", "Oceanside, CA 92058"]}, "phone": "+17607224196", "display_phone": "(760) 722-4196", "distance": 1356.2732932287772}, {"id": "dv22FOjWDEC0VKiyl4L29A", "alias": "wendys-oceanside-2", "name": "Wendy's", "image_url": "https://s3-media2.fl.yelpcdn.com/bphoto/Exs_uAW2HOrRu9LEPMSsug/o.jpg", "is_closed": false, "url": "https://www.yelp.com/biz/wendys-oceanside-2?adjust_creative=oncXGL2aPIKrtJdnWeFSnA&utm_campaign=yelp_api_v3&utm_medium=api_v3_business_search&utm_source=oncXGL2aPIKrtJdnWeFSnA", "review_count": 11, "categories": [{"alias": "hotdogs", "title": "Fast Food"}, {"alias": "burgers", "title": "Burgers"}], "rating": 4.0, "coordinates": {"latitude": 33.27155, "longitude": -117.29619}, "transactions": [], "price": "$", "location": {"address1": "13030 Vandegrift Blvd", "address2": "", "address3": "", "city": "Oceanside", "zip_code": "92058", "country": "US", "state": "CA", "display_address": ["13030 Vandegrift Blvd", "Oceanside, CA 92058"]}, "phone": "", "display_phone": "", "distance": 8388.222943020595}, {"id": "talSXJN1clZe0t-rXdEtpg", "alias": "mcdonalds-oceanside-8", "name": "McDonald's", "image_url": "https://s3-media2.fl.yelpcdn.com/bphoto/cvIPHzVfizgKiItx4jm2Dw/o.jpg", "is_closed": false, "url": "https://www.yelp.com/biz/mcdonalds-oceanside-8?adjust_creative=oncXGL2aPIKrtJdnWeFSnA&utm_campaign=yelp_api_v3&utm_medium=api_v3_business_search&utm_source=oncXGL2aPIKrtJdnWeFSnA", "review_count": 60, "categories": [{"alias": "burgers", "title": "Burgers"}, {"alias": "hotdogs", "title": "Fast Food"}, {"alias": "coffee", "title": "Coffee & Tea"}], "rating": 2.5, "coordinates": {"latitude": 33.2320154472568, "longitude": -117.308245897293}, "transactions": [], "price": "$", "location": {"address1": "185 Old Grove Rd", "address2": "", "address3": "", "city": "Oceanside", "zip_code": "92057", "country": "US", "state": "CA", "display_address": ["185 Old Grove Rd", "Oceanside, CA 92057"]}, "phone": "+17604359826", "display_phone": "(760) 435-9826", "distance": 1140.9496354282207}, {"id": "csNW54osOD5PfAeQjkOmlg", "alias": "mcdonalds-oceanside-3", "name": "McDonald's", "image_url": "https://s3-media2.fl.yelpcdn.com/bphoto/NTV_k_SWB3Pm9_BfhvWd_g/o.jpg", "is_closed": false, "url": "https://www.yelp.com/biz/mcdonalds-oceanside-3?adjust_creative=oncXGL2aPIKrtJdnWeFSnA&utm_campaign=yelp_api_v3&utm_medium=api_v3_business_search&utm_source=oncXGL2aPIKrtJdnWeFSnA", "review_count": 49, "categories": [{"alias": "burgers", "title": "Burgers"}, {"alias": "hotdogs", "title": "Fast Food"}, {"alias": "coffee", "title": "Coffee & Tea"}], "rating": 2.0, "coordinates": {"latitude": 33.2463989048185, "longitude": -117.291406566155}, "transactions": [], "price": "$", "location": {"address1": "487 College Blvd", "address2": "", "address3": "", "city": "Oceanside", "zip_code": "92057", "country": "US", "state": "CA", "display_address": ["487 College Blvd", "Oceanside, CA 92057"]}, "phone": "+17607587323", "display_phone": "(760) 758-7323", "distance": 3368.383867550189}, {"id": "b53K_YhD918rxnk-VFXc6A", "alias": "jersey-mikes-oceanside-2", "name": "Jersey Mikes", "image_url": "https://s3-media2.fl.yelpcdn.com/bphoto/H3dTJ8WZ5Jol7Y_NKqMv2g/o.jpg", "is_closed": false, "url": "https://www.yelp.com/biz/jersey-mikes-oceanside-2?adjust_creative=oncXGL2aPIKrtJdnWeFSnA&utm_campaign=yelp_api_v3&utm_medium=api_v3_business_search&utm_source=oncXGL2aPIKrtJdnWeFSnA", "review_count": 5, "categories": [{"alias": "hotdogs", "title": "Fast Food"}, {"alias": "delis", "title": "Delis"}, {"alias": "sandwiches", "title": "Sandwiches"}], "rating": 5.0, "coordinates": {"latitude": 33.195073112179, "longitude": -117.381085976958}, "transactions": [], "location": {"address1": "302 Mission Ave", "address2": "", "address3": "", "city": "Oceanside", "zip_code": "92054", "country": "US", "state": "CA", "display_address": ["302 Mission Ave", "Oceanside, CA 92054"]}, "phone": "+17604350783", "display_phone": "(760) 435-0783", "distance": 6787.5093767943645}, {"id": "h-P87SaICPoqGGRmAyNh-A", "alias": "carls-jr-oceanside-3", "name": "Carl's Jr", "image_url": "https://s3-media1.fl.yelpcdn.com/bphoto/z_Hau6zNcS9Y8rkT2vm_ag/o.jpg", "is_closed": false, "url": "https://www.yelp.com/biz/carls-jr-oceanside-3?adjust_creative=oncXGL2aPIKrtJdnWeFSnA&utm_campaign=yelp_api_v3&utm_medium=api_v3_business_search&utm_source=oncXGL2aPIKrtJdnWeFSnA", "review_count": 26, "categories": [{"alias": "hotdogs", "title": "Fast Food"}], "rating": 2.0, "coordinates": {"latitude": 33.244305, "longitude": -117.323082}, "transactions": [], "price": "$", "location": {"address1": "611 Douglas Dr", "address2": "", "address3": "", "city": "Oceanside", "zip_code": "92058", "country": "US", "state": "CA", "display_address": ["611 Douglas Dr", "Oceanside, CA 92058"]}, "phone": "+17609670371", "display_phone": "(760) 967-0371", "distance": 2084.5984610854503}, {"id": "udhkGC-o7midaFIvEwkbUw", "alias": "lourdes-mexican-food-san-marcos", "name": "Lourdes Mexican Food", "image_url": "", "is_closed": false, "url": "https://www.yelp.com/biz/lourdes-mexican-food-san-marcos?adjust_creative=oncXGL2aPIKrtJdnWeFSnA&utm_campaign=yelp_api_v3&utm_medium=api_v3_business_search&utm_source=oncXGL2aPIKrtJdnWeFSnA", "review_count": 1, "categories": [{"alias": "mexican", "title": "Mexican"}, {"alias": "hotdogs", "title": "Fast Food"}], "rating": 5.0, "coordinates": {"latitude": 33.0945172, "longitude": -117.2069865}, "transactions": [], "location": {"address1": "1646 San Elijo Rd", "address2": null, "address3": "", "city": "San Marcos", "zip_code": "92078", "country": "US", "state": "CA", "display_address": ["1646 San Elijo Rd", "San Marcos, CA 92078"]}, "phone": "+17602903684", "display_phone": "(760) 290-3684", "distance": 18032.23751216111}, {"id": "jVauXmpg_DhEogkHzYUaMA", "alias": "los-primos-mexican-food-carlsbad", "name": "Los Primos Mexican Food", "image_url": "https://s3-media1.fl.yelpcdn.com/bphoto/Ge2dUeHK97o6WQGdG_6dng/o.jpg", "is_closed": false, "url": "https://www.yelp.com/biz/los-primos-mexican-food-carlsbad?adjust_creative=oncXGL2aPIKrtJdnWeFSnA&utm_campaign=yelp_api_v3&utm_medium=api_v3_business_search&utm_source=oncXGL2aPIKrtJdnWeFSnA", "review_count": 190, "categories": [{"alias": "mexican", "title": "Mexican"}, {"alias": "hotdogs", "title": "Fast Food"}], "rating": 3.0, "coordinates": {"latitude": 33.1310615539551, "longitude": -117.260566711426}, "transactions": ["delivery", "pickup"], "price": "$", "location": {"address1": "2708 Loker Ave W", "address2": "", "address3": "", "city": "Carlsbad", "zip_code": "92010", "country": "US", "state": "CA", "display_address": ["2708 Loker Ave W", "Carlsbad, CA 92010"]}, "phone": "+17604310202", "display_phone": "(760) 431-0202", "distance": 11828.22318659751}], "total": 217, "region": {"center": {"longitude": -117.31819152832031, "latitude": 33.226009439623446}}}