{"businesses": [{"id": "VENGV8wHXyAwXmvklOIfjw", "alias": "taste-of-the-himalayas-carlsbad", "name": "Taste of The Himalayas", "image_url": "https://s3-media3.fl.yelpcdn.com/bphoto/Xal73wKPSIa9sIxiKAai9A/o.jpg", "is_closed": false, "url": "https://www.yelp.com/biz/taste-of-the-himalayas-carlsbad?adjust_creative=oncXGL2aPIKrtJdnWeFSnA&utm_campaign=yelp_api_v3&utm_medium=api_v3_business_search&utm_source=oncXGL2aPIKrtJdnWeFSnA", "review_count": 137, "categories": [{"alias": "indpak", "title": "Indian"}, {"alias": "himalayan", "title": "Himalayan/Nepalese"}], "rating": 4.5, "coordinates": {"latitude": 33.1589012252446, "longitude": -117.350424801225}, "transactions": ["delivery", "pickup"], "price": "$$", "location": {"address1": "300 Carlsbad Village Dr", "address2": "Unit 106", "address3": null, "city": "Carlsbad", "zip_code": "92008", "country": "US", "state": "CA", "display_address": ["300 Carlsbad Village Dr", "Unit 106", "Carlsbad, CA 92008"]}, "phone": "+17606963007", "display_phone": "(760) 696-3007", "distance": 8042.319441704693}, {"id": "iN-bCarRd3Xi0SG83dr5Ag", "alias": "punjabi-tandoor-carlsbad-3", "name": "Punjabi Tandoor", "image_url": "https://s3-media2.fl.yelpcdn.com/bphoto/mVxe6zIfYVzo2eLuC0CaXg/o.jpg", "is_closed": false, "url": "https://www.yelp.com/biz/punjabi-tandoor-carlsbad-3?adjust_creative=oncXGL2aPIKrtJdnWeFSnA&utm_campaign=yelp_api_v3&utm_medium=api_v3_business_search&utm_source=oncXGL2aPIKrtJdnWeFSnA", "review_count": 319, "categories": [{"alias": "indpak", "title": "Indian"}], "rating": 4.0, "coordinates": {"latitude": 33.1353798551699, "longitude": -117.287051537855}, "transactions": ["pickup"], "price": "$", "location": {"address1": "5812 Van Allen Way", "address2": "", "address3": "", "city": "Carlsbad", "zip_code": "92008", "country": "US", "state": "CA", "display_address": ["5812 Van Allen Way", "Carlsbad, CA 92008"]}, "phone": "+17604312708", "display_phone": "(760) 431-2708", "distance": 10485.958338322362}, {"id": "zfvGjWHxth969Rj_b_9yhg", "alias": "bombay-cafe-vista", "name": "Bombay Cafe", "image_url": "https://s3-media4.fl.yelpcdn.com/bphoto/SfID4NC-hodnkw7hPdFvMg/o.jpg", "is_closed": false, "url": "https://www.yelp.com/biz/bombay-cafe-vista?adjust_creative=oncXGL2aPIKrtJdnWeFSnA&utm_campaign=yelp_api_v3&utm_medium=api_v3_business_search&utm_source=oncXGL2aPIKrtJdnWeFSnA", "review_count": 252, "categories": [{"alias": "indpak", "title": "Indian"}, {"alias": "cafes", "title": "Cafes"}], "rating": 4.0, "coordinates": {"latitude": 33.21838, "longitude": -117.22677}, "transactions": [], "price": "$$", "location": {"address1": "1280 E Vista Way", "address2": "Ste 4", "address3": "", "city": "Vista", "zip_code": "92084", "country": "US", "state": "CA", "display_address": ["1280 E Vista Way", "Ste 4", "Vista, CA 92084"]}, "phone": "+17606306611", "display_phone": "(760) 630-6611", "distance": 8516.371606179822}, {"id": "I68v2UQn6bXaD9n0EKmUQw", "alias": "nanz-kitchen-san-diego-4", "name": "Nanz Kitchen", "image_url": "https://s3-media2.fl.yelpcdn.com/bphoto/9BFlglfxhsv9qGBHThoPDw/o.jpg", "is_closed": false, "url": "https://www.yelp.com/biz/nanz-kitchen-san-diego-4?adjust_creative=oncXGL2aPIKrtJdnWeFSnA&utm_campaign=yelp_api_v3&utm_medium=api_v3_business_search&utm_source=oncXGL2aPIKrtJdnWeFSnA", "review_count": 13, "categories": [{"alias": "indpak", "title": "Indian"}], "rating": 5.0, "coordinates": {"latitude": 33.14911, "longitude": -117.22237}, "transactions": [], "price": "$", "location": {"address1": "2515 Pioneer Ave", "address2": "Ste 5", "address3": "", "city": "San Diego", "zip_code": "92081", "country": "US", "state": "CA", "display_address": ["2515 Pioneer Ave", "Ste 5", "San Diego, CA 92081"]}, "phone": "+17606135030", "display_phone": "(760) 613-5030", "distance": 12336.93062343525}, {"id": "JUF1NuIshtihwYKf_PvVqA", "alias": "naan-n-curry-carlsbad", "name": "Naan N Curry", "image_url": "https://s3-media3.fl.yelpcdn.com/bphoto/6bgU7WKFUFxNbJ3A71R17g/o.jpg", "is_closed": false, "url": "https://www.yelp.com/biz/naan-n-curry-carlsbad?adjust_creative=oncXGL2aPIKrtJdnWeFSnA&utm_campaign=yelp_api_v3&utm_medium=api_v3_business_search&utm_source=oncXGL2aPIKrtJdnWeFSnA", "review_count": 154, "categories": [{"alias": "indpak", "title": "Indian"}, {"alias": "hotdogs", "title": "Fast Food"}], "rating": 4.0, "coordinates": {"latitude": 33.13105, "longitude": -117.26056}, "transactions": ["delivery", "pickup"], "price": "$$", "location": {"address1": "2708 Loker Ave W", "address2": "Ste 104", "address3": "", "city": "Carlsbad", "zip_code": "92010", "country": "US", "state": "CA", "display_address": ["2708 Loker Ave W", "Ste 104", "Carlsbad, CA 92010"]}, "phone": "+17608142996", "display_phone": "(760) 814-2996", "distance": 11828.22318659751}, {"id": "cuq2-tsneAtEw-92naMwtg", "alias": "curry-and-more-indian-bistro-san-marcos", "name": "Curry & More - Indian Bistro", "image_url": "https://s3-media1.fl.yelpcdn.com/bphoto/F8spGpGe66CQcP_Ojcx3ig/o.jpg", "is_closed": false, "url": "https://www.yelp.com/biz/curry-and-more-indian-bistro-san-marcos?adjust_creative=oncXGL2aPIKrtJdnWeFSnA&utm_campaign=yelp_api_v3&utm_medium=api_v3_business_search&utm_source=oncXGL2aPIKrtJdnWeFSnA", "review_count": 873, "categories": [{"alias": "indpak", "title": "Indian"}], "rating": 4.0, "coordinates": {"latitude": 33.141116, "longitude": -117.19202}, "transactions": ["delivery", "pickup"], "price": "$$", "location": {"address1": "113 S Las Posas Rd", "address2": "Ste 111", "address3": "", "city": "San Marcos", "zip_code": "92078", "country": "US", "state": "CA", "display_address": ["113 S Las Posas Rd", "Ste 111", "San Marcos, CA 92078"]}, "phone": "+17607364540", "display_phone": "(760) 736-4540", "distance": 15055.790028184801}, {"id": "ukPfLCiNdwNjYCY310XiQg", "alias": "curry-craft-san-marcos", "name": "Curry Craft", "image_url": "https://s3-media3.fl.yelpcdn.com/bphoto/z-J2cfew4_RqToBJCKDs5Q/o.jpg", "is_closed": false, "url": "https://www.yelp.com/biz/curry-craft-san-marcos?adjust_creative=oncXGL2aPIKrtJdnWeFSnA&utm_campaign=yelp_api_v3&utm_medium=api_v3_business_search&utm_source=oncXGL2aPIKrtJdnWeFSnA", "review_count": 156, "categories": [{"alias": "indpak", "title": "Indian"}], "rating": 4.0, "coordinates": {"latitude": 33.13161, "longitude": -117.20657}, "transactions": ["delivery", "pickup"], "price": "$$", "location": {"address1": "689 S Rancho Santa Fe Rd", "address2": null, "address3": "", "city": "San Marcos", "zip_code": "92078", "country": "US", "state": "CA", "display_address": ["689 S Rancho Santa Fe Rd", "San Marcos, CA 92078"]}, "phone": "+17608918422", "display_phone": "(760) 891-8422", "distance": 14765.304727637613}, {"id": "oNotZMRBbhmORXZ5ZgWSxQ", "alias": "native-kiicha-vista", "name": "Native Kiicha", "image_url": "", "is_closed": false, "url": "https://www.yelp.com/biz/native-kiicha-vista?adjust_creative=oncXGL2aPIKrtJdnWeFSnA&utm_campaign=yelp_api_v3&utm_medium=api_v3_business_search&utm_source=oncXGL2aPIKrtJdnWeFSnA", "review_count": 1, "categories": [{"alias": "foodtrucks", "title": "Food Trucks"}, {"alias": "indpak", "title": "Indian"}], "rating": 5.0, "coordinates": {"latitude": 33.152378, "longitude": -117.227943}, "transactions": [], "location": {"address1": "2379 La Mirada Dr", "address2": "", "address3": "", "city": "Vista", "zip_code": "92081", "country": "US", "state": "CA", "display_address": ["2379 La Mirada Dr", "Vista, CA 92081"]}, "phone": "", "display_phone": "", "distance": 11741.235981501946}, {"id": "YCFUFOfMPBtfXFklSWAzDg", "alias": "annapurna-indian-cuisine-carlsbad", "name": "Annapurna Indian Cuisine", "image_url": "https://s3-media4.fl.yelpcdn.com/bphoto/A4TozFqoXDKMEtZiH7FaGQ/o.jpg", "is_closed": false, "url": "https://www.yelp.com/biz/annapurna-indian-cuisine-carlsbad?adjust_creative=oncXGL2aPIKrtJdnWeFSnA&utm_campaign=yelp_api_v3&utm_medium=api_v3_business_search&utm_source=oncXGL2aPIKrtJdnWeFSnA", "review_count": 40, "categories": [{"alias": "indpak", "title": "Indian"}, {"alias": "buffets", "title": "Buffets"}], "rating": 3.0, "coordinates": {"latitude": 33.12719, "longitude": -117.25282}, "transactions": ["delivery", "pickup"], "price": "$$", "location": {"address1": "2675 Gateway Rd", "address2": "Ste 101", "address3": "", "city": "Carlsbad", "zip_code": "92009", "country": "US", "state": "CA", "display_address": ["2675 Gateway Rd", "Ste 101", "Carlsbad, CA 92009"]}, "phone": "+16192919191", "display_phone": "(619) 291-9191", "distance": 12551.163872405896}, {"id": "HDNBXT8Gkf-O2LQuWMwNRQ", "alias": "tandoori-grill-san-marcos", "name": "Tandoori Grill", "image_url": "https://s3-media1.fl.yelpcdn.com/bphoto/8M5t2YK1tOnnKcFyKAGQBw/o.jpg", "is_closed": false, "url": "https://www.yelp.com/biz/tandoori-grill-san-marcos?adjust_creative=oncXGL2aPIKrtJdnWeFSnA&utm_campaign=yelp_api_v3&utm_medium=api_v3_business_search&utm_source=oncXGL2aPIKrtJdnWeFSnA", "review_count": 141, "categories": [{"alias": "indpak", "title": "Indian"}], "rating": 4.0, "coordinates": {"latitude": 33.123176, "longitude": -117.165498}, "transactions": ["delivery", "pickup"], "price": "$$", "location": {"address1": "801 S Twin Oaks Valley Rd", "address2": "Ste 101", "address3": "", "city": "San Marcos", "zip_code": "92078", "country": "US", "state": "CA", "display_address": ["801 S Twin Oaks Valley Rd", "Ste 101", "San Marcos, CA 92078"]}, "phone": "+17608918338", "display_phone": "(760) 891-8338", "distance": 18220.18364161216}, {"id": "9NwxfHUdLpytQtMQsSQ1sA", "alias": "varanda-san-marcos-2", "name": "Varanda", "image_url": "https://s3-media1.fl.yelpcdn.com/bphoto/ziJL1KAI5Irh6lhK2nApOg/o.jpg", "is_closed": false, "url": "https://www.yelp.com/biz/varanda-san-marcos-2?adjust_creative=oncXGL2aPIKrtJdnWeFSnA&utm_campaign=yelp_api_v3&utm_medium=api_v3_business_search&utm_source=oncXGL2aPIKrtJdnWeFSnA", "review_count": 340, "categories": [{"alias": "indpak", "title": "Indian"}], "rating": 4.0, "coordinates": {"latitude": 33.13535, "longitude": -117.18991}, "transactions": ["delivery", "pickup"], "price": "$$", "location": {"address1": "1020 W San Marcos Blvd", "address2": "Ste 100", "address3": "", "city": "San Marcos", "zip_code": "92078", "country": "US", "state": "CA", "display_address": ["1020 W San Marcos Blvd", "Ste 100", "San Marcos, CA 92078"]}, "phone": "+17607447599", "display_phone": "(760) 744-7599", "distance": 15693.589162277749}, {"id": "HuvVj_O08zTslwC0fxNYjA", "alias": "kcs-tandoor-encinitas", "name": "KC's Tandoor", "image_url": "https://s3-media3.fl.yelpcdn.com/bphoto/vRdsTWtrvv3SXk4-X8dVHA/o.jpg", "is_closed": false, "url": "https://www.yelp.com/biz/kcs-tandoor-encinitas?adjust_creative=oncXGL2aPIKrtJdnWeFSnA&utm_campaign=yelp_api_v3&utm_medium=api_v3_business_search&utm_source=oncXGL2aPIKrtJdnWeFSnA", "review_count": 329, "categories": [{"alias": "indpak", "title": "Indian"}], "rating": 3.5, "coordinates": {"latitude": 33.06699, "longitude": -117.26332}, "transactions": ["delivery", "pickup"], "price": "$$", "location": {"address1": "1070 N El Camino Real", "address2": "", "address3": "", "city": "Encinitas", "zip_code": "92024", "country": "US", "state": "CA", "display_address": ["1070 N El Camino Real", "Encinitas, CA 92024"]}, "phone": "+17607537452", "display_phone": "(760) 753-7452", "distance": 18390.46224770209}], "total": 12, "region": {"center": {"longitude": -117.31819152832031, "latitude": 33.226009439623446}}}