{"businesses": [{"id": "SpW49-IyQImLJB5iTBVV7g", "alias": "maru-restaurant-oceanside", "name": "Maru Restaurant", "image_url": "https://s3-media2.fl.yelpcdn.com/bphoto/m6F0DSKOrZPJyjK1tQ_-BA/o.jpg", "is_closed": false, "url": "https://www.yelp.com/biz/maru-restaurant-oceanside?adjust_creative=oncXGL2aPIKrtJdnWeFSnA&utm_campaign=yelp_api_v3&utm_medium=api_v3_business_search&utm_source=oncXGL2aPIKrtJdnWeFSnA", "review_count": 207, "categories": [{"alias": "japanese", "title": "Japanese"}, {"alias": "korean", "title": "Korean"}, {"alias": "bbq", "title": "Barbeque"}], "rating": 4.0, "coordinates": {"latitude": 33.2250326620505, "longitude": -117.333364449441}, "transactions": ["restaurant_reservation"], "price": "$$", "location": {"address1": "3744 Mission Ave", "address2": "", "address3": null, "city": "Oceanside", "zip_code": "92058", "country": "US", "state": "CA", "display_address": ["3744 Mission Ave", "Oceanside, CA 92058"]}, "phone": "+14426157438", "display_phone": "(442) 615-7438", "distance": 1415.5083566125054}, {"id": "LjvKEjbLih17emcE6DFBEw", "alias": "wulan-ramen-tap-house-oceanside", "name": "Wulan Ramen Tap House", "image_url": "https://s3-media2.fl.yelpcdn.com/bphoto/ozTkwQHNe80xX_Zd4nTM4w/o.jpg", "is_closed": false, "url": "https://www.yelp.com/biz/wulan-ramen-tap-house-oceanside?adjust_creative=oncXGL2aPIKrtJdnWeFSnA&utm_campaign=yelp_api_v3&utm_medium=api_v3_business_search&utm_source=oncXGL2aPIKrtJdnWeFSnA", "review_count": 414, "categories": [{"alias": "ramen", "title": "Ramen"}], "rating": 4.0, "coordinates": {"latitude": 33.2379427, "longitude": -117.2975596}, "transactions": [], "price": "$$", "location": {"address1": "4645 Frazee Rd", "address2": "Ste F", "address3": "", "city": "Oceanside", "zip_code": "92057", "country": "US", "state": "CA", "display_address": ["4645 Frazee Rd", "Ste F", "Oceanside, CA 92057"]}, "phone": "+17604537526", "display_phone": "(760) 453-7526", "distance": 2326.4692357566114}, {"id": "QkCcRGg3hnISVuh2PlTOog", "alias": "ramen-menma-basso-drillman-oceanside-oceanside", "name": "Ramen MENMA - Basso Drillman Oceanside", "image_url": "https://s3-media4.fl.yelpcdn.com/bphoto/ed4qx4k0wImrQ1W_8zWpew/o.jpg", "is_closed": false, "url": "https://www.yelp.com/biz/ramen-menma-basso-drillman-oceanside-oceanside?adjust_creative=oncXGL2aPIKrtJdnWeFSnA&utm_campaign=yelp_api_v3&utm_medium=api_v3_business_search&utm_source=oncXGL2aPIKrtJdnWeFSnA", "review_count": 82, "categories": [{"alias": "ramen", "title": "Ramen"}], "rating": 4.0, "coordinates": {"latitude": 33.19598, "longitude": -117.37894}, "transactions": [], "price": "$$", "location": {"address1": "509 Mission Ave", "address2": null, "address3": "", "city": "Oceanside", "zip_code": "92054", "country": "US", "state": "CA", "display_address": ["509 Mission Ave", "Oceanside, CA 92054"]}, "phone": "+14425008080", "display_phone": "(442) 500-8080", "distance": 6567.867758740945}, {"id": "eyHseN6JIgRUkTUSePNYfg", "alias": "harney-sushi-oceanside", "name": "Harney Sushi", "image_url": "https://s3-media1.fl.yelpcdn.com/bphoto/zLIS9Qbeu0s7oDpm55yjaQ/o.jpg", "is_closed": false, "url": "https://www.yelp.com/biz/harney-sushi-oceanside?adjust_creative=oncXGL2aPIKrtJdnWeFSnA&utm_campaign=yelp_api_v3&utm_medium=api_v3_business_search&utm_source=oncXGL2aPIKrtJdnWeFSnA", "review_count": 857, "categories": [{"alias": "sushi", "title": "Sushi Bars"}, {"alias": "japanese", "title": "Japanese"}], "rating": 4.0, "coordinates": {"latitude": 33.1946666, "longitude": -117.380578}, "transactions": ["restaurant_reservation", "pickup"], "price": "$$", "location": {"address1": "301 Mission Ave", "address2": "", "address3": "", "city": "Oceanside", "zip_code": "92054", "country": "US", "state": "CA", "display_address": ["301 Mission Ave", "Oceanside, CA 92054"]}, "phone": "+17609671820", "display_phone": "(760) 967-1820", "distance": 6769.982446886895}, {"id": "0VRf2BzRjtbl_s6wJH4z4g", "alias": "teri-cafe-oceanside", "name": "Teri Cafe", "image_url": "https://s3-media2.fl.yelpcdn.com/bphoto/ohSXu2p6wAiFBwzgnrAKlQ/o.jpg", "is_closed": false, "url": "https://www.yelp.com/biz/teri-cafe-oceanside?adjust_creative=oncXGL2aPIKrtJdnWeFSnA&utm_campaign=yelp_api_v3&utm_medium=api_v3_business_search&utm_source=oncXGL2aPIKrtJdnWeFSnA", "review_count": 784, "categories": [{"alias": "ramen", "title": "Ramen"}, {"alias": "sushi", "title": "Sushi Bars"}, {"alias": "noodles", "title": "Noodles"}], "rating": 4.0, "coordinates": {"latitude": 33.1856468732919, "longitude": -117.327160384656}, "transactions": [], "price": "$", "location": {"address1": "2216 S El Camino Real", "address2": "Ste 123", "address3": "", "city": "Oceanside", "zip_code": "92054", "country": "US", "state": "CA", "display_address": ["2216 S El Camino Real", "Ste 123", "Oceanside, CA 92054"]}, "phone": "+17607228399", "display_phone": "(760) 722-8399", "distance": 4565.019417950597}, {"id": "eq93PJ6ZzQwlrH13VNVqWw", "alias": "sushi4reel-oceanside", "name": "Sushi4Reel", "image_url": "https://s3-media2.fl.yelpcdn.com/bphoto/JE4Gff12-fTwi44GJ8QrZQ/o.jpg", "is_closed": false, "url": "https://www.yelp.com/biz/sushi4reel-oceanside?adjust_creative=oncXGL2aPIKrtJdnWeFSnA&utm_campaign=yelp_api_v3&utm_medium=api_v3_business_search&utm_source=oncXGL2aPIKrtJdnWeFSnA", "review_count": 305, "categories": [{"alias": "sushi", "title": "Sushi Bars"}, {"alias": "seafood", "title": "Seafood"}, {"alias": "ramen", "title": "Ramen"}], "rating": 4.5, "coordinates": {"latitude": 33.2163251349678, "longitude": -117.271781936288}, "transactions": ["pickup", "delivery"], "price": "$$", "location": {"address1": "4750 Oceanside Blvd", "address2": "Ste A20", "address3": "", "city": "Oceanside", "zip_code": "92056", "country": "US", "state": "CA", "display_address": ["4750 Oceanside Blvd", "Ste A20", "Oceanside, CA 92056"]}, "phone": "+17606596784", "display_phone": "(760) 659-6784", "distance": 4449.358989587265}, {"id": "Lm0w5kMiQAUE52AX5Y-nfA", "alias": "love-boat-sushi-oceanside", "name": "Love Boat Sushi", "image_url": "https://s3-media4.fl.yelpcdn.com/bphoto/s6cc4odrpxYTdiXQlTccoQ/o.jpg", "is_closed": false, "url": "https://www.yelp.com/biz/love-boat-sushi-oceanside?adjust_creative=oncXGL2aPIKrtJdnWeFSnA&utm_campaign=yelp_api_v3&utm_medium=api_v3_business_search&utm_source=oncXGL2aPIKrtJdnWeFSnA", "review_count": 614, "categories": [{"alias": "japanese", "title": "Japanese"}, {"alias": "sushi", "title": "Sushi Bars"}], "rating": 4.0, "coordinates": {"latitude": 33.229665, "longitude": -117.308063}, "transactions": ["pickup", "delivery"], "price": "$$", "location": {"address1": "125 Old Grove Rd", "address2": "", "address3": "", "city": "Oceanside", "zip_code": "92049", "country": "US", "state": "CA", "display_address": ["125 Old Grove Rd", "Oceanside, CA 92049"]}, "phone": "+17607213737", "display_phone": "(760) 721-3737", "distance": 1026.0473091013657}, {"id": "tyAK08taAaH7TJRDYmDNoA", "alias": "teri-cafe-oceanside-2", "name": "Teri Cafe", "image_url": "https://s3-media3.fl.yelpcdn.com/bphoto/EqgDweHE3dVyAl4oVYCk8Q/o.jpg", "is_closed": false, "url": "https://www.yelp.com/biz/teri-cafe-oceanside-2?adjust_creative=oncXGL2aPIKrtJdnWeFSnA&utm_campaign=yelp_api_v3&utm_medium=api_v3_business_search&utm_source=oncXGL2aPIKrtJdnWeFSnA", "review_count": 608, "categories": [{"alias": "sushi", "title": "Sushi Bars"}, {"alias": "hawaiian", "title": "Hawaiian"}, {"alias": "ramen", "title": "Ramen"}], "rating": 4.0, "coordinates": {"latitude": 33.181676135002, "longitude": -117.29310357791}, "transactions": [], "price": "$", "location": {"address1": "3809 Plaza Dr", "address2": "Ste101", "address3": "", "city": "Oceanside", "zip_code": "92056", "country": "US", "state": "CA", "display_address": ["3809 Plaza Dr", "Ste101", "Oceanside, CA 92056"]}, "phone": "+17609458888", "display_phone": "(760) 945-8888", "distance": 5454.32520120165}, {"id": "Y3eZHpiai4OMxTVOs4BlvQ", "alias": "sunshine-poke-and-sushi-rolls-oceanside-2", "name": "Sunshine Poke & Sushi Rolls", "image_url": "https://s3-media3.fl.yelpcdn.com/bphoto/0FVp-H7XniqI1ujtGDScaw/o.jpg", "is_closed": false, "url": "https://www.yelp.com/biz/sunshine-poke-and-sushi-rolls-oceanside-2?adjust_creative=oncXGL2aPIKrtJdnWeFSnA&utm_campaign=yelp_api_v3&utm_medium=api_v3_business_search&utm_source=oncXGL2aPIKrtJdnWeFSnA", "review_count": 164, "categories": [{"alias": "japanese", "title": "Japanese"}, {"alias": "sushi", "title": "Sushi Bars"}, {"alias": "poke", "title": "Poke"}], "rating": 4.5, "coordinates": {"latitude": 33.1965995925067, "longitude": -117.379944483127}, "transactions": [], "price": "$", "location": {"address1": "224 N Coast Hwy", "address2": "", "address3": "", "city": "Oceanside", "zip_code": "92054", "country": "US", "state": "CA", "display_address": ["224 N Coast Hwy", "Oceanside, CA 92054"]}, "phone": "+17602315481", "display_phone": "(760) 231-5481", "distance": 6610.541882906752}, {"id": "QkTOIpK34o6fhNVmhsk8TA", "alias": "hooked-on-sushi-carlsbad", "name": "Hooked on Sushi", "image_url": "https://s3-media2.fl.yelpcdn.com/bphoto/raaULEbjDztb_GtbeHWADg/o.jpg", "is_closed": false, "url": "https://www.yelp.com/biz/hooked-on-sushi-carlsbad?adjust_creative=oncXGL2aPIKrtJdnWeFSnA&utm_campaign=yelp_api_v3&utm_medium=api_v3_business_search&utm_source=oncXGL2aPIKrtJdnWeFSnA", "review_count": 932, "categories": [{"alias": "sushi", "title": "Sushi Bars"}, {"alias": "japanese", "title": "Japanese"}], "rating": 4.5, "coordinates": {"latitude": 33.1804747700058, "longitude": -117.325041890144}, "transactions": ["pickup"], "price": "$$", "location": {"address1": "Vons Shopping Ctr", "address2": "", "address3": "2508 El Camino Real", "city": "Carlsbad", "zip_code": "92008", "country": "US", "state": "CA", "display_address": ["Vons Shopping Ctr", "2508 El Camino Real", "Carlsbad, CA 92008"]}, "phone": "+17604348811", "display_phone": "(760) 434-8811", "distance": 5103.176573020236}, {"id": "0YwEa7o4WrDvpTdItKMY5Q", "alias": "kampai-sushi-oceanside", "name": "Kampai Sushi", "image_url": "https://s3-media2.fl.yelpcdn.com/bphoto/Tm1JuiPFGyWN7SeVMnW3Mw/o.jpg", "is_closed": false, "url": "https://www.yelp.com/biz/kampai-sushi-oceanside?adjust_creative=oncXGL2aPIKrtJdnWeFSnA&utm_campaign=yelp_api_v3&utm_medium=api_v3_business_search&utm_source=oncXGL2aPIKrtJdnWeFSnA", "review_count": 216, "categories": [{"alias": "japanese", "title": "Japanese"}, {"alias": "sushi", "title": "Sushi Bars"}], "rating": 4.0, "coordinates": {"latitude": 33.19414, "longitude": -117.35677}, "transactions": ["pickup", "delivery"], "price": "$$", "location": {"address1": "1906 Oceanside Blvd", "address2": "Ste H", "address3": "", "city": "Oceanside", "zip_code": "92054", "country": "US", "state": "CA", "display_address": ["1906 Oceanside Blvd", "Ste H", "Oceanside, CA 92054"]}, "phone": "+17607571484", "display_phone": "(760) 757-1484", "distance": 5022.0395882847315}, {"id": "JRfedznrVJEKT5V6myU_sw", "alias": "umami-japanese-san-marcos-2", "name": "Umami Japanese", "image_url": "https://s3-media1.fl.yelpcdn.com/bphoto/4bHGc1Bi-H_ypQ7hyfvIiw/o.jpg", "is_closed": false, "url": "https://www.yelp.com/biz/umami-japanese-san-marcos-2?adjust_creative=oncXGL2aPIKrtJdnWeFSnA&utm_campaign=yelp_api_v3&utm_medium=api_v3_business_search&utm_source=oncXGL2aPIKrtJdnWeFSnA", "review_count": 28, "categories": [{"alias": "japanese", "title": "Japanese"}], "rating": 4.5, "coordinates": {"latitude": 33.1346715, "longitude": -117.159733}, "transactions": [], "location": {"address1": "251 North City Dr", "address2": "Ste 122", "address3": "", "city": "San Marcos", "zip_code": "92096", "country": "US", "state": "CA", "display_address": ["251 North City Dr", "Ste 122", "San Marcos, CA 92096"]}, "phone": "+17604104129", "display_phone": "(760) 410-4129", "distance": 17905.90488430149}, {"id": "zBrQ8CVGzQqwMP9GrtGjyQ", "alias": "waraii-sushi-oceanside", "name": "Waraii Sushi", "image_url": "https://s3-media2.fl.yelpcdn.com/bphoto/d_bFazcKMuzZ1npjuBl2lw/o.jpg", "is_closed": false, "url": "https://www.yelp.com/biz/waraii-sushi-oceanside?adjust_creative=oncXGL2aPIKrtJdnWeFSnA&utm_campaign=yelp_api_v3&utm_medium=api_v3_business_search&utm_source=oncXGL2aPIKrtJdnWeFSnA", "review_count": 389, "categories": [{"alias": "japanese", "title": "Japanese"}, {"alias": "sushi", "title": "Sushi Bars"}], "rating": 4.0, "coordinates": {"latitude": 33.2067908786033, "longitude": -117.283924967051}, "transactions": ["pickup", "delivery"], "price": "$$", "location": {"address1": "4225 Oceanside Blvd", "address2": "Ste F", "address3": "", "city": "Oceanside", "zip_code": "92056", "country": "US", "state": "CA", "display_address": ["4225 Oceanside Blvd", "Ste F", "Oceanside, CA 92056"]}, "phone": "+17606303770", "display_phone": "(760) 630-3770", "distance": 3837.732033639288}, {"id": "mbpH2qqhsc0V37UkY4Hp-g", "alias": "cafe-de-thai-and-sushi-oceanside", "name": "Cafe de Thai & Sushi", "image_url": "https://s3-media1.fl.yelpcdn.com/bphoto/SF215PklAeMmMbdCKXe2Yw/o.jpg", "is_closed": false, "url": "https://www.yelp.com/biz/cafe-de-thai-and-sushi-oceanside?adjust_creative=oncXGL2aPIKrtJdnWeFSnA&utm_campaign=yelp_api_v3&utm_medium=api_v3_business_search&utm_source=oncXGL2aPIKrtJdnWeFSnA", "review_count": 421, "categories": [{"alias": "thai", "title": "Thai"}, {"alias": "sushi", "title": "Sushi Bars"}, {"alias": "japanese", "title": "Japanese"}], "rating": 4.0, "coordinates": {"latitude": 33.207398, "longitude": -117.2852966}, "transactions": [], "price": "$$", "location": {"address1": "4196 Oceanside Blvd", "address2": "", "address3": "", "city": "Oceanside", "zip_code": "92056", "country": "US", "state": "CA", "display_address": ["4196 Oceanside Blvd", "Oceanside, CA 92056"]}, "phone": "+17609455533", "display_phone": "(760) 945-5533", "distance": 3603.9887341595263}, {"id": "TSSfmgrpOfGomSz9fTQUmA", "alias": "yoshino-japanese-deli-carlsbad", "name": "Yoshino Japanese Deli", "image_url": "https://s3-media1.fl.yelpcdn.com/bphoto/8P632tFx8oym5M-7pqfemA/o.jpg", "is_closed": false, "url": "https://www.yelp.com/biz/yoshino-japanese-deli-carlsbad?adjust_creative=oncXGL2aPIKrtJdnWeFSnA&utm_campaign=yelp_api_v3&utm_medium=api_v3_business_search&utm_source=oncXGL2aPIKrtJdnWeFSnA", "review_count": 726, "categories": [{"alias": "japanese", "title": "Japanese"}, {"alias": "sushi", "title": "Sushi Bars"}, {"alias": "delis", "title": "Delis"}], "rating": 4.5, "coordinates": {"latitude": 33.1603163, "longitude": -117.3495182}, "transactions": [], "price": "$", "location": {"address1": "2913 State St", "address2": "", "address3": "", "city": "Carlsbad", "zip_code": "92008", "country": "US", "state": "CA", "display_address": ["2913 State St", "Carlsbad, CA 92008"]}, "phone": "+17608890309", "display_phone": "(760) 889-0309", "distance": 7866.770944110756}, {"id": "yumzuKQRqF_EfE3EkcRF5g", "alias": "hon-sushi-oceanside", "name": "Hon Sushi", "image_url": "https://s3-media2.fl.yelpcdn.com/bphoto/EaxISmmsoUj1_8SaozsxaA/o.jpg", "is_closed": false, "url": "https://www.yelp.com/biz/hon-sushi-oceanside?adjust_creative=oncXGL2aPIKrtJdnWeFSnA&utm_campaign=yelp_api_v3&utm_medium=api_v3_business_search&utm_source=oncXGL2aPIKrtJdnWeFSnA", "review_count": 446, "categories": [{"alias": "japanese", "title": "Japanese"}, {"alias": "sushi", "title": "Sushi Bars"}], "rating": 3.5, "coordinates": {"latitude": 33.1757, "longitude": -117.36294}, "transactions": [], "price": "$$", "location": {"address1": "1733 S Coast Hwy", "address2": "", "address3": "", "city": "Oceanside", "zip_code": "92054", "country": "US", "state": "CA", "display_address": ["1733 S Coast Hwy", "Oceanside, CA 92054"]}, "phone": "+17605290255", "display_phone": "(760) 529-0255", "distance": 6975.024158860123}, {"id": "SHl93rFlUCUBvG9-oydu_Q", "alias": "benihana-carlsbad", "name": "Benihana", "image_url": "https://s3-media1.fl.yelpcdn.com/bphoto/LJnYAW1kgVkNGbMJPEiPHw/o.jpg", "is_closed": false, "url": "https://www.yelp.com/biz/benihana-carlsbad?adjust_creative=oncXGL2aPIKrtJdnWeFSnA&utm_campaign=yelp_api_v3&utm_medium=api_v3_business_search&utm_source=oncXGL2aPIKrtJdnWeFSnA", "review_count": 558, "categories": [{"alias": "sushi", "title": "Sushi Bars"}, {"alias": "japanese", "title": "Japanese"}, {"alias": "noodles", "title": "Noodles"}], "rating": 3.0, "coordinates": {"latitude": 33.1041784658514, "longitude": -117.3126635}, "transactions": ["pickup", "delivery"], "price": "$$", "location": {"address1": "755 Raintree Dr", "address2": "", "address3": "", "city": "Carlsbad", "zip_code": "92009", "country": "US", "state": "CA", "display_address": ["755 Raintree Dr", "Carlsbad, CA 92009"]}, "phone": "+17609298311", "display_phone": "(760) 929-8311", "distance": 13556.739775427593}, {"id": "g7EDmHuHmgwodt2MFU9cNg", "alias": "go-go-japan-oceanside", "name": "Go Go  Japan", "image_url": "https://s3-media3.fl.yelpcdn.com/bphoto/DOdTYI31cWEg9Ir7hKE8gQ/o.jpg", "is_closed": false, "url": "https://www.yelp.com/biz/go-go-japan-oceanside?adjust_creative=oncXGL2aPIKrtJdnWeFSnA&utm_campaign=yelp_api_v3&utm_medium=api_v3_business_search&utm_source=oncXGL2aPIKrtJdnWeFSnA", "review_count": 266, "categories": [{"alias": "sushi", "title": "Sushi Bars"}, {"alias": "japanese", "title": "Japanese"}], "rating": 3.5, "coordinates": {"latitude": 33.20589, "longitude": -117.288564}, "transactions": ["pickup", "delivery"], "price": "$$", "location": {"address1": "4121 Oceanside Blvd", "address2": "Ste 202", "address3": "", "city": "Oceanside", "zip_code": "92056", "country": "US", "state": "CA", "display_address": ["4121 Oceanside Blvd", "Ste 202", "Oceanside, CA 92056"]}, "phone": "+17606301288", "display_phone": "(760) 630-1288", "distance": 3549.83968223719}, {"id": "lKOHqbbrcSGd661ygX6MXQ", "alias": "ramen-factory-carlsbad", "name": "Ramen Factory", "image_url": "https://s3-media1.fl.yelpcdn.com/bphoto/PkKv9jFE1C9VRnesl6PObg/o.jpg", "is_closed": false, "url": "https://www.yelp.com/biz/ramen-factory-carlsbad?adjust_creative=oncXGL2aPIKrtJdnWeFSnA&utm_campaign=yelp_api_v3&utm_medium=api_v3_business_search&utm_source=oncXGL2aPIKrtJdnWeFSnA", "review_count": 287, "categories": [{"alias": "ramen", "title": "Ramen"}, {"alias": "bars", "title": "Bars"}], "rating": 3.5, "coordinates": {"latitude": 33.1019551674793, "longitude": -117.311825099193}, "transactions": ["pickup"], "price": "$$", "location": {"address1": "7040 Avenida Encinas", "address2": "Ste 111", "address3": "", "city": "Carlsbad", "zip_code": "92011", "country": "US", "state": "CA", "display_address": ["7040 Avenida Encinas", "Ste 111", "Carlsbad, CA 92011"]}, "phone": "+17604486183", "display_phone": "(760) 448-6183", "distance": 13806.913620104651}, {"id": "tSwwA5Vy0Iv3RtIw0uJlXg", "alias": "mikko-sushi-carlsbad-2", "name": "Mikko Sushi", "image_url": "https://s3-media2.fl.yelpcdn.com/bphoto/y-bWjcckWwxsJDar3gWOtg/o.jpg", "is_closed": false, "url": "https://www.yelp.com/biz/mikko-sushi-carlsbad-2?adjust_creative=oncXGL2aPIKrtJdnWeFSnA&utm_campaign=yelp_api_v3&utm_medium=api_v3_business_search&utm_source=oncXGL2aPIKrtJdnWeFSnA", "review_count": 420, "categories": [{"alias": "sushi", "title": "Sushi Bars"}, {"alias": "japanese", "title": "Japanese"}, {"alias": "hawaiian", "title": "Hawaiian"}], "rating": 4.5, "coordinates": {"latitude": 33.1624882511995, "longitude": -117.343036971947}, "transactions": ["pickup", "delivery"], "price": "$$", "location": {"address1": "1025 Carlsbad Village Dr", "address2": "", "address3": "", "city": "Carlsbad", "zip_code": "92008", "country": "US", "state": "CA", "display_address": ["1025 Carlsbad Village Dr", "Carlsbad, CA 92008"]}, "phone": "+17607300088", "display_phone": "(760) 730-0088", "distance": 7431.950743709806}, {"id": "Hqk7azstDh8NpBMXOTEwhw", "alias": "j-box-carlsbad", "name": "J BOX", "image_url": "https://s3-media2.fl.yelpcdn.com/bphoto/h81ddL3qvvs6QnZvjI5QUw/o.jpg", "is_closed": false, "url": "https://www.yelp.com/biz/j-box-carlsbad?adjust_creative=oncXGL2aPIKrtJdnWeFSnA&utm_campaign=yelp_api_v3&utm_medium=api_v3_business_search&utm_source=oncXGL2aPIKrtJdnWeFSnA", "review_count": 89, "categories": [{"alias": "japanese", "title": "Japanese"}, {"alias": "asianfusion", "title": "Asian Fusion"}, {"alias": "korean", "title": "Korean"}], "rating": 4.0, "coordinates": {"latitude": 33.1347745768318, "longitude": -117.287347264279}, "transactions": [], "price": "$$", "location": {"address1": "5814 Van Allen Way", "address2": "Ste 135", "address3": "", "city": "Carlsbad", "zip_code": "92008", "country": "US", "state": "CA", "display_address": ["5814 Van Allen Way", "Ste 135", "Carlsbad, CA 92008"]}, "phone": "+17604310056", "display_phone": "(760) 431-0056", "distance": 10543.133475973134}, {"id": "Xl8fktjOQuo5eMPpEiuB4w", "alias": "moiza-tapas-and-japanese-noodle-carlsbad", "name": "Moiza tapas & Japanese Noodle", "image_url": "https://s3-media1.fl.yelpcdn.com/bphoto/3ATT3B2nDcFiN-Xl_mPGRg/o.jpg", "is_closed": false, "url": "https://www.yelp.com/biz/moiza-tapas-and-japanese-noodle-carlsbad?adjust_creative=oncXGL2aPIKrtJdnWeFSnA&utm_campaign=yelp_api_v3&utm_medium=api_v3_business_search&utm_source=oncXGL2aPIKrtJdnWeFSnA", "review_count": 180, "categories": [{"alias": "japanese", "title": "Japanese"}, {"alias": "sushi", "title": "Sushi Bars"}], "rating": 4.0, "coordinates": {"latitude": 33.1630491683917, "longitude": -117.340830932541}, "transactions": ["pickup"], "price": "$$", "location": {"address1": "3050 Pio Pico Dr", "address2": "Ste A", "address3": null, "city": "Carlsbad", "zip_code": "92008", "country": "US", "state": "CA", "display_address": ["3050 Pio Pico Dr", "Ste A", "Carlsbad, CA 92008"]}, "phone": "+17604341230", "display_phone": "(760) 434-1230", "distance": 7310.929192903456}, {"id": "PgSK53vNIOaLZvGHdWpz-Q", "alias": "kona-grill-and-sushi-oceanside", "name": "Kona Grill & Sushi", "image_url": "https://s3-media1.fl.yelpcdn.com/bphoto/w8NktQpqeO8-5eBVyE21WQ/o.jpg", "is_closed": false, "url": "https://www.yelp.com/biz/kona-grill-and-sushi-oceanside?adjust_creative=oncXGL2aPIKrtJdnWeFSnA&utm_campaign=yelp_api_v3&utm_medium=api_v3_business_search&utm_source=oncXGL2aPIKrtJdnWeFSnA", "review_count": 2, "categories": [{"alias": "sushi", "title": "Sushi Bars"}, {"alias": "japanese", "title": "Japanese"}], "rating": 3.5, "coordinates": {"latitude": 33.2269455, "longitude": -117.3281398}, "transactions": [], "location": {"address1": "3861 Mission Ave", "address2": "", "address3": "", "city": "Oceanside", "zip_code": "92054", "country": "US", "state": "CA", "display_address": ["3861 Mission Ave", "Oceanside, CA 92054"]}, "phone": "+17607222793", "display_phone": "(760) 722-2793", "distance": 958.9868086635273}, {"id": "gddccXj1KHqownUTPtykNg", "alias": "umi-japanese-grill-and-cafe-oceanside", "name": "Umi Japanese Grill & Cafe", "image_url": "https://s3-media2.fl.yelpcdn.com/bphoto/zXFvc0vKNgq5llIHTKc8-w/o.jpg", "is_closed": false, "url": "https://www.yelp.com/biz/umi-japanese-grill-and-cafe-oceanside?adjust_creative=oncXGL2aPIKrtJdnWeFSnA&utm_campaign=yelp_api_v3&utm_medium=api_v3_business_search&utm_source=oncXGL2aPIKrtJdnWeFSnA", "review_count": 113, "categories": [{"alias": "japanese", "title": "Japanese"}, {"alias": "sushi", "title": "Sushi Bars"}], "rating": 3.5, "coordinates": {"latitude": 33.1951151987858, "longitude": -117.380220818942}, "transactions": ["pickup", "delivery"], "price": "$", "location": {"address1": "401 Mission Ave", "address2": "", "address3": "", "city": "Oceanside", "zip_code": "92054", "country": "US", "state": "CA", "display_address": ["401 Mission Ave", "Oceanside, CA 92054"]}, "phone": "+17604393566", "display_phone": "(760) 439-3566", "distance": 6715.851638921034}, {"id": "irvRRmo--qh24FlIKQBMUA", "alias": "shogun-japanese-restaurant-san-marcos", "name": "Shogun Japanese Restaurant", "image_url": "https://s3-media1.fl.yelpcdn.com/bphoto/zT9VrsOaOVwIsE2Puv1ksQ/o.jpg", "is_closed": false, "url": "https://www.yelp.com/biz/shogun-japanese-restaurant-san-marcos?adjust_creative=oncXGL2aPIKrtJdnWeFSnA&utm_campaign=yelp_api_v3&utm_medium=api_v3_business_search&utm_source=oncXGL2aPIKrtJdnWeFSnA", "review_count": 306, "categories": [{"alias": "sushi", "title": "Sushi Bars"}, {"alias": "japanese", "title": "Japanese"}], "rating": 3.0, "coordinates": {"latitude": 33.1320728046332, "longitude": -117.207453846931}, "transactions": [], "price": "$$", "location": {"address1": "695 S Rancho Santa Fe Rd", "address2": "", "address3": "", "city": "San Marcos", "zip_code": "92078", "country": "US", "state": "CA", "display_address": ["695 S Rancho Santa Fe Rd", "San Marcos, CA 92078"]}, "phone": "+17607446600", "display_phone": "(760) 744-6600", "distance": 14673.636349046867}, {"id": "WDd-W00FnJv4Q01JSNWb-Q", "alias": "super-sushi-carlsbad-4", "name": "Super Sushi", "image_url": "https://s3-media2.fl.yelpcdn.com/bphoto/M78mp2hgkXVuN1-fDc__Xw/o.jpg", "is_closed": false, "url": "https://www.yelp.com/biz/super-sushi-carlsbad-4?adjust_creative=oncXGL2aPIKrtJdnWeFSnA&utm_campaign=yelp_api_v3&utm_medium=api_v3_business_search&utm_source=oncXGL2aPIKrtJdnWeFSnA", "review_count": 206, "categories": [{"alias": "sushi", "title": "Sushi Bars"}, {"alias": "asianfusion", "title": "Asian Fusion"}, {"alias": "ramen", "title": "Ramen"}], "rating": 4.0, "coordinates": {"latitude": 33.1766161322594, "longitude": -117.338841184974}, "transactions": ["pickup", "delivery"], "price": "$$", "location": {"address1": "1854 Marron Rd", "address2": "", "address3": "", "city": "Carlsbad", "zip_code": "92008", "country": "US", "state": "CA", "display_address": ["1854 Marron Rd", "Carlsbad, CA 92008"]}, "phone": "+17607295888", "display_phone": "(760) 729-5888", "distance": 5753.22490691035}, {"id": "h7orHki9hAlthq4ZF6Sx4A", "alias": "sushi-kuchi-carlsbad-7", "name": "Sushi Kuchi", "image_url": "https://s3-media2.fl.yelpcdn.com/bphoto/Lnn6COKSNkrBk94LCewWpA/o.jpg", "is_closed": false, "url": "https://www.yelp.com/biz/sushi-kuchi-carlsbad-7?adjust_creative=oncXGL2aPIKrtJdnWeFSnA&utm_campaign=yelp_api_v3&utm_medium=api_v3_business_search&utm_source=oncXGL2aPIKrtJdnWeFSnA", "review_count": 436, "categories": [{"alias": "japanese", "title": "Japanese"}, {"alias": "sushi", "title": "Sushi Bars"}], "rating": 4.0, "coordinates": {"latitude": 33.1005245363228, "longitude": -117.309786877571}, "transactions": [], "price": "$$", "location": {"address1": "7180 Avenida Encinas", "address2": "Ste 100", "address3": "", "city": "Carlsbad", "zip_code": "92011", "country": "US", "state": "CA", "display_address": ["7180 Avenida Encinas", "Ste 100", "Carlsbad, CA 92011"]}, "phone": "+17604383222", "display_phone": "(760) 438-3222", "distance": 13975.183638455706}, {"id": "9N8vtWrudK9jUrPqi5WfRw", "alias": "kai-ola-sushi-encinitas", "name": "Kai Ola Sushi", "image_url": "https://s3-media1.fl.yelpcdn.com/bphoto/hxgb5EDARxlFHPpDUExijw/o.jpg", "is_closed": false, "url": "https://www.yelp.com/biz/kai-ola-sushi-encinitas?adjust_creative=oncXGL2aPIKrtJdnWeFSnA&utm_campaign=yelp_api_v3&utm_medium=api_v3_business_search&utm_source=oncXGL2aPIKrtJdnWeFSnA", "review_count": 148, "categories": [{"alias": "sushi", "title": "Sushi Bars"}, {"alias": "japanese", "title": "Japanese"}, {"alias": "seafood", "title": "Seafood"}], "rating": 4.5, "coordinates": {"latitude": 33.0649017433479, "longitude": -117.302544926373}, "transactions": [], "price": "$$", "location": {"address1": "918 N Coast Hwy", "address2": "", "address3": null, "city": "Encinitas", "zip_code": "92024", "country": "US", "state": "CA", "display_address": ["918 N Coast Hwy", "Encinitas, CA 92024"]}, "phone": "+17604522493", "display_phone": "(760) 452-2493", "distance": 17977.969309459062}, {"id": "Vyebp-1299IK7McClmNPew", "alias": "rooster-ramen-encinitas-10", "name": "Rooster Ramen", "image_url": "https://s3-media4.fl.yelpcdn.com/bphoto/7dImBQo6G5407VskHRt3Dg/o.jpg", "is_closed": false, "url": "https://www.yelp.com/biz/rooster-ramen-encinitas-10?adjust_creative=oncXGL2aPIKrtJdnWeFSnA&utm_campaign=yelp_api_v3&utm_medium=api_v3_business_search&utm_source=oncXGL2aPIKrtJdnWeFSnA", "review_count": 43, "categories": [{"alias": "ramen", "title": "Ramen"}], "rating": 4.5, "coordinates": {"latitude": 33.0644904619232, "longitude": -117.30256860431}, "transactions": [], "price": "$$", "location": {"address1": "914 N Coast Hwy 101", "address2": null, "address3": "", "city": "Encinitas", "zip_code": "92024", "country": "US", "state": "CA", "display_address": ["914 N Coast Hwy 101", "Encinitas, CA 92024"]}, "phone": "+17602059600", "display_phone": "(760) 205-9600", "distance": 18018.873136715418}, {"id": "oDe5egvJbI1Mb10nwQyiEw", "alias": "hibachi-san-camp-pendleton-north-3", "name": "Hibachi-San", "image_url": "https://s3-media4.fl.yelpcdn.com/bphoto/8ygRG3eiLuGShw2QSe6CEg/o.jpg", "is_closed": false, "url": "https://www.yelp.com/biz/hibachi-san-camp-pendleton-north-3?adjust_creative=oncXGL2aPIKrtJdnWeFSnA&utm_campaign=yelp_api_v3&utm_medium=api_v3_business_search&utm_source=oncXGL2aPIKrtJdnWeFSnA", "review_count": 33, "categories": [{"alias": "hotdogs", "title": "Fast Food"}, {"alias": "japanese", "title": "Japanese"}], "rating": 3.5, "coordinates": {"latitude": 33.3011138406316, "longitude": -117.311384139215}, "transactions": [], "price": "$", "location": {"address1": "20846 Pacific Plz", "address2": "", "address3": "", "city": "Camp Pendleton North", "zip_code": "92058", "country": "US", "state": "CA", "display_address": ["20846 Pacific Plz", "Camp Pendleton North, CA 92058"]}, "phone": "", "display_phone": "", "distance": 8375.168949139927}, {"id": "Y4xf6ukX6NQxnn2X-mzINg", "alias": "ichiban-ramen-and-sushi-vista", "name": "Ichiban Ramen & Sushi", "image_url": "https://s3-media4.fl.yelpcdn.com/bphoto/KNtQvFVVsbJJ2DXDDhRl7A/o.jpg", "is_closed": false, "url": "https://www.yelp.com/biz/ichiban-ramen-and-sushi-vista?adjust_creative=oncXGL2aPIKrtJdnWeFSnA&utm_campaign=yelp_api_v3&utm_medium=api_v3_business_search&utm_source=oncXGL2aPIKrtJdnWeFSnA", "review_count": 75, "categories": [{"alias": "sushi", "title": "Sushi Bars"}, {"alias": "ramen", "title": "Ramen"}], "rating": 3.5, "coordinates": {"latitude": 33.1324391820547, "longitude": -117.229636760427}, "transactions": [], "price": "$$", "location": {"address1": "3265 Business Park Dr", "address2": "", "address3": null, "city": "Vista", "zip_code": "92081", "country": "US", "state": "CA", "display_address": ["3265 Business Park Dr", "Vista, CA 92081"]}, "phone": "+17605974015", "display_phone": "(760) 597-4015", "distance": 13273.10465340007}, {"id": "LHsCOQoHwcKkzw023iQpjQ", "alias": "sushi-yama-carlsbad", "name": "Sushi Yama", "image_url": "https://s3-media3.fl.yelpcdn.com/bphoto/ldeAZ8rq0OmYYuiqxc6dJA/o.jpg", "is_closed": false, "url": "https://www.yelp.com/biz/sushi-yama-carlsbad?adjust_creative=oncXGL2aPIKrtJdnWeFSnA&utm_campaign=yelp_api_v3&utm_medium=api_v3_business_search&utm_source=oncXGL2aPIKrtJdnWeFSnA", "review_count": 294, "categories": [{"alias": "sushi", "title": "Sushi Bars"}, {"alias": "japanese", "title": "Japanese"}], "rating": 3.5, "coordinates": {"latitude": 33.1589850077569, "longitude": -117.35049015122}, "transactions": ["pickup", "delivery"], "price": "$$", "location": {"address1": "300 Carlsbad Village Dr", "address2": "", "address3": "", "city": "Carlsbad", "zip_code": "92008", "country": "US", "state": "CA", "display_address": ["300 Carlsbad Village Dr", "Carlsbad, CA 92008"]}, "phone": "+17607292437", "display_phone": "(760) 729-2437", "distance": 8035.947909180469}, {"id": "r3Hj02rO6sM34zpZcLDf3w", "alias": "sushi-huku-and-robata-san-marcos", "name": "Sushi Huku & Robata", "image_url": "https://s3-media3.fl.yelpcdn.com/bphoto/uZ45nP630I8lFW930qfCxQ/o.jpg", "is_closed": false, "url": "https://www.yelp.com/biz/sushi-huku-and-robata-san-marcos?adjust_creative=oncXGL2aPIKrtJdnWeFSnA&utm_campaign=yelp_api_v3&utm_medium=api_v3_business_search&utm_source=oncXGL2aPIKrtJdnWeFSnA", "review_count": 252, "categories": [{"alias": "japanese", "title": "Japanese"}, {"alias": "sushi", "title": "Sushi Bars"}], "rating": 4.0, "coordinates": {"latitude": 33.1362, "longitude": -117.17955}, "transactions": [], "price": "$$", "location": {"address1": "727 W San Marcos Blvd", "address2": "Ste 105", "address3": "", "city": "San Marcos", "zip_code": "92078", "country": "US", "state": "CA", "display_address": ["727 W San Marcos Blvd", "Ste 105", "San Marcos, CA 92078"]}, "phone": "+17605910353", "display_phone": "(760) 591-0353", "distance": 16326.694740791081}, {"id": "Yphoz62t0BYNyIGbLidCwA", "alias": "tabu-sushi-bar-and-grill-vista-2", "name": "Tabu Sushi Bar & Grill", "image_url": "https://s3-media3.fl.yelpcdn.com/bphoto/s2rsPQoQKda5bb2-JjlYtA/o.jpg", "is_closed": false, "url": "https://www.yelp.com/biz/tabu-sushi-bar-and-grill-vista-2?adjust_creative=oncXGL2aPIKrtJdnWeFSnA&utm_campaign=yelp_api_v3&utm_medium=api_v3_business_search&utm_source=oncXGL2aPIKrtJdnWeFSnA", "review_count": 205, "categories": [{"alias": "japanese", "title": "Japanese"}, {"alias": "sushi", "title": "Sushi Bars"}, {"alias": "desserts", "title": "Desserts"}], "rating": 3.5, "coordinates": {"latitude": 33.14608, "longitude": -117.24224}, "transactions": [], "price": "$$", "location": {"address1": "2215 S Melrose", "address2": "Ste 104", "address3": "", "city": "Vista", "zip_code": "92081", "country": "US", "state": "CA", "display_address": ["2215 S Melrose", "Ste 104", "Vista, CA 92081"]}, "phone": "+17602951039", "display_phone": "(760) 295-1039", "distance": 11360.085742058194}, {"id": "qZ_n8ZuP_gJ21D3TOV1sxw", "alias": "its-tabu-sushi-bar-and-grill-san-marcos-2", "name": "It's Tabu Sushi Bar & Grill", "image_url": "https://s3-media2.fl.yelpcdn.com/bphoto/m2S4SOFgduIMtN1N13sJdQ/o.jpg", "is_closed": false, "url": "https://www.yelp.com/biz/its-tabu-sushi-bar-and-grill-san-marcos-2?adjust_creative=oncXGL2aPIKrtJdnWeFSnA&utm_campaign=yelp_api_v3&utm_medium=api_v3_business_search&utm_source=oncXGL2aPIKrtJdnWeFSnA", "review_count": 360, "categories": [{"alias": "sushi", "title": "Sushi Bars"}, {"alias": "japanese", "title": "Japanese"}], "rating": 4.0, "coordinates": {"latitude": 33.1301640846919, "longitude": -117.164995977903}, "transactions": ["pickup", "delivery"], "price": "$$", "location": {"address1": "344 S Twin Oaks Valley Rd", "address2": "Ste 147", "address3": "", "city": "San Marcos", "zip_code": "92078", "country": "US", "state": "CA", "display_address": ["344 S Twin Oaks Valley Rd", "Ste 147", "San Marcos, CA 92078"]}, "phone": "+17605910811", "display_phone": "(760) 591-0811", "distance": 17666.89430491992}, {"id": "cZN23l_Oa5zOyf9muiMumA", "alias": "motto-japanese-grill-carlsbad-3", "name": "Mot'to Japanese Grill", "image_url": "https://s3-media1.fl.yelpcdn.com/bphoto/5U65rFgYfRV-5s03yypYHw/o.jpg", "is_closed": false, "url": "https://www.yelp.com/biz/motto-japanese-grill-carlsbad-3?adjust_creative=oncXGL2aPIKrtJdnWeFSnA&utm_campaign=yelp_api_v3&utm_medium=api_v3_business_search&utm_source=oncXGL2aPIKrtJdnWeFSnA", "review_count": 70, "categories": [{"alias": "japanese", "title": "Japanese"}, {"alias": "sushi", "title": "Sushi Bars"}, {"alias": "salad", "title": "Salad"}], "rating": 3.5, "coordinates": {"latitude": 33.127538, "longitude": -117.321811}, "transactions": [], "price": "$", "location": {"address1": "5600 Paseo Del Norte", "address2": "115-A, North Entrance", "address3": null, "city": "Carlsbad", "zip_code": "92008", "country": "US", "state": "CA", "display_address": ["5600 Paseo Del Norte", "115-A, North Entrance", "Carlsbad, CA 92008"]}, "phone": "+17604318010", "display_phone": "(760) 431-8010", "distance": 10954.692820063596}, {"id": "_nwTjLnsIr3_zfUtVnUvPg", "alias": "wasabi-japanese-cuisine-vista", "name": "Wasabi Japanese Cuisine", "image_url": "https://s3-media3.fl.yelpcdn.com/bphoto/QCnEOqYC0wqWLK5vYW21Gw/o.jpg", "is_closed": false, "url": "https://www.yelp.com/biz/wasabi-japanese-cuisine-vista?adjust_creative=oncXGL2aPIKrtJdnWeFSnA&utm_campaign=yelp_api_v3&utm_medium=api_v3_business_search&utm_source=oncXGL2aPIKrtJdnWeFSnA", "review_count": 187, "categories": [{"alias": "sushi", "title": "Sushi Bars"}, {"alias": "japanese", "title": "Japanese"}], "rating": 3.5, "coordinates": {"latitude": 33.1655049177811, "longitude": -117.244951954735}, "transactions": ["pickup", "delivery"], "price": "$$", "location": {"address1": "1688 S Melrose Dr", "address2": "Ste 212", "address3": "", "city": "Vista", "zip_code": "92081", "country": "US", "state": "CA", "display_address": ["1688 S Melrose Dr", "Ste 212", "Vista, CA 92081"]}, "phone": "+17607278090", "display_phone": "(760) 727-8090", "distance": 9576.26850816226}, {"id": "oyEIQJrfLd8zYU7-_51P0A", "alias": "wok-n-bowl-carlsbad-2", "name": "Wok 'N' Bowl", "image_url": "https://s3-media3.fl.yelpcdn.com/bphoto/g74I3CUpsWIYrGiEm8vTHA/o.jpg", "is_closed": false, "url": "https://www.yelp.com/biz/wok-n-bowl-carlsbad-2?adjust_creative=oncXGL2aPIKrtJdnWeFSnA&utm_campaign=yelp_api_v3&utm_medium=api_v3_business_search&utm_source=oncXGL2aPIKrtJdnWeFSnA", "review_count": 79, "categories": [{"alias": "ramen", "title": "Ramen"}], "rating": 2.5, "coordinates": {"latitude": 33.1265972753684, "longitude": -117.313826821953}, "transactions": [], "price": "$$", "location": {"address1": "1 Legoland Dr", "address2": "", "address3": "", "city": "Carlsbad", "zip_code": "92008", "country": "US", "state": "CA", "display_address": ["1 Legoland Dr", "Carlsbad, CA 92008"]}, "phone": "", "display_phone": "", "distance": 11061.577437745516}, {"id": "IRPYkrOnsTRMS1BIobXFjQ", "alias": "katsu-seafood-and-steak-house-san-marcos", "name": "Katsu Seafood & Steak House", "image_url": "https://s3-media1.fl.yelpcdn.com/bphoto/NyJoHoEh-Z7Wemkdd3X1SA/o.jpg", "is_closed": false, "url": "https://www.yelp.com/biz/katsu-seafood-and-steak-house-san-marcos?adjust_creative=oncXGL2aPIKrtJdnWeFSnA&utm_campaign=yelp_api_v3&utm_medium=api_v3_business_search&utm_source=oncXGL2aPIKrtJdnWeFSnA", "review_count": 260, "categories": [{"alias": "sushi", "title": "Sushi Bars"}, {"alias": "japanese", "title": "Japanese"}], "rating": 3.0, "coordinates": {"latitude": 33.1353530883789, "longitude": -117.189910888672}, "transactions": [], "price": "$$", "location": {"address1": "1020 W San Marcos Blvd", "address2": "Ste 150", "address3": "", "city": "San Marcos", "zip_code": "92078", "country": "US", "state": "CA", "display_address": ["1020 W San Marcos Blvd", "Ste 150", "San Marcos, CA 92078"]}, "phone": "+17607447156", "display_phone": "(760) 744-7156", "distance": 15671.298287363858}, {"id": "PT7mWAroPG42aRPaD0rTew", "alias": "umi-restaurant-encinitas", "name": "UMI-Restaurant", "image_url": "https://s3-media2.fl.yelpcdn.com/bphoto/SikavGkLyi5dY1xkb0Vztg/o.jpg", "is_closed": false, "url": "https://www.yelp.com/biz/umi-restaurant-encinitas?adjust_creative=oncXGL2aPIKrtJdnWeFSnA&utm_campaign=yelp_api_v3&utm_medium=api_v3_business_search&utm_source=oncXGL2aPIKrtJdnWeFSnA", "review_count": 76, "categories": [{"alias": "sushi", "title": "Sushi Bars"}, {"alias": "ramen", "title": "Ramen"}, {"alias": "noodles", "title": "Noodles"}], "rating": 4.0, "coordinates": {"latitude": 33.07045, "longitude": -117.30456}, "transactions": [], "price": "$$", "location": {"address1": "1246 North Coast Hwy 101", "address2": "", "address3": null, "city": "Encinitas", "zip_code": "92024", "country": "US", "state": "CA", "display_address": ["1246 North Coast Hwy 101", "Encinitas, CA 92024"]}, "phone": "+17604421900", "display_phone": "(760) 442-1900", "distance": 17334.824715648592}, {"id": "GNQ2OBScY0miZg7au4-Kyg", "alias": "sushi-station-san-marcos", "name": "Sushi Station", "image_url": "https://s3-media1.fl.yelpcdn.com/bphoto/pEV5Im3PVZHpOU4bVrgX4A/o.jpg", "is_closed": false, "url": "https://www.yelp.com/biz/sushi-station-san-marcos?adjust_creative=oncXGL2aPIKrtJdnWeFSnA&utm_campaign=yelp_api_v3&utm_medium=api_v3_business_search&utm_source=oncXGL2aPIKrtJdnWeFSnA", "review_count": 165, "categories": [{"alias": "sushi", "title": "Sushi Bars"}, {"alias": "japanese", "title": "Japanese"}], "rating": 3.5, "coordinates": {"latitude": 33.130431, "longitude": -117.209911}, "transactions": [], "price": "$$", "location": {"address1": "1915 W San Marcos Blvd", "address2": "Ste 120", "address3": "", "city": "San Marcos", "zip_code": "92078", "country": "US", "state": "CA", "display_address": ["1915 W San Marcos Blvd", "Ste 120", "San Marcos, CA 92078"]}, "phone": "+17605978911", "display_phone": "(760) 597-8911", "distance": 14645.935880820414}, {"id": "gHY4XgIoCIXHvkk7zeOjWQ", "alias": "hyuga-sushi-san-marcos", "name": "Hyuga Sushi", "image_url": "https://s3-media1.fl.yelpcdn.com/bphoto/-wO7vNIqtwtmq1CXKih16A/o.jpg", "is_closed": false, "url": "https://www.yelp.com/biz/hyuga-sushi-san-marcos?adjust_creative=oncXGL2aPIKrtJdnWeFSnA&utm_campaign=yelp_api_v3&utm_medium=api_v3_business_search&utm_source=oncXGL2aPIKrtJdnWeFSnA", "review_count": 227, "categories": [{"alias": "japanese", "title": "Japanese"}, {"alias": "sushi", "title": "Sushi Bars"}, {"alias": "soup", "title": "Soup"}], "rating": 4.0, "coordinates": {"latitude": 33.13647, "longitude": -117.18331}, "transactions": ["pickup"], "price": "$$", "location": {"address1": "844 W San Marcos Blvd", "address2": "Ste 108", "address3": "", "city": "San Marcos", "zip_code": "92078", "country": "US", "state": "CA", "display_address": ["844 W San Marcos Blvd", "Ste 108", "San Marcos, CA 92078"]}, "phone": "+17605109307", "display_phone": "(760) 510-9307", "distance": 16000.343949385559}, {"id": "GvP_tiCFKw25wLcslMXLQQ", "alias": "tomoyama-sushi-carlsbad-2", "name": "Tomoyama Sushi", "image_url": "https://s3-media3.fl.yelpcdn.com/bphoto/WSUDJRwnOtbx3_pvP7uSiA/o.jpg", "is_closed": false, "url": "https://www.yelp.com/biz/tomoyama-sushi-carlsbad-2?adjust_creative=oncXGL2aPIKrtJdnWeFSnA&utm_campaign=yelp_api_v3&utm_medium=api_v3_business_search&utm_source=oncXGL2aPIKrtJdnWeFSnA", "review_count": 442, "categories": [{"alias": "sushi", "title": "Sushi Bars"}, {"alias": "korean", "title": "Korean"}, {"alias": "japanese", "title": "Japanese"}], "rating": 3.5, "coordinates": {"latitude": 33.1042105934461, "longitude": -117.268475714474}, "transactions": [], "price": "$$", "location": {"address1": "6949 El Camino Real", "address2": "Ste 201B", "address3": "", "city": "Carlsbad", "zip_code": "92009", "country": "US", "state": "CA", "display_address": ["6949 El Camino Real", "Ste 201B", "Carlsbad, CA 92009"]}, "phone": "+17609300215", "display_phone": "(760) 930-0215", "distance": 14312.171254558327}, {"id": "FGK2eueQkAPsbsN4PYpzAA", "alias": "sushi-on-the-edge-vista-2", "name": "Sushi On The Edge", "image_url": "https://s3-media3.fl.yelpcdn.com/bphoto/ULepH6NLDz-7HhzkGiVK_w/o.jpg", "is_closed": false, "url": "https://www.yelp.com/biz/sushi-on-the-edge-vista-2?adjust_creative=oncXGL2aPIKrtJdnWeFSnA&utm_campaign=yelp_api_v3&utm_medium=api_v3_business_search&utm_source=oncXGL2aPIKrtJdnWeFSnA", "review_count": 259, "categories": [{"alias": "sushi", "title": "Sushi Bars"}, {"alias": "japanese", "title": "Japanese"}], "rating": 3.0, "coordinates": {"latitude": 33.1652930596376, "longitude": -117.24794735293}, "transactions": ["pickup", "delivery"], "price": "$$", "location": {"address1": "1611 S Melrose Dr", "address2": "Ste P", "address3": "", "city": "Vista", "zip_code": "92081", "country": "US", "state": "CA", "display_address": ["1611 S Melrose Dr", "Ste P", "Vista, CA 92081"]}, "phone": "+17605999982", "display_phone": "(760) 599-9982", "distance": 9396.884037780366}, {"id": "ZYWI24wbu4lMeXJuAjUkDQ", "alias": "sushi-smackdown-carlsbad-4", "name": "Sushi Smackdown", "image_url": "https://s3-media2.fl.yelpcdn.com/bphoto/j_S2LVPNSvc3R4kfmS2k9w/o.jpg", "is_closed": false, "url": "https://www.yelp.com/biz/sushi-smackdown-carlsbad-4?adjust_creative=oncXGL2aPIKrtJdnWeFSnA&utm_campaign=yelp_api_v3&utm_medium=api_v3_business_search&utm_source=oncXGL2aPIKrtJdnWeFSnA", "review_count": 144, "categories": [{"alias": "sushi", "title": "Sushi Bars"}, {"alias": "japanese", "title": "Japanese"}], "rating": 3.5, "coordinates": {"latitude": 33.1071624755859, "longitude": -117.294876098633}, "transactions": [], "price": "$$$", "location": {"address1": "", "address2": null, "address3": "", "city": "Carlsbad", "zip_code": "92011", "country": "US", "state": "CA", "display_address": ["Carlsbad, CA 92011"]}, "phone": "+18885375558", "display_phone": "(888) 537-5558", "distance": 13581.57392663743}, {"id": "CnUBxYOvnwQr3rpRKatYIQ", "alias": "umai-sushi-and-yakitori-san-marcos", "name": "Umai Sushi & Yakitori", "image_url": "https://s3-media2.fl.yelpcdn.com/bphoto/Lb-WcoTVEMtC6_FeKRiU3g/o.jpg", "is_closed": false, "url": "https://www.yelp.com/biz/umai-sushi-and-yakitori-san-marcos?adjust_creative=oncXGL2aPIKrtJdnWeFSnA&utm_campaign=yelp_api_v3&utm_medium=api_v3_business_search&utm_source=oncXGL2aPIKrtJdnWeFSnA", "review_count": 403, "categories": [{"alias": "japanese", "title": "Japanese"}, {"alias": "sushi", "title": "Sushi Bars"}], "rating": 3.5, "coordinates": {"latitude": 33.134206, "longitude": -117.119256}, "transactions": [], "price": "$$", "location": {"address1": "730 Nordahl Rd", "address2": "Ste 108", "address3": "", "city": "San Marcos", "zip_code": "92069", "country": "US", "state": "CA", "display_address": ["730 Nordahl Rd", "Ste 108", "San Marcos, CA 92069"]}, "phone": "+17602330888", "display_phone": "(760) 233-0888", "distance": 21141.663668887017}], "total": 46, "region": {"center": {"longitude": -117.31819152832031, "latitude": 33.226009439623446}}}