{"businesses": [{"id": "4VO1vT_WFQzw-9c2FMuVug", "alias": "kosher-barbecue-bounty-and-steak-night-carlsbad", "name": "Kosher Barbecue Bounty & Steak Night", "image_url": "https://s3-media4.fl.yelpcdn.com/bphoto/ZsynhaWqYJG66C8BQxfiXA/o.jpg", "is_closed": false, "url": "https://www.yelp.com/biz/kosher-barbecue-bounty-and-steak-night-carlsbad?adjust_creative=oncXGL2aPIKrtJdnWeFSnA&utm_campaign=yelp_api_v3&utm_medium=api_v3_business_search&utm_source=oncXGL2aPIKrtJdnWeFSnA", "review_count": 3, "categories": [{"alias": "kosher", "title": "Kosher"}], "rating": 5.0, "coordinates": {"latitude": 33.08596, "longitude": -117.26609}, "transactions": [], "location": {"address1": "1980 La Costa Ave", "address2": "", "address3": "", "city": "Carlsbad", "zip_code": "92009", "country": "US", "state": "CA", "display_address": ["1980 La Costa Ave", "Carlsbad, CA 92009"]}, "phone": "+17609438891", "display_phone": "(760) 943-8891", "distance": 16313.224171202912}, {"id": "M9htuhrsaFepzIHxtmqbWA", "alias": "place-cafe-at-the-jcc-la-jolla", "name": "Place Cafe at The JCC", "image_url": "https://s3-media3.fl.yelpcdn.com/bphoto/MO4zLZ9yfEelAcxYrJdsSA/o.jpg", "is_closed": false, "url": "https://www.yelp.com/biz/place-cafe-at-the-jcc-la-jolla?adjust_creative=oncXGL2aPIKrtJdnWeFSnA&utm_campaign=yelp_api_v3&utm_medium=api_v3_business_search&utm_source=oncXGL2aPIKrtJdnWeFSnA", "review_count": 40, "categories": [{"alias": "kosher", "title": "Kosher"}, {"alias": "mediterranean", "title": "Mediterranean"}], "rating": 4.5, "coordinates": {"latitude": 32.8752449, "longitude": -117.2157805}, "transactions": [], "price": "$$", "location": {"address1": "4126 Executive Dr", "address2": "", "address3": "", "city": "La Jolla", "zip_code": "92037", "country": "US", "state": "CA", "display_address": ["4126 Executive Dr", "La Jolla, CA 92037"]}, "phone": "+18584573030", "display_phone": "(858) 457-3030", "distance": 40131.968336122525}, {"id": "vdjPo-RHFxY04RgBvwZ3Ug", "alias": "the-kosher-bite-laguna-hills", "name": "The Kosher Bite", "image_url": "https://s3-media4.fl.yelpcdn.com/bphoto/OGn_BGFmGAw2WTMEdyYgJg/o.jpg", "is_closed": false, "url": "https://www.yelp.com/biz/the-kosher-bite-laguna-hills?adjust_creative=oncXGL2aPIKrtJdnWeFSnA&utm_campaign=yelp_api_v3&utm_medium=api_v3_business_search&utm_source=oncXGL2aPIKrtJdnWeFSnA", "review_count": 127, "categories": [{"alias": "delis", "title": "Delis"}, {"alias": "kosher", "title": "Kosher"}], "rating": 4.0, "coordinates": {"latitude": 33.6195554732439, "longitude": -117.733263867737}, "transactions": [], "price": "$", "location": {"address1": "23595 Moulton Pkwy", "address2": "Ste H", "address3": "", "city": "Laguna Hills", "zip_code": "92653", "country": "US", "state": "CA", "display_address": ["23595 Moulton Pkwy", "Ste H", "Laguna Hills, CA 92653"]}, "phone": "+19497701818", "display_phone": "(949) 770-1818", "distance": 58299.588087771626}, {"id": "SUvIYqqkRYW7tq6qiC68AQ", "alias": "moishes-grill-san-diego", "name": "Moishe's Grill", "image_url": "https://s3-media1.fl.yelpcdn.com/bphoto/KlPjGDKxJs5v4FR3r-dYgw/o.jpg", "is_closed": false, "url": "https://www.yelp.com/biz/moishes-grill-san-diego?adjust_creative=oncXGL2aPIKrtJdnWeFSnA&utm_campaign=yelp_api_v3&utm_medium=api_v3_business_search&utm_source=oncXGL2aPIKrtJdnWeFSnA", "review_count": 1, "categories": [{"alias": "kosher", "title": "Kosher"}], "rating": 5.0, "coordinates": {"latitude": 32.7663161643654, "longitude": -117.06666469574}, "transactions": [], "location": {"address1": "4855 College Ave", "address2": "Beth Jacob Congregation", "address3": null, "city": "San Diego", "zip_code": "92115", "country": "US", "state": "CA", "display_address": ["4855 College Ave", "Beth Jacob Congregation", "San Diego, CA 92115"]}, "phone": "+16198175914", "display_phone": "(619) 817-5914", "distance": 56240.86942140462}], "total": 4, "region": {"center": {"longitude": -117.31819152832031, "latitude": 33.226009439623446}}}