{"businesses": [{"id": "PQRyDSABKOHV9EVc5ie9VA", "alias": "food-affair-san-diego-2", "name": "Food Affair", "image_url": "https://s3-media2.fl.yelpcdn.com/bphoto/YBSVQW69b8OSUvZbwbj5kg/o.jpg", "is_closed": false, "url": "https://www.yelp.com/biz/food-affair-san-diego-2?adjust_creative=oncXGL2aPIKrtJdnWeFSnA&utm_campaign=yelp_api_v3&utm_medium=api_v3_business_search&utm_source=oncXGL2aPIKrtJdnWeFSnA", "review_count": 5, "categories": [{"alias": "laotian", "title": "Laotian"}, {"alias": "asianfusion", "title": "Asian Fusion"}, {"alias": "foodtrucks", "title": "Food Trucks"}], "rating": 5.0, "coordinates": {"latitude": 32.75975, "longitude": -117.12983}, "transactions": [], "location": {"address1": "4535 30th St", "address2": "Ste 108", "address3": null, "city": "San Diego", "zip_code": "92116", "country": "US", "state": "CA", "display_address": ["4535 30th St", "Ste 108", "San Diego, CA 92116"]}, "phone": "+18552672736", "display_phone": "(855) 267-2736", "distance": 54725.554924864104}, {"id": "GFJAufpeNCw_qBBjVhGa_g", "alias": "mekong-cuisine-lao-and-thai-san-diego", "name": "Mekong Cuisine Lao and Thai", "image_url": "https://s3-media2.fl.yelpcdn.com/bphoto/8BSNWmm8nfF-hKoQF1caOw/o.jpg", "is_closed": false, "url": "https://www.yelp.com/biz/mekong-cuisine-lao-and-thai-san-diego?adjust_creative=oncXGL2aPIKrtJdnWeFSnA&utm_campaign=yelp_api_v3&utm_medium=api_v3_business_search&utm_source=oncXGL2aPIKrtJdnWeFSnA", "review_count": 362, "categories": [{"alias": "laotian", "title": "Laotian"}, {"alias": "thai", "title": "Thai"}, {"alias": "seafood", "title": "Seafood"}], "rating": 4.5, "coordinates": {"latitude": 32.8146899, "longitude": -117.1544739}, "transactions": ["delivery", "pickup"], "price": "$", "location": {"address1": "3904 Convoy St", "address2": "Ste 112", "address3": "", "city": "San Diego", "zip_code": "92111", "country": "US", "state": "CA", "display_address": ["3904 Convoy St", "Ste 112", "San Diego, CA 92111"]}, "phone": "+18582791879", "display_phone": "(858) 279-1879", "distance": 48216.45471189393}, {"id": "YOJ4gJZmur77QowlMPeS4Q", "alias": "kra-z-kai-s-laotian-barbeque-corona", "name": "Kra Z Kai\u2019s Laotian Barbeque", "image_url": "https://s3-media1.fl.yelpcdn.com/bphoto/WcsKRP5HdXaLEwSAyO48pA/o.jpg", "is_closed": false, "url": "https://www.yelp.com/biz/kra-z-kai-s-laotian-barbeque-corona?adjust_creative=oncXGL2aPIKrtJdnWeFSnA&utm_campaign=yelp_api_v3&utm_medium=api_v3_business_search&utm_source=oncXGL2aPIKrtJdnWeFSnA", "review_count": 115, "categories": [{"alias": "laotian", "title": "Laotian"}, {"alias": "bbq", "title": "Barbeque"}], "rating": 5.0, "coordinates": {"latitude": 33.8639305423381, "longitude": -117.541932364286}, "transactions": [], "price": "$", "location": {"address1": "1218 Magnolia Ave", "address2": "Ste G110", "address3": null, "city": "Corona", "zip_code": "92881", "country": "US", "state": "CA", "display_address": ["1218 Magnolia Ave", "Ste G110", "Corona, CA 92881"]}, "phone": "+19512686968", "display_phone": "(951) 268-6968", "distance": 73902.00045326073}, {"id": "lgGz02QjawZy5NRohvbPZA", "alias": "ban-lao-cuisine-san-diego", "name": "Ban Lao Cuisine", "image_url": "https://s3-media1.fl.yelpcdn.com/bphoto/07vx5bKJy2G6_JbuJj9CPg/o.jpg", "is_closed": false, "url": "https://www.yelp.com/biz/ban-lao-cuisine-san-diego?adjust_creative=oncXGL2aPIKrtJdnWeFSnA&utm_campaign=yelp_api_v3&utm_medium=api_v3_business_search&utm_source=oncXGL2aPIKrtJdnWeFSnA", "review_count": 264, "categories": [{"alias": "laotian", "title": "Laotian"}, {"alias": "thai", "title": "Thai"}], "rating": 4.5, "coordinates": {"latitude": 32.750045985705, "longitude": -117.105854786932}, "transactions": [], "price": "$", "location": {"address1": "4126 University Ave", "address2": "", "address3": null, "city": "San Diego", "zip_code": "92105", "country": "US", "state": "CA", "display_address": ["4126 University Ave", "San Diego, CA 92105"]}, "phone": "+16195011378", "display_phone": "(619) 501-1378", "distance": 56508.63485697445}, {"id": "O7SDbQSCViD39JRSHtr9Tg", "alias": "sang-dao-san-diego", "name": "Sang Dao", "image_url": "https://s3-media3.fl.yelpcdn.com/bphoto/1cVsgSHR1Vey36gB5oqVNg/o.jpg", "is_closed": false, "url": "https://www.yelp.com/biz/sang-dao-san-diego?adjust_creative=oncXGL2aPIKrtJdnWeFSnA&utm_campaign=yelp_api_v3&utm_medium=api_v3_business_search&utm_source=oncXGL2aPIKrtJdnWeFSnA", "review_count": 648, "categories": [{"alias": "thai", "title": "Thai"}, {"alias": "laotian", "title": "Laotian"}], "rating": 4.0, "coordinates": {"latitude": 32.7577948, "longitude": -117.0787437}, "transactions": [], "price": "$", "location": {"address1": "5421 El Cajon Blvd", "address2": "", "address3": "", "city": "San Diego", "zip_code": "92115", "country": "US", "state": "CA", "display_address": ["5421 El Cajon Blvd", "San Diego, CA 92115"]}, "phone": "+16192630914", "display_phone": "(619) 263-0914", "distance": 56672.31400623942}, {"id": "FwadWc5qKmVhiWZWqzgHdA", "alias": "harborside-thai-lao-and-sushi-san-diego", "name": "Harborside Thai, Lao & Sushi", "image_url": "https://s3-media2.fl.yelpcdn.com/bphoto/7RuPMTELsxURaMlOeeXNCA/o.jpg", "is_closed": false, "url": "https://www.yelp.com/biz/harborside-thai-lao-and-sushi-san-diego?adjust_creative=oncXGL2aPIKrtJdnWeFSnA&utm_campaign=yelp_api_v3&utm_medium=api_v3_business_search&utm_source=oncXGL2aPIKrtJdnWeFSnA", "review_count": 142, "categories": [{"alias": "sushi", "title": "Sushi Bars"}, {"alias": "thai", "title": "Thai"}, {"alias": "laotian", "title": "Laotian"}], "rating": 3.5, "coordinates": {"latitude": 32.6931299, "longitude": -117.13275}, "transactions": [], "price": "$$", "location": {"address1": "2844 Main St", "address2": "Ste B", "address3": "", "city": "San Diego", "zip_code": "92113", "country": "US", "state": "CA", "display_address": ["2844 Main St", "Ste B", "San Diego, CA 92113"]}, "phone": "+16192698424", "display_phone": "(619) 269-8424", "distance": 61722.7485136727}, {"id": "tQk3-VG7VJiZaxHpbBq62A", "alias": "lao-community-market-san-diego", "name": "Lao Community Market", "image_url": "https://s3-media4.fl.yelpcdn.com/bphoto/v4kDd2mTCsHX0ldTsIbDtQ/o.jpg", "is_closed": false, "url": "https://www.yelp.com/biz/lao-community-market-san-diego?adjust_creative=oncXGL2aPIKrtJdnWeFSnA&utm_campaign=yelp_api_v3&utm_medium=api_v3_business_search&utm_source=oncXGL2aPIKrtJdnWeFSnA", "review_count": 60, "categories": [{"alias": "laotian", "title": "Laotian"}, {"alias": "thai", "title": "Thai"}], "rating": 4.5, "coordinates": {"latitude": 32.70464, "longitude": -117.09406}, "transactions": [], "price": "$", "location": {"address1": "110 47th St", "address2": "", "address3": "", "city": "San Diego", "zip_code": "92102", "country": "US", "state": "CA", "display_address": ["110 47th St", "San Diego, CA 92102"]}, "phone": "+16194938525", "display_phone": "(619) 493-8525", "distance": 61646.51815150066}, {"id": "EngdJJQ6hbhgCzDTaapJtg", "alias": "bane-phonkeos-san-diego-4", "name": "Bane Phonkeo's", "image_url": "https://s3-media2.fl.yelpcdn.com/bphoto/V-gxtvvRAUQWxvBDEct4Ag/o.jpg", "is_closed": false, "url": "https://www.yelp.com/biz/bane-phonkeos-san-diego-4?adjust_creative=oncXGL2aPIKrtJdnWeFSnA&utm_campaign=yelp_api_v3&utm_medium=api_v3_business_search&utm_source=oncXGL2aPIKrtJdnWeFSnA", "review_count": 51, "categories": [{"alias": "laotian", "title": "Laotian"}], "rating": 4.0, "coordinates": {"latitude": 32.70462, "longitude": -117.094063}, "transactions": [], "price": "$", "location": {"address1": "110 47th St", "address2": "", "address3": "", "city": "San Diego", "zip_code": "92102", "country": "US", "state": "CA", "display_address": ["110 47th St", "San Diego, CA 92102"]}, "phone": "+16194938525", "display_phone": "(619) 493-8525", "distance": 61646.51815150066}, {"id": "qUdgq62qKKL0RBYTsR2Daw", "alias": "vientiane-lao-thai-garden-grove", "name": "Vientiane Lao Thai", "image_url": "https://s3-media2.fl.yelpcdn.com/bphoto/2W70gg9RI2MwEZZhH76k9Q/o.jpg", "is_closed": false, "url": "https://www.yelp.com/biz/vientiane-lao-thai-garden-grove?adjust_creative=oncXGL2aPIKrtJdnWeFSnA&utm_campaign=yelp_api_v3&utm_medium=api_v3_business_search&utm_source=oncXGL2aPIKrtJdnWeFSnA", "review_count": 1067, "categories": [{"alias": "thai", "title": "Thai"}, {"alias": "laotian", "title": "Laotian"}], "rating": 4.0, "coordinates": {"latitude": 33.7589546173768, "longitude": -117.949879196061}, "transactions": [], "price": "$", "location": {"address1": "10262 Westminster Ave", "address2": "", "address3": "", "city": "Garden Grove", "zip_code": "92843", "country": "US", "state": "CA", "display_address": ["10262 Westminster Ave", "Garden Grove, CA 92843"]}, "phone": "+17145307523", "display_phone": "(714) 530-7523", "distance": 83325.24213404983}, {"id": "B96w8ghnSm43744A2-lUDg", "alias": "royal-king-elephant-garden-grove", "name": "Royal King Elephant", "image_url": "https://s3-media1.fl.yelpcdn.com/bphoto/yhpncdKIMCCVxQ5cNJSKwA/o.jpg", "is_closed": false, "url": "https://www.yelp.com/biz/royal-king-elephant-garden-grove?adjust_creative=oncXGL2aPIKrtJdnWeFSnA&utm_campaign=yelp_api_v3&utm_medium=api_v3_business_search&utm_source=oncXGL2aPIKrtJdnWeFSnA", "review_count": 285, "categories": [{"alias": "laotian", "title": "Laotian"}, {"alias": "thai", "title": "Thai"}], "rating": 4.5, "coordinates": {"latitude": 33.7736792258459, "longitude": -117.959426707965}, "transactions": [], "price": "$$", "location": {"address1": "9924 Garden Grove Blvd", "address2": null, "address3": "", "city": "Garden Grove", "zip_code": "92844", "country": "US", "state": "CA", "display_address": ["9924 Garden Grove Blvd", "Garden Grove, CA 92844"]}, "phone": "+17146381887", "display_phone": "(714) 638-1887", "distance": 85110.12268019326}, {"id": "F38sV2kXv-KpRvpP2islSQ", "alias": "e-san-rod-sap-anaheim", "name": "E-San Rod-Sap", "image_url": "https://s3-media1.fl.yelpcdn.com/bphoto/OC1PNB2ne-87HMY6ZgysFw/o.jpg", "is_closed": false, "url": "https://www.yelp.com/biz/e-san-rod-sap-anaheim?adjust_creative=oncXGL2aPIKrtJdnWeFSnA&utm_campaign=yelp_api_v3&utm_medium=api_v3_business_search&utm_source=oncXGL2aPIKrtJdnWeFSnA", "review_count": 304, "categories": [{"alias": "thai", "title": "Thai"}, {"alias": "laotian", "title": "Laotian"}, {"alias": "desserts", "title": "Desserts"}], "rating": 4.0, "coordinates": {"latitude": 33.84739, "longitude": -117.94257}, "transactions": [], "price": "$", "location": {"address1": "1719 W La Palma Ave", "address2": "", "address3": "", "city": "Anaheim", "zip_code": "92801", "country": "US", "state": "CA", "display_address": ["1719 W La Palma Ave", "Anaheim, CA 92801"]}, "phone": "+17149990563", "display_phone": "(714) 999-0563", "distance": 90135.6062494828}, {"id": "_IFuwmOaSHeB5IfM4nnQyw", "alias": "fuzion-five-palm-springs", "name": "Fuzion Five", "image_url": "https://s3-media3.fl.yelpcdn.com/bphoto/HBSLLaHLrWrK2mj_TTMCoA/o.jpg", "is_closed": false, "url": "https://www.yelp.com/biz/fuzion-five-palm-springs?adjust_creative=oncXGL2aPIKrtJdnWeFSnA&utm_campaign=yelp_api_v3&utm_medium=api_v3_business_search&utm_source=oncXGL2aPIKrtJdnWeFSnA", "review_count": 149, "categories": [{"alias": "vietnamese", "title": "Vietnamese"}, {"alias": "laotian", "title": "Laotian"}], "rating": 4.0, "coordinates": {"latitude": 33.8196145431414, "longitude": -116.547174210232}, "transactions": [], "price": "$$", "location": {"address1": "285 S Palm Canyon Dr", "address2": "", "address3": null, "city": "Palm Springs", "zip_code": "92262", "country": "US", "state": "CA", "display_address": ["285 S Palm Canyon Dr", "Palm Springs, CA 92262"]}, "phone": "+17603226162", "display_phone": "(760) 322-6162", "distance": 97288.21046577979}], "total": 12, "region": {"center": {"longitude": -117.31819152832031, "latitude": 33.226009439623446}}}