{"businesses": [{"id": "dHgtMTfBTnWME34qyQf0Ag", "alias": "el-chap\u00edn-oceanside-6", "name": "El Chap\u00edn", "image_url": "https://s3-media1.fl.yelpcdn.com/bphoto/V0NSbTQn6dAksitA71L4pg/o.jpg", "is_closed": false, "url": "https://www.yelp.com/biz/el-chap%C3%ADn-oceanside-6?adjust_creative=oncXGL2aPIKrtJdnWeFSnA&utm_campaign=yelp_api_v3&utm_medium=api_v3_business_search&utm_source=oncXGL2aPIKrtJdnWeFSnA", "review_count": 111, "categories": [{"alias": "latin", "title": "Latin American"}, {"alias": "empanadas", "title": "Empanadas"}], "rating": 4.5, "coordinates": {"latitude": 33.22436, "longitude": -117.33183}, "transactions": ["pickup"], "price": "$$", "location": {"address1": "3753 Mission Ave", "address2": "Ste 121A", "address3": null, "city": "Oceanside", "zip_code": "92058", "country": "US", "state": "CA", "display_address": ["3753 Mission Ave", "Ste 121A", "Oceanside, CA 92058"]}, "phone": "+17608427683", "display_phone": "(760) 842-7683", "distance": 1268.2401998369003}, {"id": "RqIY61uAMC-pZucPUoy8Dg", "alias": "le-papagayo-encinitas", "name": "Le Papagayo", "image_url": "https://s3-media3.fl.yelpcdn.com/bphoto/3D83Waz_BiclHdYgLiTkhQ/o.jpg", "is_closed": false, "url": "https://www.yelp.com/biz/le-papagayo-encinitas?adjust_creative=oncXGL2aPIKrtJdnWeFSnA&utm_campaign=yelp_api_v3&utm_medium=api_v3_business_search&utm_source=oncXGL2aPIKrtJdnWeFSnA", "review_count": 1136, "categories": [{"alias": "latin", "title": "Latin American"}, {"alias": "breakfast_brunch", "title": "Breakfast & Brunch"}], "rating": 4.0, "coordinates": {"latitude": 33.066291, "longitude": -117.3031}, "transactions": [], "price": "$$", "location": {"address1": "1002 N Coast Hwy 101", "address2": null, "address3": "", "city": "Encinitas", "zip_code": "92024", "country": "US", "state": "CA", "display_address": ["1002 N Coast Hwy 101", "Encinitas, CA 92024"]}, "phone": "+17609448252", "display_phone": "(760) 944-8252", "distance": 17815.352079123793}, {"id": "fpeBODForoETVChU_Ddqsw", "alias": "fiesta-mexicana-oceanside-2", "name": "Fiesta Mexicana", "image_url": "https://s3-media2.fl.yelpcdn.com/bphoto/COSRXKW7KbxG5RGhnL-JWw/o.jpg", "is_closed": false, "url": "https://www.yelp.com/biz/fiesta-mexicana-oceanside-2?adjust_creative=oncXGL2aPIKrtJdnWeFSnA&utm_campaign=yelp_api_v3&utm_medium=api_v3_business_search&utm_source=oncXGL2aPIKrtJdnWeFSnA", "review_count": 141, "categories": [{"alias": "mexican", "title": "Mexican"}, {"alias": "wine_bars", "title": "Wine Bars"}, {"alias": "latin", "title": "Latin American"}], "rating": 4.0, "coordinates": {"latitude": 33.227767, "longitude": -117.331779}, "transactions": [], "price": "$$", "location": {"address1": "3784 Mission Ave", "address2": "Ste D", "address3": "", "city": "Oceanside", "zip_code": "92054", "country": "US", "state": "CA", "display_address": ["3784 Mission Ave", "Ste D", "Oceanside, CA 92054"]}, "phone": "+17607579872", "display_phone": "(760) 757-9872", "distance": 1287.335943706509}, {"id": "5HaVR9oKRqS5o4ois2FgXQ", "alias": "arepas-papachon-encinitas", "name": "Arepas Papachon", "image_url": "https://s3-media3.fl.yelpcdn.com/bphoto/qLWeziHGwx77LlOdfgqGMw/o.jpg", "is_closed": false, "url": "https://www.yelp.com/biz/arepas-papachon-encinitas?adjust_creative=oncXGL2aPIKrtJdnWeFSnA&utm_campaign=yelp_api_v3&utm_medium=api_v3_business_search&utm_source=oncXGL2aPIKrtJdnWeFSnA", "review_count": 13, "categories": [{"alias": "venezuelan", "title": "Venezuelan"}], "rating": 4.5, "coordinates": {"latitude": 33.0579723, "longitude": -117.2971573}, "transactions": [], "price": "$", "location": {"address1": "185 Union St", "address2": null, "address3": "", "city": "Encinitas", "zip_code": "92024", "country": "US", "state": "CA", "display_address": ["185 Union St", "Encinitas, CA 92024"]}, "phone": "+17606962060", "display_phone": "(760) 696-2060", "distance": 18817.151671926702}, {"id": "I-81dtTCjEy7nkT6TS3dCg", "alias": "las-pupusas-mama-lita-restaurant-salvadore\u00f1o-vista", "name": "Las Pupusas Mama Lita Restaurant Salvadore\u00f1o", "image_url": "https://s3-media2.fl.yelpcdn.com/bphoto/_MuFE4Om6LmDH2UUS8nzAQ/o.jpg", "is_closed": false, "url": "https://www.yelp.com/biz/las-pupusas-mama-lita-restaurant-salvadore%C3%B1o-vista?adjust_creative=oncXGL2aPIKrtJdnWeFSnA&utm_campaign=yelp_api_v3&utm_medium=api_v3_business_search&utm_source=oncXGL2aPIKrtJdnWeFSnA", "review_count": 136, "categories": [{"alias": "salvadoran", "title": "Salvadoran"}], "rating": 4.5, "coordinates": {"latitude": 33.220068, "longitude": -117.245431}, "transactions": [], "price": "$", "location": {"address1": "1450 N Santa Fe Ave", "address2": "Ste E", "address3": "", "city": "Vista", "zip_code": "92083", "country": "US", "state": "CA", "display_address": ["1450 N Santa Fe Ave", "Ste E", "Vista, CA 92083"]}, "phone": "+17609419197", "display_phone": "(760) 941-9197", "distance": 6800.305022255168}, {"id": "LGfejREl45FTacWjn-W4Lg", "alias": "el-chapin-restaurant-vista", "name": "El Chapin Restaurant", "image_url": "https://s3-media4.fl.yelpcdn.com/bphoto/RGIe-F2VemTYU1SN8wsndg/o.jpg", "is_closed": false, "url": "https://www.yelp.com/biz/el-chapin-restaurant-vista?adjust_creative=oncXGL2aPIKrtJdnWeFSnA&utm_campaign=yelp_api_v3&utm_medium=api_v3_business_search&utm_source=oncXGL2aPIKrtJdnWeFSnA", "review_count": 6, "categories": [{"alias": "latin", "title": "Latin American"}], "rating": 4.0, "coordinates": {"latitude": 33.2140292, "longitude": -117.2284731}, "transactions": [], "location": {"address1": "1072 E Vista Way", "address2": "", "address3": null, "city": "Vista", "zip_code": "92084", "country": "US", "state": "CA", "display_address": ["1072 E Vista Way", "Vista, CA 92084"]}, "phone": "+17605363488", "display_phone": "(760) 536-3488", "distance": 8385.51609147132}, {"id": "gZntgfa1HZGb2DOkbFpIQA", "alias": "senor-albertos-oceanside", "name": "Senor Alberto's", "image_url": "https://s3-media2.fl.yelpcdn.com/bphoto/RetsqFslWSQNf8TKS5jsVQ/o.jpg", "is_closed": false, "url": "https://www.yelp.com/biz/senor-albertos-oceanside?adjust_creative=oncXGL2aPIKrtJdnWeFSnA&utm_campaign=yelp_api_v3&utm_medium=api_v3_business_search&utm_source=oncXGL2aPIKrtJdnWeFSnA", "review_count": 37, "categories": [{"alias": "mexican", "title": "Mexican"}, {"alias": "latin", "title": "Latin American"}, {"alias": "hotdogs", "title": "Fast Food"}], "rating": 3.0, "coordinates": {"latitude": 33.2450226655832, "longitude": -117.321352706771}, "transactions": [], "price": "$", "location": {"address1": "650 Douglas Dr", "address2": "", "address3": "", "city": "Oceanside", "zip_code": "92058", "country": "US", "state": "CA", "display_address": ["650 Douglas Dr", "Oceanside, CA 92058"]}, "phone": "+14426157303", "display_phone": "(442) 615-7303", "distance": 2134.5172992176026}, {"id": "YTXQaUyNRF2DM7h6_Q9y4A", "alias": "cocina-del-charro-san-marcos", "name": "Cocina Del Charro", "image_url": "https://s3-media4.fl.yelpcdn.com/bphoto/0sFMfEbDQjqaI2LN4RvLyw/o.jpg", "is_closed": false, "url": "https://www.yelp.com/biz/cocina-del-charro-san-marcos?adjust_creative=oncXGL2aPIKrtJdnWeFSnA&utm_campaign=yelp_api_v3&utm_medium=api_v3_business_search&utm_source=oncXGL2aPIKrtJdnWeFSnA", "review_count": 442, "categories": [{"alias": "mexican", "title": "Mexican"}, {"alias": "latin", "title": "Latin American"}, {"alias": "buffets", "title": "Buffets"}], "rating": 3.5, "coordinates": {"latitude": 33.1348588, "longitude": -117.1904449}, "transactions": [], "price": "$$", "location": {"address1": "1020 W San Marcos Blvd", "address2": "Ste 50", "address3": null, "city": "San Marcos", "zip_code": "92078", "country": "US", "state": "CA", "display_address": ["1020 W San Marcos Blvd", "Ste 50", "San Marcos, CA 92078"]}, "phone": "+17604716644", "display_phone": "(760) 471-6644", "distance": 15622.702420500615}, {"id": "Qa-xm7r_0X1rnzHJEzr63Q", "alias": "aydees-garnacheria-fallbrook", "name": "Aydee's Garnacheria", "image_url": "https://s3-media3.fl.yelpcdn.com/bphoto/Htv3TN6XCYwH_NqsmWXvnw/o.jpg", "is_closed": false, "url": "https://www.yelp.com/biz/aydees-garnacheria-fallbrook?adjust_creative=oncXGL2aPIKrtJdnWeFSnA&utm_campaign=yelp_api_v3&utm_medium=api_v3_business_search&utm_source=oncXGL2aPIKrtJdnWeFSnA", "review_count": 18, "categories": [{"alias": "mexican", "title": "Mexican"}, {"alias": "latin", "title": "Latin American"}], "rating": 4.0, "coordinates": {"latitude": 33.3847682439021, "longitude": -117.25103169705}, "transactions": [], "price": "$$", "location": {"address1": "110 E Mission Rd", "address2": "", "address3": "", "city": "Fallbrook", "zip_code": "92028", "country": "US", "state": "CA", "display_address": ["110 E Mission Rd", "Fallbrook, CA 92028"]}, "phone": "+17607230110", "display_phone": "(760) 723-0110", "distance": 18723.977262389264}], "total": 9, "region": {"center": {"longitude": -117.31819152832031, "latitude": 33.226009439623446}}}