{"businesses": [{"id": "qO_F16kpouPnyAjHnWC-Fg", "alias": "sinaloa-mexican-and-seafood-oceanside", "name": "Sinaloa Mexican & Seafood", "image_url": "https://s3-media1.fl.yelpcdn.com/bphoto/7U6tJ9mvPRfHtcP_i1Tkfw/o.jpg", "is_closed": false, "url": "https://www.yelp.com/biz/sinaloa-mexican-and-seafood-oceanside?adjust_creative=oncXGL2aPIKrtJdnWeFSnA&utm_campaign=yelp_api_v3&utm_medium=api_v3_business_search&utm_source=oncXGL2aPIKrtJdnWeFSnA", "review_count": 160, "categories": [{"alias": "seafood", "title": "Seafood"}, {"alias": "mexican", "title": "Mexican"}], "rating": 4.5, "coordinates": {"latitude": 33.189866, "longitude": -117.359567}, "transactions": [], "price": "$", "location": {"address1": "1759 Oceanside Blvd", "address2": "", "address3": "", "city": "Oceanside", "zip_code": "92054", "country": "US", "state": "CA", "display_address": ["1759 Oceanside Blvd", "Oceanside, CA 92054"]}, "phone": "+17606963507", "display_phone": "(760) 696-3507", "distance": 565.213904882379}, {"id": "6gny4J1hEnO_4rbuCsovgw", "alias": "rockin-baja-lobster-oceanside-3", "name": "Rockin' Baja Lobster", "image_url": "https://s3-media4.fl.yelpcdn.com/bphoto/w67Lg2w1D6jHobo01zAkpg/o.jpg", "is_closed": false, "url": "https://www.yelp.com/biz/rockin-baja-lobster-oceanside-3?adjust_creative=oncXGL2aPIKrtJdnWeFSnA&utm_campaign=yelp_api_v3&utm_medium=api_v3_business_search&utm_source=oncXGL2aPIKrtJdnWeFSnA", "review_count": 1008, "categories": [{"alias": "mexican", "title": "Mexican"}, {"alias": "seafood", "title": "Seafood"}, {"alias": "bars", "title": "Bars"}], "rating": 4.0, "coordinates": {"latitude": 33.20421, "longitude": -117.39027}, "transactions": ["delivery", "pickup"], "price": "$$", "location": {"address1": "258 Harbor Dr S", "address2": "", "address3": "", "city": "Oceanside", "zip_code": "92054", "country": "US", "state": "CA", "display_address": ["258 Harbor Dr S", "Oceanside, CA 92054"]}, "phone": "+17609676199", "display_phone": "(760) 967-6199", "distance": 2768.913198847143}, {"id": "6Ge_qt8Ql0H9GUORlv-ryA", "alias": "miramar-fish-tacos-and-beer-oceanside", "name": "Miramar Fish Tacos & Beer", "image_url": "https://s3-media3.fl.yelpcdn.com/bphoto/3LLl3463i_uOHVo2x59Mqw/o.jpg", "is_closed": false, "url": "https://www.yelp.com/biz/miramar-fish-tacos-and-beer-oceanside?adjust_creative=oncXGL2aPIKrtJdnWeFSnA&utm_campaign=yelp_api_v3&utm_medium=api_v3_business_search&utm_source=oncXGL2aPIKrtJdnWeFSnA", "review_count": 966, "categories": [{"alias": "seafood", "title": "Seafood"}, {"alias": "mexican", "title": "Mexican"}, {"alias": "bars", "title": "Bars"}], "rating": 4.5, "coordinates": {"latitude": 33.2266917472111, "longitude": -117.326495720249}, "transactions": [], "price": "$", "location": {"address1": "41 Douglas Dr", "address2": "Ste 100", "address3": "", "city": "Oceanside", "zip_code": "92058", "country": "US", "state": "CA", "display_address": ["41 Douglas Dr", "Ste 100", "Oceanside, CA 92058"]}, "phone": "+17607212147", "display_phone": "(760) 721-2147", "distance": 4950.759934836954}, {"id": "KpNTx88hxJSExi2Qv4VHAw", "alias": "colimas-mexican-restaurant-oceanside", "name": "Colima's Mexican Restaurant", "image_url": "https://s3-media3.fl.yelpcdn.com/bphoto/M8GBpz0wgP1zVh_vcdnGlw/o.jpg", "is_closed": false, "url": "https://www.yelp.com/biz/colimas-mexican-restaurant-oceanside?adjust_creative=oncXGL2aPIKrtJdnWeFSnA&utm_campaign=yelp_api_v3&utm_medium=api_v3_business_search&utm_source=oncXGL2aPIKrtJdnWeFSnA", "review_count": 412, "categories": [{"alias": "mexican", "title": "Mexican"}], "rating": 4.0, "coordinates": {"latitude": 33.196111, "longitude": -117.381584}, "transactions": [], "price": "$", "location": {"address1": "308 Pier View Way", "address2": "", "address3": "", "city": "Oceanside", "zip_code": "92054", "country": "US", "state": "CA", "display_address": ["308 Pier View Way", "Oceanside, CA 92054"]}, "phone": "+17604394045", "display_phone": "(760) 439-4045", "distance": 1759.1191336270888}, {"id": "R7xwbX3eK14pEDuM7cpBaA", "alias": "hello-betty-fish-house-oceanside", "name": "Hello Betty Fish House", "image_url": "https://s3-media3.fl.yelpcdn.com/bphoto/fAgrRSoXWrZ8RE2SMXcxkw/o.jpg", "is_closed": false, "url": "https://www.yelp.com/biz/hello-betty-fish-house-oceanside?adjust_creative=oncXGL2aPIKrtJdnWeFSnA&utm_campaign=yelp_api_v3&utm_medium=api_v3_business_search&utm_source=oncXGL2aPIKrtJdnWeFSnA", "review_count": 1767, "categories": [{"alias": "seafood", "title": "Seafood"}, {"alias": "mexican", "title": "Mexican"}, {"alias": "breakfast_brunch", "title": "Breakfast & Brunch"}], "rating": 3.5, "coordinates": {"latitude": 33.1941892858609, "longitude": -117.381938313849}, "transactions": [], "price": "$$", "location": {"address1": "211 Mission Ave", "address2": "", "address3": "", "city": "Oceanside", "zip_code": "92054", "country": "US", "state": "CA", "display_address": ["211 Mission Ave", "Oceanside, CA 92054"]}, "phone": "+17607221008", "display_phone": "(760) 722-1008", "distance": 1778.6390219393768}, {"id": "XI6H1lN6lx2IARMvM-fIPg", "alias": "jalisco-cantina-oceanside", "name": "Jalisco Cantina", "image_url": "https://s3-media1.fl.yelpcdn.com/bphoto/c1H8ZcoloZdwD6sTgh8leg/o.jpg", "is_closed": false, "url": "https://www.yelp.com/biz/jalisco-cantina-oceanside?adjust_creative=oncXGL2aPIKrtJdnWeFSnA&utm_campaign=yelp_api_v3&utm_medium=api_v3_business_search&utm_source=oncXGL2aPIKrtJdnWeFSnA", "review_count": 132, "categories": [{"alias": "mexican", "title": "Mexican"}, {"alias": "cocktailbars", "title": "Cocktail Bars"}], "rating": 4.0, "coordinates": {"latitude": 33.1962863055193, "longitude": -117.380059895467}, "transactions": [], "price": "$$", "location": {"address1": "213 N Coast Hwy", "address2": "", "address3": null, "city": "Oceanside", "zip_code": "92054", "country": "US", "state": "CA", "display_address": ["213 N Coast Hwy", "Oceanside, CA 92054"]}, "phone": "+17604291679", "display_phone": "(760) 429-1679", "distance": 1621.2141440141968}, {"id": "hjNP2AePX5ml9e_StmH8Lg", "alias": "mariscos-el-pulpo-loko-oceanside-2", "name": "Mariscos El Pulpo Loko", "image_url": "https://s3-media2.fl.yelpcdn.com/bphoto/zVgBOcPU5ovR_Ay6sHtC6Q/o.jpg", "is_closed": false, "url": "https://www.yelp.com/biz/mariscos-el-pulpo-loko-oceanside-2?adjust_creative=oncXGL2aPIKrtJdnWeFSnA&utm_campaign=yelp_api_v3&utm_medium=api_v3_business_search&utm_source=oncXGL2aPIKrtJdnWeFSnA", "review_count": 99, "categories": [{"alias": "mexican", "title": "Mexican"}, {"alias": "seafood", "title": "Seafood"}, {"alias": "bars", "title": "Bars"}], "rating": 4.0, "coordinates": {"latitude": 33.19414, "longitude": -117.35677}, "transactions": ["delivery", "pickup"], "price": "$$", "location": {"address1": "1906 Oceanside Blvd", "address2": null, "address3": "", "city": "Oceanside", "zip_code": "92054", "country": "US", "state": "CA", "display_address": ["1906 Oceanside Blvd", "Oceanside, CA 92054"]}, "phone": "+17605475624", "display_phone": "(760) 547-5624", "distance": 600.7090788934823}, {"id": "gfvYmHkZTp0Kbp0Ye_fBpQ", "alias": "los-tacos-oceanside", "name": "Los Tacos", "image_url": "https://s3-media4.fl.yelpcdn.com/bphoto/kOIoffoBqZFlv-L3FxEulw/o.jpg", "is_closed": false, "url": "https://www.yelp.com/biz/los-tacos-oceanside?adjust_creative=oncXGL2aPIKrtJdnWeFSnA&utm_campaign=yelp_api_v3&utm_medium=api_v3_business_search&utm_source=oncXGL2aPIKrtJdnWeFSnA", "review_count": 522, "categories": [{"alias": "mexican", "title": "Mexican"}], "rating": 4.0, "coordinates": {"latitude": 33.18254, "longitude": -117.34075}, "transactions": [], "price": "$", "location": {"address1": "2183 Vista Way", "address2": "Ste B-9", "address3": "", "city": "Oceanside", "zip_code": "92054", "country": "US", "state": "CA", "display_address": ["2183 Vista Way", "Ste B-9", "Oceanside, CA 92054"]}, "phone": "+17607578226", "display_phone": "(760) 757-8226", "distance": 2405.6688612767384}, {"id": "yY_XZ2wZtGI7rdgX2sxMFg", "alias": "cafe-rosarita-oceanside", "name": "Cafe Rosarita", "image_url": "https://s3-media2.fl.yelpcdn.com/bphoto/WL54wr6gnoWJ7u-H9_S2xQ/o.jpg", "is_closed": false, "url": "https://www.yelp.com/biz/cafe-rosarita-oceanside?adjust_creative=oncXGL2aPIKrtJdnWeFSnA&utm_campaign=yelp_api_v3&utm_medium=api_v3_business_search&utm_source=oncXGL2aPIKrtJdnWeFSnA", "review_count": 121, "categories": [{"alias": "mexican", "title": "Mexican"}], "rating": 4.5, "coordinates": {"latitude": 33.1935432771998, "longitude": -117.359334784131}, "transactions": [], "price": "$$", "location": {"address1": "1816 Oceanside Blvd", "address2": "Ste A", "address3": "", "city": "Oceanside", "zip_code": "92054", "country": "US", "state": "CA", "display_address": ["1816 Oceanside Blvd", "Ste A", "Oceanside, CA 92054"]}, "phone": "+17607226224", "display_phone": "(760) 722-6224", "distance": 331.7170337335718}, {"id": "l2u6jyx91KXuVZyzozH2zw", "alias": "armandos-mexican-food-oceanside", "name": "Armando's Mexican Food", "image_url": "https://s3-media2.fl.yelpcdn.com/bphoto/md-sKiWPR6l7LJPanJTmYw/o.jpg", "is_closed": false, "url": "https://www.yelp.com/biz/armandos-mexican-food-oceanside?adjust_creative=oncXGL2aPIKrtJdnWeFSnA&utm_campaign=yelp_api_v3&utm_medium=api_v3_business_search&utm_source=oncXGL2aPIKrtJdnWeFSnA", "review_count": 41, "categories": [{"alias": "mexican", "title": "Mexican"}], "rating": 4.0, "coordinates": {"latitude": 33.2015788020412, "longitude": -117.369788464844}, "transactions": [], "price": "$", "location": {"address1": "1426 Mission Ave", "address2": "", "address3": "", "city": "Oceanside", "zip_code": "92054", "country": "US", "state": "CA", "display_address": ["1426 Mission Ave", "Oceanside, CA 92054"]}, "phone": "+17609679340", "display_phone": "(760) 967-9340", "distance": 1049.3230300848054}, {"id": "3Qou07wmYij3Bm9aGhPqGQ", "alias": "valeries-taco-stand-oceanside", "name": "Valeries Taco Stand", "image_url": "https://s3-media1.fl.yelpcdn.com/bphoto/3gOldFW57NCLfRMMIiMbZQ/o.jpg", "is_closed": false, "url": "https://www.yelp.com/biz/valeries-taco-stand-oceanside?adjust_creative=oncXGL2aPIKrtJdnWeFSnA&utm_campaign=yelp_api_v3&utm_medium=api_v3_business_search&utm_source=oncXGL2aPIKrtJdnWeFSnA", "review_count": 62, "categories": [{"alias": "tacos", "title": "Tacos"}], "rating": 4.5, "coordinates": {"latitude": 33.18611, "longitude": -117.3289}, "transactions": [], "price": "$", "location": {"address1": "2213 S El Camino Real", "address2": "Ste D", "address3": null, "city": "Oceanside", "zip_code": "92054", "country": "US", "state": "CA", "display_address": ["2213 S El Camino Real", "Ste D", "Oceanside, CA 92054"]}, "phone": "+17602315458", "display_phone": "(760) 231-5458", "distance": 3280.9822121118555}, {"id": "kMvxwPjxTk4qm7nPmsKbyw", "alias": "la-perla-tapatia-oceanside-2", "name": "La Perla Tapatia", "image_url": "https://s3-media4.fl.yelpcdn.com/bphoto/bJON5edlgv8AZpk6oF47KA/o.jpg", "is_closed": false, "url": "https://www.yelp.com/biz/la-perla-tapatia-oceanside-2?adjust_creative=oncXGL2aPIKrtJdnWeFSnA&utm_campaign=yelp_api_v3&utm_medium=api_v3_business_search&utm_source=oncXGL2aPIKrtJdnWeFSnA", "review_count": 117, "categories": [{"alias": "bakeries", "title": "Bakeries"}, {"alias": "mexican", "title": "Mexican"}, {"alias": "beer_and_wine", "title": "Beer, Wine & Spirits"}], "rating": 4.0, "coordinates": {"latitude": 33.2042703, "longitude": -117.3656591}, "transactions": [], "price": "$", "location": {"address1": "1910 Mission Ave", "address2": "", "address3": "", "city": "Oceanside", "zip_code": "92054", "country": "US", "state": "CA", "display_address": ["1910 Mission Ave", "Oceanside, CA 92054"]}, "phone": "+17607218486", "display_phone": "(760) 721-8486", "distance": 1155.0989895464677}, {"id": "WpK9ORuaHcJ4PN8_EbOFJg", "alias": "robertos-tacos-shop-13-oceanside", "name": "Roberto's Tacos Shop 13", "image_url": "https://s3-media3.fl.yelpcdn.com/bphoto/lw4Nb-pmlhPwIHRW3QNrPg/o.jpg", "is_closed": false, "url": "https://www.yelp.com/biz/robertos-tacos-shop-13-oceanside?adjust_creative=oncXGL2aPIKrtJdnWeFSnA&utm_campaign=yelp_api_v3&utm_medium=api_v3_business_search&utm_source=oncXGL2aPIKrtJdnWeFSnA", "review_count": 143, "categories": [{"alias": "hotdogs", "title": "Fast Food"}, {"alias": "mexican", "title": "Mexican"}], "rating": 4.0, "coordinates": {"latitude": 33.1838646, "longitude": -117.3690414}, "transactions": [], "price": "$", "location": {"address1": "518 Oceanside Blvd", "address2": "Ste 111", "address3": "", "city": "Oceanside", "zip_code": "92054", "country": "US", "state": "CA", "display_address": ["518 Oceanside Blvd", "Ste 111", "Oceanside, CA 92054"]}, "phone": "+17607572377", "display_phone": "(760) 757-2377", "distance": 1227.6549442285977}, {"id": "VSv2eVYeuwRa8-1M-cvU4Q", "alias": "super-ranchito-mexican-and-seafood-restaurant-oceanside", "name": "Super Ranchito Mexican And Seafood Restaurant", "image_url": "https://s3-media2.fl.yelpcdn.com/bphoto/4ZtNa4gZxCwi5bPfCeMp8Q/o.jpg", "is_closed": false, "url": "https://www.yelp.com/biz/super-ranchito-mexican-and-seafood-restaurant-oceanside?adjust_creative=oncXGL2aPIKrtJdnWeFSnA&utm_campaign=yelp_api_v3&utm_medium=api_v3_business_search&utm_source=oncXGL2aPIKrtJdnWeFSnA", "review_count": 47, "categories": [{"alias": "seafood", "title": "Seafood"}, {"alias": "mexican", "title": "Mexican"}], "rating": 4.0, "coordinates": {"latitude": 33.1841099, "longitude": -117.36999}, "transactions": [], "price": "$", "location": {"address1": "1129 S Coast Hwy", "address2": "", "address3": "", "city": "Oceanside", "zip_code": "92054", "country": "US", "state": "CA", "display_address": ["1129 S Coast Hwy", "Oceanside, CA 92054"]}, "phone": "+17607212707", "display_phone": "(760) 721-2707", "distance": 1308.6028995261647}, {"id": "okjI0SvDgHstYLoiMXeYrw", "alias": "anitas-mexican-restaurant-and-cantina-oceanside-2", "name": "Anita's Mexican Restaurant And Cantina", "image_url": "https://s3-media3.fl.yelpcdn.com/bphoto/9Two0gcjlmYTfDNn5cr55w/o.jpg", "is_closed": false, "url": "https://www.yelp.com/biz/anitas-mexican-restaurant-and-cantina-oceanside-2?adjust_creative=oncXGL2aPIKrtJdnWeFSnA&utm_campaign=yelp_api_v3&utm_medium=api_v3_business_search&utm_source=oncXGL2aPIKrtJdnWeFSnA", "review_count": 355, "categories": [{"alias": "mexican", "title": "Mexican"}, {"alias": "bars", "title": "Bars"}], "rating": 3.5, "coordinates": {"latitude": 33.176210301606, "longitude": -117.362795885134}, "transactions": [], "price": "$$", "location": {"address1": "1714 S Coast Hwy", "address2": "", "address3": "", "city": "Oceanside", "zip_code": "92054", "country": "US", "state": "CA", "display_address": ["1714 S Coast Hwy", "Oceanside, CA 92054"]}, "phone": "+17607226323", "display_phone": "(760) 722-6323", "distance": 1995.5642812683311}, {"id": "gXrNkMxueZZQDZ9fWSiWQA", "alias": "m-and-m-tacos-ensenada-style-oceanside", "name": "M&M Taco's Ensenada Style", "image_url": "https://s3-media2.fl.yelpcdn.com/bphoto/jWQyZll-jl8qU6EZ-dZqjQ/o.jpg", "is_closed": false, "url": "https://www.yelp.com/biz/m-and-m-tacos-ensenada-style-oceanside?adjust_creative=oncXGL2aPIKrtJdnWeFSnA&utm_campaign=yelp_api_v3&utm_medium=api_v3_business_search&utm_source=oncXGL2aPIKrtJdnWeFSnA", "review_count": 1, "categories": [{"alias": "foodstands", "title": "Food Stands"}, {"alias": "mexican", "title": "Mexican"}], "rating": 5.0, "coordinates": {"latitude": 33.2094145927583, "longitude": -117.357322946191}, "transactions": [], "location": {"address1": "2300 Mission Ave", "address2": "", "address3": null, "city": "Oceanside", "zip_code": "92058", "country": "US", "state": "CA", "display_address": ["2300 Mission Ave", "Oceanside, CA 92058"]}, "phone": "+17605297430", "display_phone": "(760) 529-7430", "distance": 1772.0920438476273}, {"id": "bjN7AFwY8BBrNZsRoazSog", "alias": "los-amigos-mexican-food-oceanside", "name": "Los Amigos Mexican Food", "image_url": "https://s3-media3.fl.yelpcdn.com/bphoto/B8l4lN0SKNnPL3_1A3fCDQ/o.jpg", "is_closed": false, "url": "https://www.yelp.com/biz/los-amigos-mexican-food-oceanside?adjust_creative=oncXGL2aPIKrtJdnWeFSnA&utm_campaign=yelp_api_v3&utm_medium=api_v3_business_search&utm_source=oncXGL2aPIKrtJdnWeFSnA", "review_count": 98, "categories": [{"alias": "mexican", "title": "Mexican"}], "rating": 4.5, "coordinates": {"latitude": 33.2283791, "longitude": -117.3238975}, "transactions": [], "price": "$", "location": {"address1": "3935 Mission Ave", "address2": "", "address3": "", "city": "Oceanside", "zip_code": "92058", "country": "US", "state": "CA", "display_address": ["3935 Mission Ave", "Oceanside, CA 92058"]}, "phone": "+17604350921", "display_phone": "(760) 435-0921", "distance": 5261.963547079506}, {"id": "H-D1wJ345KV2ZLTDX6UMKg", "alias": "mariscos-ensenada-oceanside", "name": "Mariscos Ensenada", "image_url": "https://s3-media2.fl.yelpcdn.com/bphoto/x6A0DzVJy1xWuFn2FvD5BQ/o.jpg", "is_closed": false, "url": "https://www.yelp.com/biz/mariscos-ensenada-oceanside?adjust_creative=oncXGL2aPIKrtJdnWeFSnA&utm_campaign=yelp_api_v3&utm_medium=api_v3_business_search&utm_source=oncXGL2aPIKrtJdnWeFSnA", "review_count": 229, "categories": [{"alias": "mexican", "title": "Mexican"}, {"alias": "seafood", "title": "Seafood"}], "rating": 4.0, "coordinates": {"latitude": 33.2015611, "longitude": -117.3324179}, "transactions": ["delivery", "pickup"], "price": "$$", "location": {"address1": "1405 S El Camino Real", "address2": "", "address3": "", "city": "Oceanside", "zip_code": "92054", "country": "US", "state": "CA", "display_address": ["1405 S El Camino Real", "Oceanside, CA 92054"]}, "phone": "+17609676024", "display_phone": "(760) 967-6024", "distance": 2944.8877044849482}, {"id": "IZ1dhWZXXQ4ZX0M3sYaSxg", "alias": "panchos-tamales-factory-oceanside", "name": "Pancho's Tamales Factory", "image_url": "https://s3-media4.fl.yelpcdn.com/bphoto/_pjeOXoi7fYtQjS4EYEM2w/o.jpg", "is_closed": false, "url": "https://www.yelp.com/biz/panchos-tamales-factory-oceanside?adjust_creative=oncXGL2aPIKrtJdnWeFSnA&utm_campaign=yelp_api_v3&utm_medium=api_v3_business_search&utm_source=oncXGL2aPIKrtJdnWeFSnA", "review_count": 2, "categories": [{"alias": "mexican", "title": "Mexican"}], "rating": 2.5, "coordinates": {"latitude": 33.1898271, "longitude": -117.359672}, "transactions": [], "location": {"address1": "1759 Oceanside Blvd", "address2": "Ste E", "address3": "", "city": "Oceanside", "zip_code": "92058", "country": "US", "state": "CA", "display_address": ["1759 Oceanside Blvd", "Ste E", "Oceanside, CA 92058"]}, "phone": "+17609784282", "display_phone": "(760) 978-4282", "distance": 563.7261128213444}, {"id": "LJtMRUbM77G3QhGVD-hWvQ", "alias": "johnny-ma\u00f1anas-oceanside-2", "name": "Johnny Ma\u00f1anas", "image_url": "https://s3-media1.fl.yelpcdn.com/bphoto/NGSip3l5L1ackzUvjUiXLQ/o.jpg", "is_closed": false, "url": "https://www.yelp.com/biz/johnny-ma%C3%B1anas-oceanside-2?adjust_creative=oncXGL2aPIKrtJdnWeFSnA&utm_campaign=yelp_api_v3&utm_medium=api_v3_business_search&utm_source=oncXGL2aPIKrtJdnWeFSnA", "review_count": 358, "categories": [{"alias": "mexican", "title": "Mexican"}], "rating": 3.5, "coordinates": {"latitude": 33.1951891, "longitude": -117.3807518}, "transactions": [], "price": "$", "location": {"address1": "308 Mission Ave", "address2": "", "address3": "", "city": "Oceanside", "zip_code": "92054", "country": "US", "state": "CA", "display_address": ["308 Mission Ave", "Oceanside, CA 92054"]}, "phone": "+17607219999", "display_phone": "(760) 721-9999", "distance": 1672.164755109855}, {"id": "QfsxOZG6NRqZv9KnUkAAJQ", "alias": "el-mundo-de-mariscos-oceanside-2", "name": "El Mundo De Mariscos", "image_url": "https://s3-media2.fl.yelpcdn.com/bphoto/ggl5zgLB1TxaZp4TJ-fg7A/o.jpg", "is_closed": false, "url": "https://www.yelp.com/biz/el-mundo-de-mariscos-oceanside-2?adjust_creative=oncXGL2aPIKrtJdnWeFSnA&utm_campaign=yelp_api_v3&utm_medium=api_v3_business_search&utm_source=oncXGL2aPIKrtJdnWeFSnA", "review_count": 13, "categories": [{"alias": "mexican", "title": "Mexican"}, {"alias": "seafood", "title": "Seafood"}], "rating": 3.5, "coordinates": {"latitude": 33.20203, "longitude": -117.33958}, "transactions": [], "location": {"address1": "2936 Oceanside Blvd", "address2": null, "address3": "", "city": "Oceanside", "zip_code": "92054", "country": "US", "state": "CA", "display_address": ["2936 Oceanside Blvd", "Oceanside, CA 92054"]}, "phone": "+17602317355", "display_phone": "(760) 231-7355", "distance": 2340.20073154591}, {"id": "tLHSB5Uc59L_oONf_ryZiA", "alias": "carlitos-chicken-oceanside", "name": "Carlito's Chicken", "image_url": "https://s3-media2.fl.yelpcdn.com/bphoto/x3VXbywdMPQqPYRjqi3cOA/o.jpg", "is_closed": false, "url": "https://www.yelp.com/biz/carlitos-chicken-oceanside?adjust_creative=oncXGL2aPIKrtJdnWeFSnA&utm_campaign=yelp_api_v3&utm_medium=api_v3_business_search&utm_source=oncXGL2aPIKrtJdnWeFSnA", "review_count": 79, "categories": [{"alias": "mexican", "title": "Mexican"}], "rating": 4.0, "coordinates": {"latitude": 33.21605, "longitude": -117.34566}, "transactions": [], "price": "$", "location": {"address1": "158 Roymar Rd", "address2": "", "address3": "", "city": "Oceanside", "zip_code": "92054", "country": "US", "state": "CA", "display_address": ["158 Roymar Rd", "Oceanside, CA 92054"]}, "phone": "+17604333427", "display_phone": "(760) 433-3427", "distance": 2917.276274449437}, {"id": "kQoaQurkatMqJseNBWicbQ", "alias": "diegos-mexican-food-oceanside", "name": "Diego's Mexican Food", "image_url": "https://s3-media4.fl.yelpcdn.com/bphoto/tK55JX2wFjcH2dz5J_PLCw/o.jpg", "is_closed": false, "url": "https://www.yelp.com/biz/diegos-mexican-food-oceanside?adjust_creative=oncXGL2aPIKrtJdnWeFSnA&utm_campaign=yelp_api_v3&utm_medium=api_v3_business_search&utm_source=oncXGL2aPIKrtJdnWeFSnA", "review_count": 184, "categories": [{"alias": "mexican", "title": "Mexican"}], "rating": 3.5, "coordinates": {"latitude": 33.1858, "longitude": -117.3705}, "transactions": [], "price": "$", "location": {"address1": "1030 S Coast Hwy", "address2": "", "address3": "", "city": "Oceanside", "zip_code": "92054", "country": "US", "state": "CA", "display_address": ["1030 S Coast Hwy", "Oceanside, CA 92054"]}, "phone": "+17607211985", "display_phone": "(760) 721-1985", "distance": 1160.9882818168562}, {"id": "K1NOJtzcvZ-TFz3SO1iPig", "alias": "california-creative-foods-oceanside-2", "name": "California Creative Foods", "image_url": "", "is_closed": false, "url": "https://www.yelp.com/biz/california-creative-foods-oceanside-2?adjust_creative=oncXGL2aPIKrtJdnWeFSnA&utm_campaign=yelp_api_v3&utm_medium=api_v3_business_search&utm_source=oncXGL2aPIKrtJdnWeFSnA", "review_count": 1, "categories": [{"alias": "mexican", "title": "Mexican"}], "rating": 5.0, "coordinates": {"latitude": 33.2133293, "longitude": -117.3580017}, "transactions": [], "location": {"address1": "649 Benet Rd", "address2": null, "address3": "", "city": "Oceanside", "zip_code": "92058", "country": "US", "state": "CA", "display_address": ["649 Benet Rd", "Oceanside, CA 92058"]}, "phone": "+17607572622", "display_phone": "(760) 757-2622", "distance": 2180.210869048902}, {"id": "q2xn0Bg3tIXKeFU9Z-prQw", "alias": "chipotle-mexican-grill-oceanside-2", "name": "Chipotle Mexican Grill", "image_url": "https://s3-media2.fl.yelpcdn.com/bphoto/-0G9rzLc7hLLhDeHnvAu1g/o.jpg", "is_closed": false, "url": "https://www.yelp.com/biz/chipotle-mexican-grill-oceanside-2?adjust_creative=oncXGL2aPIKrtJdnWeFSnA&utm_campaign=yelp_api_v3&utm_medium=api_v3_business_search&utm_source=oncXGL2aPIKrtJdnWeFSnA", "review_count": 148, "categories": [{"alias": "mexican", "title": "Mexican"}, {"alias": "hotdogs", "title": "Fast Food"}], "rating": 3.5, "coordinates": {"latitude": 33.181867, "longitude": -117.331756}, "transactions": [], "price": "$", "location": {"address1": "2611 Vista Way", "address2": "", "address3": "", "city": "Oceanside", "zip_code": "92054", "country": "US", "state": "CA", "display_address": ["2611 Vista Way", "Oceanside, CA 92054"]}, "phone": "+17607216904", "display_phone": "(760) 721-6904", "distance": 3197.7466308154358}, {"id": "2j4X_-KDdSbC9xA0EH2iSw", "alias": "albertos-mexican-food-oceanside-4", "name": "Alberto's Mexican Food", "image_url": "https://s3-media4.fl.yelpcdn.com/bphoto/F5Ad75kwMR4C23EQIfx9eQ/o.jpg", "is_closed": false, "url": "https://www.yelp.com/biz/albertos-mexican-food-oceanside-4?adjust_creative=oncXGL2aPIKrtJdnWeFSnA&utm_campaign=yelp_api_v3&utm_medium=api_v3_business_search&utm_source=oncXGL2aPIKrtJdnWeFSnA", "review_count": 63, "categories": [{"alias": "mexican", "title": "Mexican"}], "rating": 2.5, "coordinates": {"latitude": 33.20261, "longitude": -117.36802}, "transactions": [], "price": "$", "location": {"address1": "1602 Mission Ave", "address2": "", "address3": "", "city": "Oceanside", "zip_code": "92058", "country": "US", "state": "CA", "display_address": ["1602 Mission Ave", "Oceanside, CA 92058"]}, "phone": "+17607223163", "display_phone": "(760) 722-3163", "distance": 1055.332310814653}, {"id": "ekf45z0TMEIFVovipgNeQg", "alias": "mi-asador-mexican-and-seafood-restaurant-oceanside", "name": "Mi Asador Mexican and Seafood Restaurant", "image_url": "https://s3-media2.fl.yelpcdn.com/bphoto/4DslM6XJ3BERCV3Z5wB4Rg/o.jpg", "is_closed": false, "url": "https://www.yelp.com/biz/mi-asador-mexican-and-seafood-restaurant-oceanside?adjust_creative=oncXGL2aPIKrtJdnWeFSnA&utm_campaign=yelp_api_v3&utm_medium=api_v3_business_search&utm_source=oncXGL2aPIKrtJdnWeFSnA", "review_count": 291, "categories": [{"alias": "mexican", "title": "Mexican"}, {"alias": "seafood", "title": "Seafood"}], "rating": 4.5, "coordinates": {"latitude": 33.2168, "longitude": -117.27164}, "transactions": ["pickup"], "price": "$", "location": {"address1": "4750 Oceanside Blvd", "address2": "Ste A23", "address3": "", "city": "Oceanside", "zip_code": "92056", "country": "US", "state": "CA", "display_address": ["4750 Oceanside Blvd", "Ste A23", "Oceanside, CA 92056"]}, "phone": "+17608066684", "display_phone": "(760) 806-6684", "distance": 8818.422944697328}, {"id": "J73mhF4MNMj6-KzJAN1NCg", "alias": "deibertos-mexican-restaurant-oceanside-2", "name": "Deiberto's Mexican Restaurant", "image_url": "https://s3-media1.fl.yelpcdn.com/bphoto/J-0eOnJcAlQT2XmqMeuvxA/o.jpg", "is_closed": false, "url": "https://www.yelp.com/biz/deibertos-mexican-restaurant-oceanside-2?adjust_creative=oncXGL2aPIKrtJdnWeFSnA&utm_campaign=yelp_api_v3&utm_medium=api_v3_business_search&utm_source=oncXGL2aPIKrtJdnWeFSnA", "review_count": 95, "categories": [{"alias": "mexican", "title": "Mexican"}], "rating": 3.0, "coordinates": {"latitude": 33.2183020398335, "longitude": -117.340849488974}, "transactions": [], "price": "$", "location": {"address1": "3371 Mission Ave", "address2": "", "address3": null, "city": "Oceanside", "zip_code": "92058", "country": "US", "state": "CA", "display_address": ["3371 Mission Ave", "Oceanside, CA 92058"]}, "phone": "+17607544779", "display_phone": "(760) 754-4779", "distance": 3374.58559921942}, {"id": "fpeBODForoETVChU_Ddqsw", "alias": "fiesta-mexicana-oceanside-2", "name": "Fiesta Mexicana", "image_url": "https://s3-media2.fl.yelpcdn.com/bphoto/COSRXKW7KbxG5RGhnL-JWw/o.jpg", "is_closed": false, "url": "https://www.yelp.com/biz/fiesta-mexicana-oceanside-2?adjust_creative=oncXGL2aPIKrtJdnWeFSnA&utm_campaign=yelp_api_v3&utm_medium=api_v3_business_search&utm_source=oncXGL2aPIKrtJdnWeFSnA", "review_count": 142, "categories": [{"alias": "mexican", "title": "Mexican"}, {"alias": "wine_bars", "title": "Wine Bars"}, {"alias": "latin", "title": "Latin American"}], "rating": 4.0, "coordinates": {"latitude": 33.227767, "longitude": -117.331779}, "transactions": [], "price": "$$", "location": {"address1": "3784 Mission Ave", "address2": "Ste D", "address3": "", "city": "Oceanside", "zip_code": "92054", "country": "US", "state": "CA", "display_address": ["3784 Mission Ave", "Ste D", "Oceanside, CA 92054"]}, "phone": "+17607579872", "display_phone": "(760) 757-9872", "distance": 4713.264228140221}, {"id": "3y-_sx12LVzvcSkXVCL72A", "alias": "albertos-mexican-food-oceanside-2", "name": "Alberto's Mexican Food", "image_url": "https://s3-media4.fl.yelpcdn.com/bphoto/h_v6pu4VxNmdaNGjoiW4nA/o.jpg", "is_closed": false, "url": "https://www.yelp.com/biz/albertos-mexican-food-oceanside-2?adjust_creative=oncXGL2aPIKrtJdnWeFSnA&utm_campaign=yelp_api_v3&utm_medium=api_v3_business_search&utm_source=oncXGL2aPIKrtJdnWeFSnA", "review_count": 54, "categories": [{"alias": "mexican", "title": "Mexican"}], "rating": 2.5, "coordinates": {"latitude": 33.1943399, "longitude": -117.35579}, "transactions": [], "price": "$", "location": {"address1": "1920 Oceanside Blvd", "address2": "", "address3": "", "city": "Oceanside", "zip_code": "92054", "country": "US", "state": "CA", "display_address": ["1920 Oceanside Blvd", "Oceanside, CA 92054"]}, "phone": "+17604399556", "display_phone": "(760) 439-9556", "distance": 662.660320593288}, {"id": "_LNhlW3lelS1gSBzXGwquw", "alias": "chronic-tacos-oceanside-3", "name": "Chronic Tacos", "image_url": "https://s3-media4.fl.yelpcdn.com/bphoto/lmIT82gHHqBErjKlFVfMDw/o.jpg", "is_closed": false, "url": "https://www.yelp.com/biz/chronic-tacos-oceanside-3?adjust_creative=oncXGL2aPIKrtJdnWeFSnA&utm_campaign=yelp_api_v3&utm_medium=api_v3_business_search&utm_source=oncXGL2aPIKrtJdnWeFSnA", "review_count": 95, "categories": [{"alias": "mexican", "title": "Mexican"}], "rating": 2.5, "coordinates": {"latitude": 33.1962789, "longitude": -117.3796594}, "transactions": ["delivery", "pickup"], "price": "$", "location": {"address1": "208 N Coast Hwy", "address2": null, "address3": "", "city": "Oceanside", "zip_code": "92054", "country": "US", "state": "CA", "display_address": ["208 N Coast Hwy", "Oceanside, CA 92054"]}, "phone": "+17604351178", "display_phone": "(760) 435-1178", "distance": 1576.1684706602766}, {"id": "VjGalCFy15c29ESuLjdf5A", "alias": "san-luis-rey-bakery-and-restaurant-oceanside", "name": "San Luis Rey Bakery & Restaurant", "image_url": "https://s3-media2.fl.yelpcdn.com/bphoto/ASIYpF6m6ioA-5dPB3lvVA/o.jpg", "is_closed": false, "url": "https://www.yelp.com/biz/san-luis-rey-bakery-and-restaurant-oceanside?adjust_creative=oncXGL2aPIKrtJdnWeFSnA&utm_campaign=yelp_api_v3&utm_medium=api_v3_business_search&utm_source=oncXGL2aPIKrtJdnWeFSnA", "review_count": 147, "categories": [{"alias": "bakeries", "title": "Bakeries"}, {"alias": "mexican", "title": "Mexican"}], "rating": 4.0, "coordinates": {"latitude": 33.2319889, "longitude": -117.323606}, "transactions": [], "price": "$", "location": {"address1": "490 N El Camino Real", "address2": "", "address3": "", "city": "Oceanside", "zip_code": "92058", "country": "US", "state": "CA", "display_address": ["490 N El Camino Real", "Oceanside, CA 92058"]}, "phone": "+17604337242", "display_phone": "(760) 433-7242", "distance": 5602.499166758601}, {"id": "LS2HdX3yfn7qIud3azzsnQ", "alias": "san-luis-mexican-food-oceanside", "name": "San Luis Mexican Food", "image_url": "https://s3-media1.fl.yelpcdn.com/bphoto/S6jGK63PTpI_09s_WJo1ew/o.jpg", "is_closed": false, "url": "https://www.yelp.com/biz/san-luis-mexican-food-oceanside?adjust_creative=oncXGL2aPIKrtJdnWeFSnA&utm_campaign=yelp_api_v3&utm_medium=api_v3_business_search&utm_source=oncXGL2aPIKrtJdnWeFSnA", "review_count": 216, "categories": [{"alias": "mexican", "title": "Mexican"}], "rating": 4.5, "coordinates": {"latitude": 33.21675, "longitude": -117.2698}, "transactions": [], "price": "$", "location": {"address1": "2600 Temple Heights Dr", "address2": null, "address3": "", "city": "Oceanside", "zip_code": "92056", "country": "US", "state": "CA", "display_address": ["2600 Temple Heights Dr", "Oceanside, CA 92056"]}, "phone": "+17608060049", "display_phone": "(760) 806-0049", "distance": 9013.06425480566}, {"id": "rESWrhmoCdXFiK_KJr9PAg", "alias": "taco-bell-oceanside", "name": "Taco Bell", "image_url": "https://s3-media3.fl.yelpcdn.com/bphoto/9r9L2dYPygqXvjMLw8kReQ/o.jpg", "is_closed": false, "url": "https://www.yelp.com/biz/taco-bell-oceanside?adjust_creative=oncXGL2aPIKrtJdnWeFSnA&utm_campaign=yelp_api_v3&utm_medium=api_v3_business_search&utm_source=oncXGL2aPIKrtJdnWeFSnA", "review_count": 34, "categories": [{"alias": "mexican", "title": "Mexican"}, {"alias": "tex-mex", "title": "Tex-Mex"}, {"alias": "hotdogs", "title": "Fast Food"}], "rating": 2.5, "coordinates": {"latitude": 33.193705, "longitude": -117.356233}, "transactions": ["delivery"], "price": "$", "location": {"address1": "1940 Oceanside Blvd", "address2": "", "address3": "", "city": "Oceanside", "zip_code": "92054", "country": "US", "state": "CA", "display_address": ["1940 Oceanside Blvd", "Oceanside, CA 92054"]}, "phone": "+17607220925", "display_phone": "(760) 722-0925", "distance": 615.3014344849823}, {"id": "V1puz02wdZPyGUuaJ6GVkg", "alias": "mundo-de-mariscos-oceanside", "name": "Mundo De Mariscos", "image_url": "https://s3-media2.fl.yelpcdn.com/bphoto/Buf2RlRrTKdgl2XJISLRQQ/o.jpg", "is_closed": false, "url": "https://www.yelp.com/biz/mundo-de-mariscos-oceanside?adjust_creative=oncXGL2aPIKrtJdnWeFSnA&utm_campaign=yelp_api_v3&utm_medium=api_v3_business_search&utm_source=oncXGL2aPIKrtJdnWeFSnA", "review_count": 61, "categories": [{"alias": "mexican", "title": "Mexican"}], "rating": 3.5, "coordinates": {"latitude": 33.2131281, "longitude": -117.349314}, "transactions": [], "price": "$$", "location": {"address1": "3110 San Luis Rey Rd", "address2": "", "address3": "", "city": "Oceanside", "zip_code": "92058", "country": "US", "state": "CA", "display_address": ["3110 San Luis Rey Rd", "Oceanside, CA 92058"]}, "phone": "+17607548922", "display_phone": "(760) 754-8922", "distance": 2459.946166494707}, {"id": "NkhUm823Rclo1K9EhdoMHA", "alias": "angelos-burgers-oceanside-3", "name": "Angelo's Burgers", "image_url": "https://s3-media2.fl.yelpcdn.com/bphoto/TEscxcwiRoA1vDu5Rx9WSw/o.jpg", "is_closed": false, "url": "https://www.yelp.com/biz/angelos-burgers-oceanside-3?adjust_creative=oncXGL2aPIKrtJdnWeFSnA&utm_campaign=yelp_api_v3&utm_medium=api_v3_business_search&utm_source=oncXGL2aPIKrtJdnWeFSnA", "review_count": 194, "categories": [{"alias": "burgers", "title": "Burgers"}, {"alias": "breakfast_brunch", "title": "Breakfast & Brunch"}, {"alias": "mexican", "title": "Mexican"}], "rating": 3.0, "coordinates": {"latitude": 33.2000554866849, "longitude": -117.383143231273}, "transactions": [], "price": "$", "location": {"address1": "621 N Coast Hwy", "address2": "", "address3": "", "city": "Oceanside", "zip_code": "92054", "country": "US", "state": "CA", "display_address": ["621 N Coast Hwy", "Oceanside, CA 92054"]}, "phone": "+17607575161", "display_phone": "(760) 757-5161", "distance": 2001.227013931776}, {"id": "np4tPIEG6q5x5SepspgPCw", "alias": "alfredos-mexican-food-oceanside", "name": "Alfredo's Mexican Food", "image_url": "https://s3-media4.fl.yelpcdn.com/bphoto/DmKppxZqctznR2mNWbAsig/o.jpg", "is_closed": false, "url": "https://www.yelp.com/biz/alfredos-mexican-food-oceanside?adjust_creative=oncXGL2aPIKrtJdnWeFSnA&utm_campaign=yelp_api_v3&utm_medium=api_v3_business_search&utm_source=oncXGL2aPIKrtJdnWeFSnA", "review_count": 141, "categories": [{"alias": "mexican", "title": "Mexican"}], "rating": 2.5, "coordinates": {"latitude": 33.19961, "longitude": -117.38229}, "transactions": [], "price": "$", "location": {"address1": "602 N Coast Hwy", "address2": "", "address3": "", "city": "Oceanside", "zip_code": "92054", "country": "US", "state": "CA", "display_address": ["602 N Coast Hwy", "Oceanside, CA 92054"]}, "phone": "+17604333504", "display_phone": "(760) 433-3504", "distance": 1916.535723636763}, {"id": "A6sX955uDaPpy5vzGLu-gw", "alias": "pedros-tacos-oceanside", "name": "Pedro's Tacos", "image_url": "https://s3-media4.fl.yelpcdn.com/bphoto/3elFyjgNaWONTzclUK9RoQ/o.jpg", "is_closed": false, "url": "https://www.yelp.com/biz/pedros-tacos-oceanside?adjust_creative=oncXGL2aPIKrtJdnWeFSnA&utm_campaign=yelp_api_v3&utm_medium=api_v3_business_search&utm_source=oncXGL2aPIKrtJdnWeFSnA", "review_count": 172, "categories": [{"alias": "mexican", "title": "Mexican"}], "rating": 3.0, "coordinates": {"latitude": 33.2140922546387, "longitude": -117.356986999512}, "transactions": ["delivery", "pickup"], "price": "$", "location": {"address1": "656 Benet Rd", "address2": "", "address3": "", "city": "Oceanside", "zip_code": "92058", "country": "US", "state": "CA", "display_address": ["656 Benet Rd", "Oceanside, CA 92058"]}, "phone": "+17607227221", "display_phone": "(760) 722-7221", "distance": 2313.064449512909}, {"id": "fbFTho__NTUAZOvgRUk9Jg", "alias": "gourmet-tamales-oceanside", "name": "Gourmet Tamales", "image_url": "https://s3-media1.fl.yelpcdn.com/bphoto/lfY-01TyqcvMk_0ZMqe-nA/o.jpg", "is_closed": false, "url": "https://www.yelp.com/biz/gourmet-tamales-oceanside?adjust_creative=oncXGL2aPIKrtJdnWeFSnA&utm_campaign=yelp_api_v3&utm_medium=api_v3_business_search&utm_source=oncXGL2aPIKrtJdnWeFSnA", "review_count": 44, "categories": [{"alias": "mexican", "title": "Mexican"}, {"alias": "desserts", "title": "Desserts"}, {"alias": "gluten_free", "title": "Gluten-Free"}], "rating": 4.5, "coordinates": {"latitude": 33.21091, "longitude": -117.3128}, "transactions": [], "price": "$", "location": {"address1": "3616 Ocean Ranch Blvd", "address2": null, "address3": null, "city": "Oceanside", "zip_code": "92056", "country": "US", "state": "CA", "display_address": ["3616 Ocean Ranch Blvd", "Oceanside, CA 92056"]}, "phone": "+17604020805", "display_phone": "(760) 402-0805", "distance": 5049.729010599784}, {"id": "qfQHuyMN4KHwFT91P66J8w", "alias": "anitas-mexican-restaurant-and-cantina-oceanside", "name": "Anita's Mexican  Restaurant & Cantina", "image_url": "https://s3-media2.fl.yelpcdn.com/bphoto/3IlA0rkX32efir5YQVN1JQ/o.jpg", "is_closed": false, "url": "https://www.yelp.com/biz/anitas-mexican-restaurant-and-cantina-oceanside?adjust_creative=oncXGL2aPIKrtJdnWeFSnA&utm_campaign=yelp_api_v3&utm_medium=api_v3_business_search&utm_source=oncXGL2aPIKrtJdnWeFSnA", "review_count": 324, "categories": [{"alias": "mexican", "title": "Mexican"}], "rating": 3.0, "coordinates": {"latitude": 33.183429, "longitude": -117.326778}, "transactions": ["delivery", "pickup"], "price": "$$", "location": {"address1": "2250 S El Camino Real", "address2": "", "address3": "", "city": "Oceanside", "zip_code": "92054", "country": "US", "state": "CA", "display_address": ["2250 S El Camino Real", "Oceanside, CA 92054"]}, "phone": "+17607577745", "display_phone": "(760) 757-7745", "distance": 3560.0406188482234}, {"id": "2-YtTwY2JkobfdgDqAzTLw", "alias": "marietas-restaurant-oceanside", "name": "Marieta's Fine Mexican Food & Cocktails", "image_url": "https://s3-media4.fl.yelpcdn.com/bphoto/pnOxxiYGwiU-1269bkq9Bw/o.jpg", "is_closed": false, "url": "https://www.yelp.com/biz/marietas-restaurant-oceanside?adjust_creative=oncXGL2aPIKrtJdnWeFSnA&utm_campaign=yelp_api_v3&utm_medium=api_v3_business_search&utm_source=oncXGL2aPIKrtJdnWeFSnA", "review_count": 311, "categories": [{"alias": "mexican", "title": "Mexican"}, {"alias": "bars", "title": "Bars"}], "rating": 3.5, "coordinates": {"latitude": 33.254222, "longitude": -117.299939}, "transactions": [], "price": "$$", "location": {"address1": "485 Vandegrift Blvd", "address2": "", "address3": "", "city": "Oceanside", "zip_code": "92057", "country": "US", "state": "CA", "display_address": ["485 Vandegrift Blvd", "Oceanside, CA 92057"]}, "phone": "+17609671769", "display_phone": "(760) 967-1769", "distance": 8878.264719139457}, {"id": "JcdtbxhnoiSEYJ9QnPyaSw", "alias": "alfredos-mexican-food-oceanside-2", "name": "Alfredo's Mexican Food", "image_url": "https://s3-media3.fl.yelpcdn.com/bphoto/TiR_A7G-QBi0BqQX7c9OIA/o.jpg", "is_closed": false, "url": "https://www.yelp.com/biz/alfredos-mexican-food-oceanside-2?adjust_creative=oncXGL2aPIKrtJdnWeFSnA&utm_campaign=yelp_api_v3&utm_medium=api_v3_business_search&utm_source=oncXGL2aPIKrtJdnWeFSnA", "review_count": 39, "categories": [{"alias": "mexican", "title": "Mexican"}], "rating": 3.5, "coordinates": {"latitude": 33.1951383042923, "longitude": -117.380249698148}, "transactions": ["pickup"], "price": "$", "location": {"address1": "401 Mission Ave", "address2": "Ste B110", "address3": "", "city": "Oceanside", "zip_code": "92054", "country": "US", "state": "CA", "display_address": ["401 Mission Ave", "Ste B110", "Oceanside, CA 92054"]}, "phone": "+17604537855", "display_phone": "(760) 453-7855", "distance": 1625.169200926368}, {"id": "DefDRdOvYgAfVHr18OeMrw", "alias": "davinas-mexican-restaurant-oceanside", "name": "Davina's Mexican Restaurant", "image_url": "https://s3-media2.fl.yelpcdn.com/bphoto/CNy6nO6UQzAflK9AX-Ue3w/o.jpg", "is_closed": false, "url": "https://www.yelp.com/biz/davinas-mexican-restaurant-oceanside?adjust_creative=oncXGL2aPIKrtJdnWeFSnA&utm_campaign=yelp_api_v3&utm_medium=api_v3_business_search&utm_source=oncXGL2aPIKrtJdnWeFSnA", "review_count": 117, "categories": [{"alias": "mexican", "title": "Mexican"}], "rating": 3.5, "coordinates": {"latitude": 33.216373, "longitude": -117.34497}, "transactions": [], "price": "$$", "location": {"address1": "3320 Mission Ave", "address2": "Ste R", "address3": "", "city": "Oceanside", "zip_code": "92054", "country": "US", "state": "CA", "display_address": ["3320 Mission Ave", "Ste R", "Oceanside, CA 92054"]}, "phone": "+17607228017", "display_phone": "(760) 722-8017", "distance": 2975.48673108607}, {"id": "TDMXB3qs5lneHlfzYFzt9Q", "alias": "la-familia-callejas-restaurant-market-oceanside", "name": "La Familia Callejas Restaurant  Market", "image_url": "https://s3-media1.fl.yelpcdn.com/bphoto/big4I88UgaPxr4mMYUVyLQ/o.jpg", "is_closed": false, "url": "https://www.yelp.com/biz/la-familia-callejas-restaurant-market-oceanside?adjust_creative=oncXGL2aPIKrtJdnWeFSnA&utm_campaign=yelp_api_v3&utm_medium=api_v3_business_search&utm_source=oncXGL2aPIKrtJdnWeFSnA", "review_count": 19, "categories": [{"alias": "mexican", "title": "Mexican"}, {"alias": "grocery", "title": "Grocery"}], "rating": 3.5, "coordinates": {"latitude": 33.1966, "longitude": -117.35328}, "transactions": ["pickup"], "price": "$", "location": {"address1": "608 Crouch St", "address2": "", "address3": "", "city": "Oceanside", "zip_code": "92054", "country": "US", "state": "CA", "display_address": ["608 Crouch St", "Oceanside, CA 92054"]}, "phone": "+17602315321", "display_phone": "(760) 231-5321", "distance": 930.4159721535176}, {"id": "XFQoLl48Cjcqek9l_lQslg", "alias": "los-kompadres-mexican-food-oceanside", "name": "Los Kompadres Mexican Food", "image_url": "https://s3-media1.fl.yelpcdn.com/bphoto/TG_fsrsP0sVo-5jAuu08kA/o.jpg", "is_closed": false, "url": "https://www.yelp.com/biz/los-kompadres-mexican-food-oceanside?adjust_creative=oncXGL2aPIKrtJdnWeFSnA&utm_campaign=yelp_api_v3&utm_medium=api_v3_business_search&utm_source=oncXGL2aPIKrtJdnWeFSnA", "review_count": 52, "categories": [{"alias": "mexican", "title": "Mexican"}], "rating": 4.0, "coordinates": {"latitude": 33.226761, "longitude": -117.332603}, "transactions": [], "price": "$", "location": {"address1": "3772 Mission Ave", "address2": "Ste 130", "address3": "", "city": "Oceanside", "zip_code": "92058", "country": "US", "state": "CA", "display_address": ["3772 Mission Ave", "Ste 130", "Oceanside, CA 92058"]}, "phone": "+17607217829", "display_phone": "(760) 721-7829", "distance": 4654.864559093641}, {"id": "Wz5lOVzw11Lkn3J0szh19Q", "alias": "davinas-cabo-grill-oceanside", "name": "Davina's Cabo Grill", "image_url": "https://s3-media2.fl.yelpcdn.com/bphoto/kTnk2l2dQYXvvsauZwvIfQ/o.jpg", "is_closed": false, "url": "https://www.yelp.com/biz/davinas-cabo-grill-oceanside?adjust_creative=oncXGL2aPIKrtJdnWeFSnA&utm_campaign=yelp_api_v3&utm_medium=api_v3_business_search&utm_source=oncXGL2aPIKrtJdnWeFSnA", "review_count": 601, "categories": [{"alias": "danceclubs", "title": "Dance Clubs"}, {"alias": "mexican", "title": "Mexican"}], "rating": 2.5, "coordinates": {"latitude": 33.195878, "longitude": -117.380577}, "transactions": [], "price": "$$", "location": {"address1": "212 N Tremont St", "address2": "", "address3": "", "city": "Oceanside", "zip_code": "92054", "country": "US", "state": "CA", "display_address": ["212 N Tremont St", "Oceanside, CA 92054"]}, "phone": "+17606372450", "display_phone": "(760) 637-2450", "distance": 1662.9983429618876}, {"id": "dT6LHYyYFEb5_tVNrE7Aaw", "alias": "el-pollo-loco-oceanside-4", "name": "El Pollo Loco", "image_url": "https://s3-media2.fl.yelpcdn.com/bphoto/Ncs3PkM4EnLSUmudE6b_kg/o.jpg", "is_closed": false, "url": "https://www.yelp.com/biz/el-pollo-loco-oceanside-4?adjust_creative=oncXGL2aPIKrtJdnWeFSnA&utm_campaign=yelp_api_v3&utm_medium=api_v3_business_search&utm_source=oncXGL2aPIKrtJdnWeFSnA", "review_count": 45, "categories": [{"alias": "mexican", "title": "Mexican"}, {"alias": "hotdogs", "title": "Fast Food"}], "rating": 3.0, "coordinates": {"latitude": 33.1987953186035, "longitude": -117.37532043457}, "transactions": [], "price": "$", "location": {"address1": "1004 Mission Ave", "address2": "", "address3": "", "city": "Oceanside", "zip_code": "92054", "country": "US", "state": "CA", "display_address": ["1004 Mission Ave", "Oceanside, CA 92054"]}, "phone": "+17607541468", "display_phone": "(760) 754-1468", "distance": 1275.0846882251649}, {"id": "fqwoWCKOq4JvR19lT7M1JQ", "alias": "baja-tacos-oceanside", "name": "Baja Tacos", "image_url": "", "is_closed": false, "url": "https://www.yelp.com/biz/baja-tacos-oceanside?adjust_creative=oncXGL2aPIKrtJdnWeFSnA&utm_campaign=yelp_api_v3&utm_medium=api_v3_business_search&utm_source=oncXGL2aPIKrtJdnWeFSnA", "review_count": 2, "categories": [{"alias": "mexican", "title": "Mexican"}], "rating": 4.0, "coordinates": {"latitude": 33.2017522, "longitude": -117.3685969}, "transactions": [], "price": "$", "location": {"address1": "1527 Mission Ave", "address2": "Ste A", "address3": "", "city": "Oceanside", "zip_code": "92054", "country": "US", "state": "CA", "display_address": ["1527 Mission Ave", "Ste A", "Oceanside, CA 92054"]}, "phone": "+17607225930", "display_phone": "(760) 722-5930", "distance": 828.7393437138304}, {"id": "5m3tQ9GNn5AMAkK0uD_0_g", "alias": "del-taco-oceanside-3", "name": "Del Taco", "image_url": "https://s3-media1.fl.yelpcdn.com/bphoto/RWS_blRKYgZyGX8Yb1demw/o.jpg", "is_closed": false, "url": "https://www.yelp.com/biz/del-taco-oceanside-3?adjust_creative=oncXGL2aPIKrtJdnWeFSnA&utm_campaign=yelp_api_v3&utm_medium=api_v3_business_search&utm_source=oncXGL2aPIKrtJdnWeFSnA", "review_count": 52, "categories": [{"alias": "mexican", "title": "Mexican"}], "rating": 2.0, "coordinates": {"latitude": 33.18354, "longitude": -117.32868}, "transactions": [], "price": "$", "location": {"address1": "2269 S El Camino Real", "address2": "", "address3": "", "city": "Oceanside", "zip_code": "92054", "country": "US", "state": "CA", "display_address": ["2269 S El Camino Real", "Oceanside, CA 92054"]}, "phone": "+17604338450", "display_phone": "(760) 433-8450", "distance": 3386.269578619845}, {"id": "4SG-0mF9aSpqJ_MBQI2lQg", "alias": "la-perla-tapatia-oceanside", "name": "La Perla Tapatia", "image_url": "https://s3-media3.fl.yelpcdn.com/bphoto/0Wd0r85KLbJxBKjBB1btbQ/o.jpg", "is_closed": false, "url": "https://www.yelp.com/biz/la-perla-tapatia-oceanside?adjust_creative=oncXGL2aPIKrtJdnWeFSnA&utm_campaign=yelp_api_v3&utm_medium=api_v3_business_search&utm_source=oncXGL2aPIKrtJdnWeFSnA", "review_count": 73, "categories": [{"alias": "bakeries", "title": "Bakeries"}, {"alias": "mexican", "title": "Mexican"}], "rating": 4.0, "coordinates": {"latitude": 33.2546157836914, "longitude": -117.300308227539}, "transactions": [], "price": "$", "location": {"address1": "625 N Redondo Dr", "address2": "", "address3": "", "city": "Oceanside", "zip_code": "92057", "country": "US", "state": "CA", "display_address": ["625 N Redondo Dr", "Oceanside, CA 92057"]}, "phone": "+17607224158", "display_phone": "(760) 722-4158", "distance": 8883.881013337419}, {"id": "AWysF3FqR5RxqCsO-ZoqDw", "alias": "chipotle-mexican-grill-oceanside-3", "name": "Chipotle Mexican Grill", "image_url": "https://s3-media4.fl.yelpcdn.com/bphoto/5EH5ktmaGJIeJ2379LSadA/o.jpg", "is_closed": false, "url": "https://www.yelp.com/biz/chipotle-mexican-grill-oceanside-3?adjust_creative=oncXGL2aPIKrtJdnWeFSnA&utm_campaign=yelp_api_v3&utm_medium=api_v3_business_search&utm_source=oncXGL2aPIKrtJdnWeFSnA", "review_count": 116, "categories": [{"alias": "mexican", "title": "Mexican"}, {"alias": "hotdogs", "title": "Fast Food"}], "rating": 2.5, "coordinates": {"latitude": 33.20575, "longitude": -117.28835}, "transactions": [], "price": "$", "location": {"address1": "4111 Oceanside Blvd", "address2": "", "address3": "", "city": "Oceanside", "zip_code": "92056", "country": "US", "state": "CA", "display_address": ["4111 Oceanside Blvd", "Oceanside, CA 92056"]}, "phone": "+17606594147", "display_phone": "(760) 659-4147", "distance": 7023.480248426903}, {"id": "8Ki4jvjfvmIrdrJjIZ5yPQ", "alias": "joses-taco-oceanside", "name": "Jose's Taco", "image_url": "https://s3-media1.fl.yelpcdn.com/bphoto/Ayy9Xjg4ZBLtRcxKOCXWQw/o.jpg", "is_closed": false, "url": "https://www.yelp.com/biz/joses-taco-oceanside?adjust_creative=oncXGL2aPIKrtJdnWeFSnA&utm_campaign=yelp_api_v3&utm_medium=api_v3_business_search&utm_source=oncXGL2aPIKrtJdnWeFSnA", "review_count": 140, "categories": [{"alias": "mexican", "title": "Mexican"}], "rating": 3.5, "coordinates": {"latitude": 33.1844825744629, "longitude": -117.29369354248}, "transactions": [], "price": "$", "location": {"address1": "3910 Vista Way", "address2": "Ste 110", "address3": "", "city": "Oceanside", "zip_code": "92056", "country": "US", "state": "CA", "display_address": ["3910 Vista Way", "Ste 110", "Oceanside, CA 92056"]}, "phone": "+17609418881", "display_phone": "(760) 941-8881", "distance": 6542.250158784899}, {"id": "P-Dthx23UOZm4YoUzC9WZw", "alias": "los-panchos-taco-shop-oceanside", "name": "Los Panchos Taco Shop", "image_url": "https://s3-media1.fl.yelpcdn.com/bphoto/QV7mPKeaOz9jfVLt-Af1HA/o.jpg", "is_closed": false, "url": "https://www.yelp.com/biz/los-panchos-taco-shop-oceanside?adjust_creative=oncXGL2aPIKrtJdnWeFSnA&utm_campaign=yelp_api_v3&utm_medium=api_v3_business_search&utm_source=oncXGL2aPIKrtJdnWeFSnA", "review_count": 32, "categories": [{"alias": "mexican", "title": "Mexican"}], "rating": 3.5, "coordinates": {"latitude": 33.1941719055176, "longitude": -117.377708435059}, "transactions": [], "price": "$", "location": {"address1": "202 S Coast Hwy", "address2": "", "address3": "", "city": "Oceanside", "zip_code": "92054", "country": "US", "state": "CA", "display_address": ["202 S Coast Hwy", "Oceanside, CA 92054"]}, "phone": "+17607229602", "display_phone": "(760) 722-9602", "distance": 1383.4330994216991}, {"id": "-JMaT8dkpZ1gHBCzoeQ1lg", "alias": "cejas-mexican-diner-and-grill-oceanside", "name": "Ceja's Mexican Diner & Grill", "image_url": "https://s3-media4.fl.yelpcdn.com/bphoto/QWbHreJp3VVylpySSLdLOg/o.jpg", "is_closed": false, "url": "https://www.yelp.com/biz/cejas-mexican-diner-and-grill-oceanside?adjust_creative=oncXGL2aPIKrtJdnWeFSnA&utm_campaign=yelp_api_v3&utm_medium=api_v3_business_search&utm_source=oncXGL2aPIKrtJdnWeFSnA", "review_count": 152, "categories": [{"alias": "mexican", "title": "Mexican"}], "rating": 4.0, "coordinates": {"latitude": 33.2085638, "longitude": -117.2810813}, "transactions": ["delivery", "pickup"], "price": "$", "location": {"address1": "4259 Oceanside Blvd", "address2": "", "address3": "", "city": "Oceanside", "zip_code": "92056", "country": "US", "state": "CA", "display_address": ["4259 Oceanside Blvd", "Oceanside, CA 92056"]}, "phone": "+17609452199", "display_phone": "(760) 945-2199", "distance": 7839.211994045286}, {"id": "LHG2sfqZoKeTt297cpOjQw", "alias": "panchitos-catering-and-banquets-oceanside", "name": "Panchitos Catering And Banquets", "image_url": "https://s3-media2.fl.yelpcdn.com/bphoto/g-cE8-23_CAJX7VOgv1bzQ/o.jpg", "is_closed": false, "url": "https://www.yelp.com/biz/panchitos-catering-and-banquets-oceanside?adjust_creative=oncXGL2aPIKrtJdnWeFSnA&utm_campaign=yelp_api_v3&utm_medium=api_v3_business_search&utm_source=oncXGL2aPIKrtJdnWeFSnA", "review_count": 4, "categories": [{"alias": "mexican", "title": "Mexican"}], "rating": 5.0, "coordinates": {"latitude": 33.2028618, "longitude": -117.370079}, "transactions": [], "location": {"address1": "405 San Diego St", "address2": "", "address3": "", "city": "Oceanside", "zip_code": "92058", "country": "US", "state": "CA", "display_address": ["405 San Diego St", "Oceanside, CA 92058"]}, "phone": "+17607578332", "display_phone": "(760) 757-8332", "distance": 1178.1910184337958}, {"id": "M7aykQpAcGQmz5DY7hdPuQ", "alias": "rubios-coastal-grill-oceanside", "name": "Rubio's Coastal Grill", "image_url": "https://s3-media4.fl.yelpcdn.com/bphoto/PR053Rks519j2qR2T1ZDMA/o.jpg", "is_closed": false, "url": "https://www.yelp.com/biz/rubios-coastal-grill-oceanside?adjust_creative=oncXGL2aPIKrtJdnWeFSnA&utm_campaign=yelp_api_v3&utm_medium=api_v3_business_search&utm_source=oncXGL2aPIKrtJdnWeFSnA", "review_count": 110, "categories": [{"alias": "mexican", "title": "Mexican"}, {"alias": "seafood", "title": "Seafood"}, {"alias": "salad", "title": "Salad"}], "rating": 3.5, "coordinates": {"latitude": 33.2069281430714, "longitude": -117.28447521874}, "transactions": ["delivery"], "price": "$", "location": {"address1": "4201 Oceanside Blvd", "address2": "Ste B", "address3": "", "city": "Oceanside", "zip_code": "92057", "country": "US", "state": "CA", "display_address": ["4201 Oceanside Blvd", "Ste B", "Oceanside, CA 92057"]}, "phone": "+17608064703", "display_phone": "(760) 806-4703", "distance": 7426.81360217018}, {"id": "jkAZCMERs7F9TmnxUQA4HA", "alias": "tonys-fresh-mexican-food-oceanside", "name": "Tonys Fresh Mexican Food", "image_url": "https://s3-media1.fl.yelpcdn.com/bphoto/AfOCi7zH3BpDqiuj3PApvg/o.jpg", "is_closed": false, "url": "https://www.yelp.com/biz/tonys-fresh-mexican-food-oceanside?adjust_creative=oncXGL2aPIKrtJdnWeFSnA&utm_campaign=yelp_api_v3&utm_medium=api_v3_business_search&utm_source=oncXGL2aPIKrtJdnWeFSnA", "review_count": 38, "categories": [{"alias": "mexican", "title": "Mexican"}], "rating": 3.5, "coordinates": {"latitude": 33.1866264343262, "longitude": -117.328941345215}, "transactions": [], "price": "$", "location": {"address1": "2983 Via Las Rosas", "address2": null, "address3": "", "city": "Oceanside", "zip_code": "92054", "country": "US", "state": "CA", "display_address": ["2983 Via Las Rosas", "Oceanside, CA 92054"]}, "phone": "+17604335004", "display_phone": "(760) 433-5004", "distance": 3273.4875634387427}, {"id": "Dti7H6ZuPDhZ7nZURufzOQ", "alias": "valeries-taco-shop-oceanside-2", "name": "Valerie's Taco Shop", "image_url": "https://s3-media2.fl.yelpcdn.com/bphoto/qFtkDSLhrPOMmrJncAhxqg/o.jpg", "is_closed": false, "url": "https://www.yelp.com/biz/valeries-taco-shop-oceanside-2?adjust_creative=oncXGL2aPIKrtJdnWeFSnA&utm_campaign=yelp_api_v3&utm_medium=api_v3_business_search&utm_source=oncXGL2aPIKrtJdnWeFSnA", "review_count": 135, "categories": [{"alias": "mexican", "title": "Mexican"}], "rating": 3.5, "coordinates": {"latitude": 33.2096554, "longitude": -117.3120824}, "transactions": [], "price": "$", "location": {"address1": "3617 Ocean Ranch Blvd", "address2": "Ste 108", "address3": "", "city": "Oceanside", "zip_code": "92056", "country": "US", "state": "CA", "display_address": ["3617 Ocean Ranch Blvd", "Ste 108", "Oceanside, CA 92056"]}, "phone": "+17607211296", "display_phone": "(760) 721-1296", "distance": 5025.754657494865}, {"id": "EiaOBgJUIQVj55320YV9LQ", "alias": "rodeos-meat-market-oceanside", "name": "Rodeos Meat Market", "image_url": "https://s3-media2.fl.yelpcdn.com/bphoto/zUc3IvwZByMg278J5RuykQ/o.jpg", "is_closed": false, "url": "https://www.yelp.com/biz/rodeos-meat-market-oceanside?adjust_creative=oncXGL2aPIKrtJdnWeFSnA&utm_campaign=yelp_api_v3&utm_medium=api_v3_business_search&utm_source=oncXGL2aPIKrtJdnWeFSnA", "review_count": 39, "categories": [{"alias": "meats", "title": "Meat Shops"}, {"alias": "mexican", "title": "Mexican"}], "rating": 3.5, "coordinates": {"latitude": 33.2266753, "longitude": -117.3297328}, "transactions": [], "price": "$", "location": {"address1": "3858 Mission Ave", "address2": "", "address3": "", "city": "Oceanside", "zip_code": "92054", "country": "US", "state": "CA", "display_address": ["3858 Mission Ave", "Oceanside, CA 92054"]}, "phone": "+17604391630", "display_phone": "(760) 439-1630", "distance": 4784.499640040529}, {"id": "TjQmfrkn5MvpgvEXBncyEw", "alias": "ramones-cantina-oceanside", "name": "Ramone's Cantina", "image_url": "https://s3-media3.fl.yelpcdn.com/bphoto/ma0Xn2284sDSJCKJojymKw/o.jpg", "is_closed": false, "url": "https://www.yelp.com/biz/ramones-cantina-oceanside?adjust_creative=oncXGL2aPIKrtJdnWeFSnA&utm_campaign=yelp_api_v3&utm_medium=api_v3_business_search&utm_source=oncXGL2aPIKrtJdnWeFSnA", "review_count": 12, "categories": [{"alias": "mexican", "title": "Mexican"}], "rating": 3.5, "coordinates": {"latitude": 33.2192750894914, "longitude": -117.405714769626}, "transactions": [], "price": "$", "location": {"address1": "9TH St", "address2": "", "address3": null, "city": "Oceanside", "zip_code": "92058", "country": "US", "state": "CA", "display_address": ["9TH St", "Oceanside, CA 92058"]}, "phone": "", "display_phone": "", "distance": 4870.805813747501}, {"id": "Z3jKZ75wZZ583Q4CewlSDg", "alias": "pollos-maria-oceanside", "name": "Pollos Maria", "image_url": "https://s3-media3.fl.yelpcdn.com/bphoto/quLKKhK-loEkEuXyY2jrtw/o.jpg", "is_closed": false, "url": "https://www.yelp.com/biz/pollos-maria-oceanside?adjust_creative=oncXGL2aPIKrtJdnWeFSnA&utm_campaign=yelp_api_v3&utm_medium=api_v3_business_search&utm_source=oncXGL2aPIKrtJdnWeFSnA", "review_count": 180, "categories": [{"alias": "mexican", "title": "Mexican"}], "rating": 3.5, "coordinates": {"latitude": 33.229769, "longitude": -117.30825}, "transactions": [], "price": "$", "location": {"address1": "125 Old Grove Rd", "address2": "", "address3": "", "city": "Oceanside", "zip_code": "92057", "country": "US", "state": "CA", "display_address": ["125 Old Grove Rd", "Oceanside, CA 92057"]}, "phone": "+17604359071", "display_phone": "(760) 435-9071", "distance": 6438.708056637454}, {"id": "jAyvOg5I2OnRJjl7Hqhwbg", "alias": "taco-bell-oceanside-5", "name": "Taco Bell", "image_url": "https://s3-media3.fl.yelpcdn.com/bphoto/yFIgRwnJpOKaTTN7uF6u1g/o.jpg", "is_closed": false, "url": "https://www.yelp.com/biz/taco-bell-oceanside-5?adjust_creative=oncXGL2aPIKrtJdnWeFSnA&utm_campaign=yelp_api_v3&utm_medium=api_v3_business_search&utm_source=oncXGL2aPIKrtJdnWeFSnA", "review_count": 33, "categories": [{"alias": "mexican", "title": "Mexican"}, {"alias": "hotdogs", "title": "Fast Food"}], "rating": 3.5, "coordinates": {"latitude": 33.2272119758825, "longitude": -117.32697895513}, "transactions": ["delivery"], "price": "$", "location": {"address1": "3895 Mission Ave", "address2": null, "address3": null, "city": "Oceanside", "zip_code": "92054", "country": "US", "state": "CA", "display_address": ["3895 Mission Ave", "Oceanside, CA 92054"]}, "phone": "+17609677533", "display_phone": "(760) 967-7533", "distance": 4962.861377376639}, {"id": "xkicaBI4TKTyiLLKfwLpLQ", "alias": "la-hacienda-restaurant-and-party-hall-oceanside", "name": "La Hacienda Restaurant & Party Hall", "image_url": "https://s3-media2.fl.yelpcdn.com/bphoto/kLVwHl1hBxCz75nd_tK_fA/o.jpg", "is_closed": false, "url": "https://www.yelp.com/biz/la-hacienda-restaurant-and-party-hall-oceanside?adjust_creative=oncXGL2aPIKrtJdnWeFSnA&utm_campaign=yelp_api_v3&utm_medium=api_v3_business_search&utm_source=oncXGL2aPIKrtJdnWeFSnA", "review_count": 87, "categories": [{"alias": "mexican", "title": "Mexican"}], "rating": 3.5, "coordinates": {"latitude": 33.23298, "longitude": -117.32393}, "transactions": [], "price": "$", "location": {"address1": "300 Douglas Dr", "address2": "", "address3": "", "city": "Oceanside", "zip_code": "92058", "country": "US", "state": "CA", "display_address": ["300 Douglas Dr", "Oceanside, CA 92058"]}, "phone": "+17607221703", "display_phone": "(760) 722-1703", "distance": 5620.3848555743825}, {"id": "m0SB2eHVRUPfgTZndmGsrQ", "alias": "el-pollo-loco-oceanside-5", "name": "El Pollo Loco", "image_url": "https://s3-media1.fl.yelpcdn.com/bphoto/Re3rfzWAkE2sy5J42FLT0A/o.jpg", "is_closed": false, "url": "https://www.yelp.com/biz/el-pollo-loco-oceanside-5?adjust_creative=oncXGL2aPIKrtJdnWeFSnA&utm_campaign=yelp_api_v3&utm_medium=api_v3_business_search&utm_source=oncXGL2aPIKrtJdnWeFSnA", "review_count": 64, "categories": [{"alias": "hotdogs", "title": "Fast Food"}, {"alias": "mexican", "title": "Mexican"}], "rating": 3.5, "coordinates": {"latitude": 33.1816788, "longitude": -117.2959824}, "transactions": ["delivery", "pickup"], "price": "$", "location": {"address1": "3500 College Blvd", "address2": "", "address3": "", "city": "Oceanside", "zip_code": "92056", "country": "US", "state": "CA", "display_address": ["3500 College Blvd", "Oceanside, CA 92056"]}, "phone": "+17604779345", "display_phone": "(760) 477-9345", "distance": 6378.374301769595}, {"id": "yKrWA8yB3QtLDas3FnocGg", "alias": "albertos-mexican-food-oceanside-10", "name": "Albertos Mexican Food", "image_url": "https://s3-media3.fl.yelpcdn.com/bphoto/LTpfDADL7jtMBv0SrbtApg/o.jpg", "is_closed": false, "url": "https://www.yelp.com/biz/albertos-mexican-food-oceanside-10?adjust_creative=oncXGL2aPIKrtJdnWeFSnA&utm_campaign=yelp_api_v3&utm_medium=api_v3_business_search&utm_source=oncXGL2aPIKrtJdnWeFSnA", "review_count": 4, "categories": [{"alias": "mexican", "title": "Mexican"}], "rating": 2.5, "coordinates": {"latitude": 33.1942942661508, "longitude": -117.355482950807}, "transactions": [], "location": {"address1": "1920 Oceanside Blvd", "address2": "", "address3": "", "city": "Oceanside", "zip_code": "92054", "country": "US", "state": "CA", "display_address": ["1920 Oceanside Blvd", "Oceanside, CA 92054"]}, "phone": "", "display_phone": "", "distance": 683.2075728695528}, {"id": "lMPUCFm_UsbpkmHbamTAQQ", "alias": "victorias-mexican-food-oceanside", "name": "Victoria's Mexican Food", "image_url": "https://s3-media1.fl.yelpcdn.com/bphoto/EQclOkOPYLWST5PIKZcaUQ/o.jpg", "is_closed": false, "url": "https://www.yelp.com/biz/victorias-mexican-food-oceanside?adjust_creative=oncXGL2aPIKrtJdnWeFSnA&utm_campaign=yelp_api_v3&utm_medium=api_v3_business_search&utm_source=oncXGL2aPIKrtJdnWeFSnA", "review_count": 105, "categories": [{"alias": "mexican", "title": "Mexican"}], "rating": 3.5, "coordinates": {"latitude": 33.245251, "longitude": -117.29042}, "transactions": [], "price": "$", "location": {"address1": "495 College Blvd", "address2": "Ste C", "address3": "", "city": "Oceanside", "zip_code": "92057", "country": "US", "state": "CA", "display_address": ["495 College Blvd", "Ste C", "Oceanside, CA 92057"]}, "phone": "+17604141104", "display_phone": "(760) 414-1104", "distance": 8811.414465498063}, {"id": "9kCVQdIb1lKfH2P4iW0cHg", "alias": "los-tacos-oceanside-2", "name": "Los Tacos", "image_url": "https://s3-media1.fl.yelpcdn.com/bphoto/PguHMytlF1iII-5NZF75kQ/o.jpg", "is_closed": false, "url": "https://www.yelp.com/biz/los-tacos-oceanside-2?adjust_creative=oncXGL2aPIKrtJdnWeFSnA&utm_campaign=yelp_api_v3&utm_medium=api_v3_business_search&utm_source=oncXGL2aPIKrtJdnWeFSnA", "review_count": 93, "categories": [{"alias": "mexican", "title": "Mexican"}], "rating": 3.5, "coordinates": {"latitude": 33.1784354, "longitude": -117.2953997}, "transactions": [], "price": "$", "location": {"address1": "3480 Marron Rd", "address2": "Ste 3B-104", "address3": null, "city": "Oceanside", "zip_code": "92056", "country": "US", "state": "CA", "display_address": ["3480 Marron Rd", "Ste 3B-104", "Oceanside, CA 92056"]}, "phone": "+17608428618", "display_phone": "(760) 842-8618", "distance": 6514.417960642066}, {"id": "9K-2oBXU6MmBPn0XIfU6eA", "alias": "chipotle-mexican-grill-oceanside-5", "name": "Chipotle Mexican Grill", "image_url": "https://s3-media2.fl.yelpcdn.com/bphoto/AaadVAae67SOdZako2T6SQ/o.jpg", "is_closed": false, "url": "https://www.yelp.com/biz/chipotle-mexican-grill-oceanside-5?adjust_creative=oncXGL2aPIKrtJdnWeFSnA&utm_campaign=yelp_api_v3&utm_medium=api_v3_business_search&utm_source=oncXGL2aPIKrtJdnWeFSnA", "review_count": 45, "categories": [{"alias": "mexican", "title": "Mexican"}, {"alias": "hotdogs", "title": "Fast Food"}], "rating": 2.5, "coordinates": {"latitude": 33.2452251149466, "longitude": -117.290513811569}, "transactions": [], "price": "$", "location": {"address1": "495 College BLVD", "address2": "Ste A&B", "address3": "", "city": "Oceanside", "zip_code": "92057", "country": "US", "state": "CA", "display_address": ["495 College BLVD", "Ste A&B", "Oceanside, CA 92057"]}, "phone": "+17607581493", "display_phone": "(760) 758-1493", "distance": 8802.889670516606}, {"id": "92bdzIsFOO2YXlX_TFxSWQ", "alias": "king-burrito-oceanside-2", "name": "King Burrito", "image_url": "https://s3-media3.fl.yelpcdn.com/bphoto/yRUiHnrP7buZ1TX0khBSIw/o.jpg", "is_closed": false, "url": "https://www.yelp.com/biz/king-burrito-oceanside-2?adjust_creative=oncXGL2aPIKrtJdnWeFSnA&utm_campaign=yelp_api_v3&utm_medium=api_v3_business_search&utm_source=oncXGL2aPIKrtJdnWeFSnA", "review_count": 44, "categories": [{"alias": "mexican", "title": "Mexican"}], "rating": 3.5, "coordinates": {"latitude": 33.17883, "longitude": -117.29487}, "transactions": [], "price": "$", "location": {"address1": "3490 Marron Rd", "address2": null, "address3": null, "city": "Oceanside", "zip_code": "92056", "country": "US", "state": "CA", "display_address": ["3490 Marron Rd", "Oceanside, CA 92056"]}, "phone": "+17607209747", "display_phone": "(760) 720-9747", "distance": 6561.398753967292}, {"id": "mDajqXWWdEitENzdb1_wzg", "alias": "el-pollo-loco-oceanside-6", "name": "El Pollo Loco", "image_url": "https://s3-media2.fl.yelpcdn.com/bphoto/FR-Z7uPSGt1xgiar81et9g/o.jpg", "is_closed": false, "url": "https://www.yelp.com/biz/el-pollo-loco-oceanside-6?adjust_creative=oncXGL2aPIKrtJdnWeFSnA&utm_campaign=yelp_api_v3&utm_medium=api_v3_business_search&utm_source=oncXGL2aPIKrtJdnWeFSnA", "review_count": 41, "categories": [{"alias": "hotdogs", "title": "Fast Food"}, {"alias": "mexican", "title": "Mexican"}], "rating": 3.0, "coordinates": {"latitude": 33.2469313201159, "longitude": -117.291715446391}, "transactions": ["delivery"], "price": "$", "location": {"address1": "483 College Blvd", "address2": null, "address3": null, "city": "Oceanside", "zip_code": "92057", "country": "US", "state": "CA", "display_address": ["483 College Blvd", "Oceanside, CA 92057"]}, "phone": "+17604078279", "display_phone": "(760) 407-8279", "distance": 8842.477821895847}, {"id": "0YVSnUrOFilIIQbOUfqNVA", "alias": "del-taco-oceanside-2", "name": "Del Taco", "image_url": "https://s3-media1.fl.yelpcdn.com/bphoto/d1cjGi5_w86GytESMqVtqQ/o.jpg", "is_closed": false, "url": "https://www.yelp.com/biz/del-taco-oceanside-2?adjust_creative=oncXGL2aPIKrtJdnWeFSnA&utm_campaign=yelp_api_v3&utm_medium=api_v3_business_search&utm_source=oncXGL2aPIKrtJdnWeFSnA", "review_count": 50, "categories": [{"alias": "mexican", "title": "Mexican"}, {"alias": "hotdogs", "title": "Fast Food"}], "rating": 2.5, "coordinates": {"latitude": 33.209, "longitude": -117.28432}, "transactions": [], "price": "$", "location": {"address1": "1970 College Blvd", "address2": "", "address3": "", "city": "Oceanside", "zip_code": "92056", "country": "US", "state": "CA", "display_address": ["1970 College Blvd", "Oceanside, CA 92056"]}, "phone": "+17609453786", "display_phone": "(760) 945-3786", "distance": 7479.422551089028}, {"id": "HO-h3WtTL6CEnFZAzpau4A", "alias": "albertos-oceanside", "name": "Alberto's", "image_url": "https://s3-media3.fl.yelpcdn.com/bphoto/97W-tchNJmnN0AXC3eambA/o.jpg", "is_closed": false, "url": "https://www.yelp.com/biz/albertos-oceanside?adjust_creative=oncXGL2aPIKrtJdnWeFSnA&utm_campaign=yelp_api_v3&utm_medium=api_v3_business_search&utm_source=oncXGL2aPIKrtJdnWeFSnA", "review_count": 91, "categories": [{"alias": "mexican", "title": "Mexican"}], "rating": 2.5, "coordinates": {"latitude": 33.2379092, "longitude": -117.2975009}, "transactions": [], "price": "$", "location": {"address1": "4645 Frazee Rd", "address2": "Ste H", "address3": "", "city": "Oceanside", "zip_code": "92057", "country": "US", "state": "CA", "display_address": ["4645 Frazee Rd", "Ste H", "Oceanside, CA 92057"]}, "phone": "+17607576500", "display_phone": "(760) 757-6500", "distance": 7767.62608418305}, {"id": "Uu289Tm4rLD5CaZMg2BK8w", "alias": "el-bronco-oceanside", "name": "El Bronco", "image_url": "https://s3-media4.fl.yelpcdn.com/bphoto/3MDuAsWOgaL9a7LV-nSsEQ/o.jpg", "is_closed": false, "url": "https://www.yelp.com/biz/el-bronco-oceanside?adjust_creative=oncXGL2aPIKrtJdnWeFSnA&utm_campaign=yelp_api_v3&utm_medium=api_v3_business_search&utm_source=oncXGL2aPIKrtJdnWeFSnA", "review_count": 95, "categories": [{"alias": "mexican", "title": "Mexican"}], "rating": 3.0, "coordinates": {"latitude": 33.206159, "longitude": -117.285363}, "transactions": [], "price": "$", "location": {"address1": "4171 Oceanside Blvd", "address2": "Ste 106", "address3": "", "city": "Oceanside", "zip_code": "92056", "country": "US", "state": "CA", "display_address": ["4171 Oceanside Blvd", "Ste 106", "Oceanside, CA 92056"]}, "phone": "+17606430881", "display_phone": "(760) 643-0881", "distance": 7329.730223558843}, {"id": "NQk2Ph5EnF5U6fil3vZwFA", "alias": "albertos-mexican-food-oceanside-6", "name": "Alberto's Mexican Food", "image_url": "https://s3-media4.fl.yelpcdn.com/bphoto/VlvUDtykurb7e387fCgL_w/o.jpg", "is_closed": false, "url": "https://www.yelp.com/biz/albertos-mexican-food-oceanside-6?adjust_creative=oncXGL2aPIKrtJdnWeFSnA&utm_campaign=yelp_api_v3&utm_medium=api_v3_business_search&utm_source=oncXGL2aPIKrtJdnWeFSnA", "review_count": 48, "categories": [{"alias": "mexican", "title": "Mexican"}], "rating": 2.5, "coordinates": {"latitude": 33.2506161345609, "longitude": -117.300826480524}, "transactions": [], "price": "$", "location": {"address1": "4904 N River Rd", "address2": "Ste 100", "address3": "", "city": "Oceanside", "zip_code": "92057", "country": "US", "state": "CA", "display_address": ["4904 N River Rd", "Ste 100", "Oceanside, CA 92057"]}, "phone": "+17604332287", "display_phone": "(760) 433-2287", "distance": 8524.722609788014}, {"id": "uJf72q-sUYMSaZ_h5Eannw", "alias": "de-kotija-taco-shop-oceanside", "name": "De Kotija Taco Shop", "image_url": "https://s3-media2.fl.yelpcdn.com/bphoto/nyfHFQsJvbHbpOonMxDQ2g/o.jpg", "is_closed": false, "url": "https://www.yelp.com/biz/de-kotija-taco-shop-oceanside?adjust_creative=oncXGL2aPIKrtJdnWeFSnA&utm_campaign=yelp_api_v3&utm_medium=api_v3_business_search&utm_source=oncXGL2aPIKrtJdnWeFSnA", "review_count": 77, "categories": [{"alias": "mexican", "title": "Mexican"}], "rating": 3.5, "coordinates": {"latitude": 33.1808993, "longitude": -117.2959283}, "transactions": [], "price": "$", "location": {"address1": "3504 College Blvd", "address2": "Ste D", "address3": "", "city": "Oceanside", "zip_code": "92056", "country": "US", "state": "CA", "display_address": ["3504 College Blvd", "Ste D", "Oceanside, CA 92056"]}, "phone": "+17607580399", "display_phone": "(760) 758-0399", "distance": 6418.25894225579}, {"id": "oUMmJE-vdtVrNoLG2jmx_g", "alias": "taco-bell-oceanside-2", "name": "Taco Bell", "image_url": "https://s3-media1.fl.yelpcdn.com/bphoto/RJti1FyuVHyZuRRpwXpGtQ/o.jpg", "is_closed": false, "url": "https://www.yelp.com/biz/taco-bell-oceanside-2?adjust_creative=oncXGL2aPIKrtJdnWeFSnA&utm_campaign=yelp_api_v3&utm_medium=api_v3_business_search&utm_source=oncXGL2aPIKrtJdnWeFSnA", "review_count": 37, "categories": [{"alias": "mexican", "title": "Mexican"}, {"alias": "tex-mex", "title": "Tex-Mex"}, {"alias": "hotdogs", "title": "Fast Food"}], "rating": 2.5, "coordinates": {"latitude": 33.182152, "longitude": -117.29156}, "transactions": [], "price": "$", "location": {"address1": "3845 Plaza Dr", "address2": "", "address3": "", "city": "Oceanside", "zip_code": "92056", "country": "US", "state": "CA", "display_address": ["3845 Plaza Dr", "Oceanside, CA 92056"]}, "phone": "+17609417307", "display_phone": "(760) 941-7307", "distance": 6764.5417376193955}, {"id": "a5dmCm_1sLVPGoxzTwyouA", "alias": "taco-bell-oceanside-3", "name": "Taco Bell", "image_url": "https://s3-media2.fl.yelpcdn.com/bphoto/OIeWXOScXTsoVZpNEJd1PA/o.jpg", "is_closed": false, "url": "https://www.yelp.com/biz/taco-bell-oceanside-3?adjust_creative=oncXGL2aPIKrtJdnWeFSnA&utm_campaign=yelp_api_v3&utm_medium=api_v3_business_search&utm_source=oncXGL2aPIKrtJdnWeFSnA", "review_count": 40, "categories": [{"alias": "mexican", "title": "Mexican"}, {"alias": "tex-mex", "title": "Tex-Mex"}, {"alias": "hotdogs", "title": "Fast Food"}], "rating": 2.5, "coordinates": {"latitude": 33.24304, "longitude": -117.29161}, "transactions": ["delivery"], "price": "$", "location": {"address1": "695 College Blvd", "address2": "", "address3": "", "city": "Oceanside", "zip_code": "92057", "country": "US", "state": "CA", "display_address": ["695 College Blvd", "Oceanside, CA 92057"]}, "phone": "+17606317860", "display_phone": "(760) 631-7860", "distance": 8581.71914508024}, {"id": "h46nmV8PWF4T4ULPJztB_Q", "alias": "eribertos-mexican-food-oceanside-2", "name": "Eriberto's Mexican Food", "image_url": "https://s3-media2.fl.yelpcdn.com/bphoto/9s0EQ1NztqTyroV0X_wX4w/o.jpg", "is_closed": false, "url": "https://www.yelp.com/biz/eribertos-mexican-food-oceanside-2?adjust_creative=oncXGL2aPIKrtJdnWeFSnA&utm_campaign=yelp_api_v3&utm_medium=api_v3_business_search&utm_source=oncXGL2aPIKrtJdnWeFSnA", "review_count": 101, "categories": [{"alias": "mexican", "title": "Mexican"}], "rating": 2.5, "coordinates": {"latitude": 33.25511, "longitude": -117.29977}, "transactions": [], "price": "$", "location": {"address1": "644 N Redondo Dr", "address2": "", "address3": "", "city": "Oceanside", "zip_code": "92057", "country": "US", "state": "CA", "display_address": ["644 N Redondo Dr", "Oceanside, CA 92057"]}, "phone": "+17604335300", "display_phone": "(760) 433-5300", "distance": 8962.593372505173}, {"id": "xBH6IqrzDaRGDwYiFDPtOQ", "alias": "taco-bell-oceanside-6", "name": "Taco Bell", "image_url": "https://s3-media1.fl.yelpcdn.com/bphoto/4FqmkYl0ahqrafu9w4SNNA/o.jpg", "is_closed": false, "url": "https://www.yelp.com/biz/taco-bell-oceanside-6?adjust_creative=oncXGL2aPIKrtJdnWeFSnA&utm_campaign=yelp_api_v3&utm_medium=api_v3_business_search&utm_source=oncXGL2aPIKrtJdnWeFSnA", "review_count": 19, "categories": [{"alias": "hotdogs", "title": "Fast Food"}, {"alias": "tex-mex", "title": "Tex-Mex"}, {"alias": "mexican", "title": "Mexican"}], "rating": 2.0, "coordinates": {"latitude": 33.20608, "longitude": -117.2895}, "transactions": [], "price": "$", "location": {"address1": "4100 Oceanside Blvd.", "address2": "", "address3": "", "city": "Oceanside", "zip_code": "92056", "country": "US", "state": "CA", "display_address": ["4100 Oceanside Blvd.", "Oceanside, CA 92056"]}, "phone": "+17606309600", "display_phone": "(760) 630-9600", "distance": 6949.9180625404015}, {"id": "gZntgfa1HZGb2DOkbFpIQA", "alias": "senor-albertos-oceanside", "name": "Senor Alberto's", "image_url": "https://s3-media2.fl.yelpcdn.com/bphoto/RetsqFslWSQNf8TKS5jsVQ/o.jpg", "is_closed": false, "url": "https://www.yelp.com/biz/senor-albertos-oceanside?adjust_creative=oncXGL2aPIKrtJdnWeFSnA&utm_campaign=yelp_api_v3&utm_medium=api_v3_business_search&utm_source=oncXGL2aPIKrtJdnWeFSnA", "review_count": 37, "categories": [{"alias": "mexican", "title": "Mexican"}, {"alias": "latin", "title": "Latin American"}, {"alias": "hotdogs", "title": "Fast Food"}], "rating": 3.0, "coordinates": {"latitude": 33.2450226655832, "longitude": -117.321352706771}, "transactions": [], "price": "$", "location": {"address1": "650 Douglas Dr", "address2": "", "address3": "", "city": "Oceanside", "zip_code": "92058", "country": "US", "state": "CA", "display_address": ["650 Douglas Dr", "Oceanside, CA 92058"]}, "phone": "+14426157303", "display_phone": "(442) 615-7303", "distance": 6846.359281600885}], "total": 80}