{"businesses": [{"id": "h3wp5B3eedtVf6sDuqYvkg", "alias": "flying-pig-pub-and-kitchen-oceanside", "name": "Flying Pig Pub & Kitchen", "image_url": "https://s3-media3.fl.yelpcdn.com/bphoto/q_DLqCqkOtbOi4Ck1nQjkA/o.jpg", "is_closed": false, "url": "https://www.yelp.com/biz/flying-pig-pub-and-kitchen-oceanside?adjust_creative=oncXGL2aPIKrtJdnWeFSnA&utm_campaign=yelp_api_v3&utm_medium=api_v3_business_search&utm_source=oncXGL2aPIKrtJdnWeFSnA", "review_count": 1599, "categories": [{"alias": "pubs", "title": "Pubs"}, {"alias": "newamerican", "title": "American (New)"}], "rating": 4.5, "coordinates": {"latitude": 33.18844, "longitude": -117.37407}, "transactions": [], "price": "$$", "location": {"address1": "626 S Tremont St", "address2": "", "address3": "", "city": "Oceanside", "zip_code": "92054", "country": "US", "state": "CA", "display_address": ["626 S Tremont St", "Oceanside, CA 92054"]}, "phone": "+17604532940", "display_phone": "(760) 453-2940", "distance": 6683.980842785039}, {"id": "r4JVU76Z4dHDEtAGF4AtkQ", "alias": "local-tap-house-and-kitchen-oceanside-2", "name": "Local Tap House & Kitchen", "image_url": "https://s3-media2.fl.yelpcdn.com/bphoto/Gwzdk0JMKDiVWASfDqIRqg/o.jpg", "is_closed": false, "url": "https://www.yelp.com/biz/local-tap-house-and-kitchen-oceanside-2?adjust_creative=oncXGL2aPIKrtJdnWeFSnA&utm_campaign=yelp_api_v3&utm_medium=api_v3_business_search&utm_source=oncXGL2aPIKrtJdnWeFSnA", "review_count": 1711, "categories": [{"alias": "newamerican", "title": "American (New)"}, {"alias": "cocktailbars", "title": "Cocktail Bars"}], "rating": 4.5, "coordinates": {"latitude": 33.192741, "longitude": -117.376506}, "transactions": [], "price": "$$", "location": {"address1": "308 S Coast Hwy", "address2": "", "address3": "", "city": "Oceanside", "zip_code": "92054", "country": "US", "state": "CA", "display_address": ["308 S Coast Hwy", "Oceanside, CA 92054"]}, "phone": "+17605471469", "display_phone": "(760) 547-1469", "distance": 6566.405459052499}, {"id": "qB7HpINMiMDGyMa3Ql6zQA", "alias": "333-pacific-oceanside", "name": "333 Pacific", "image_url": "https://s3-media3.fl.yelpcdn.com/bphoto/TawVgXadIg96UZ9wD6VtNg/o.jpg", "is_closed": false, "url": "https://www.yelp.com/biz/333-pacific-oceanside?adjust_creative=oncXGL2aPIKrtJdnWeFSnA&utm_campaign=yelp_api_v3&utm_medium=api_v3_business_search&utm_source=oncXGL2aPIKrtJdnWeFSnA", "review_count": 1434, "categories": [{"alias": "newamerican", "title": "American (New)"}, {"alias": "seafood", "title": "Seafood"}, {"alias": "asianfusion", "title": "Asian Fusion"}], "rating": 4.0, "coordinates": {"latitude": 33.194954, "longitude": -117.383679}, "transactions": [], "price": "$$$", "location": {"address1": "333 N Pacific St", "address2": "", "address3": "", "city": "Oceanside", "zip_code": "92054", "country": "US", "state": "CA", "display_address": ["333 N Pacific St", "Oceanside, CA 92054"]}, "phone": "+17604333333", "display_phone": "(760) 433-3333", "distance": 7003.062272295087}, {"id": "i9ZYCprFuqRnl6EPuU0YcA", "alias": "wrench-and-rodent-seabasstropub-oceanside", "name": "Wrench & Rodent Seabasstropub", "image_url": "https://s3-media2.fl.yelpcdn.com/bphoto/UXVgIOCsAIR2ieooF_EqOg/o.jpg", "is_closed": false, "url": "https://www.yelp.com/biz/wrench-and-rodent-seabasstropub-oceanside?adjust_creative=oncXGL2aPIKrtJdnWeFSnA&utm_campaign=yelp_api_v3&utm_medium=api_v3_business_search&utm_source=oncXGL2aPIKrtJdnWeFSnA", "review_count": 722, "categories": [{"alias": "newamerican", "title": "American (New)"}, {"alias": "seafood", "title": "Seafood"}, {"alias": "sushi", "title": "Sushi Bars"}], "rating": 4.5, "coordinates": {"latitude": 33.174645, "longitude": -117.361908}, "transactions": [], "price": "$$", "location": {"address1": "1815 S Coast Hwy", "address2": "", "address3": "", "city": "Oceanside", "zip_code": "92054", "country": "US", "state": "CA", "display_address": ["1815 S Coast Hwy", "Oceanside, CA 92054"]}, "phone": "+17602710531", "display_phone": "(760) 271-0531", "distance": 7011.81758625457}, {"id": "8cP2v50LCeQF60KIe8rE9A", "alias": "masters-kitchen-and-cocktail-oceanside-2", "name": "Masters Kitchen and Cocktail", "image_url": "https://s3-media2.fl.yelpcdn.com/bphoto/U3eb5z6X5fa2DGjAHdoNdw/o.jpg", "is_closed": false, "url": "https://www.yelp.com/biz/masters-kitchen-and-cocktail-oceanside-2?adjust_creative=oncXGL2aPIKrtJdnWeFSnA&utm_campaign=yelp_api_v3&utm_medium=api_v3_business_search&utm_source=oncXGL2aPIKrtJdnWeFSnA", "review_count": 746, "categories": [{"alias": "newamerican", "title": "American (New)"}, {"alias": "cocktailbars", "title": "Cocktail Bars"}], "rating": 4.0, "coordinates": {"latitude": 33.1940193, "longitude": -117.3775711}, "transactions": [], "price": "$$", "location": {"address1": "208 S Coast Hwy", "address2": null, "address3": "", "city": "Oceanside", "zip_code": "92054", "country": "US", "state": "CA", "display_address": ["208 S Coast Hwy", "Oceanside, CA 92054"]}, "phone": "+17602316278", "display_phone": "(760) 231-6278", "distance": 6571.856115323916}, {"id": "9fWmCBC2eKe4hLfIVnrU7Q", "alias": "barrel-republic-oceanside-oceanside", "name": "Barrel Republic Oceanside", "image_url": "https://s3-media1.fl.yelpcdn.com/bphoto/BrCwgDGqd-syRdPpRfrY2g/o.jpg", "is_closed": false, "url": "https://www.yelp.com/biz/barrel-republic-oceanside-oceanside?adjust_creative=oncXGL2aPIKrtJdnWeFSnA&utm_campaign=yelp_api_v3&utm_medium=api_v3_business_search&utm_source=oncXGL2aPIKrtJdnWeFSnA", "review_count": 412, "categories": [{"alias": "newamerican", "title": "American (New)"}, {"alias": "sportsbars", "title": "Sports Bars"}, {"alias": "beerbar", "title": "Beer Bar"}], "rating": 4.5, "coordinates": {"latitude": 33.1962741936471, "longitude": -117.380183078349}, "transactions": [], "price": "$$", "location": {"address1": "215 N Coast Hwy", "address2": "", "address3": "", "city": "Oceanside", "zip_code": "92054", "country": "US", "state": "CA", "display_address": ["215 N Coast Hwy", "Oceanside, CA 92054"]}, "phone": "+17604350042", "display_phone": "(760) 435-0042", "distance": 6647.772761130778}, {"id": "eIUd0dPpd-8oWIQu2ch9gw", "alias": "campfire-carlsbad-2", "name": "Campfire", "image_url": "https://s3-media1.fl.yelpcdn.com/bphoto/FXDX-opcJJjGgSrlnFaVJQ/o.jpg", "is_closed": false, "url": "https://www.yelp.com/biz/campfire-carlsbad-2?adjust_creative=oncXGL2aPIKrtJdnWeFSnA&utm_campaign=yelp_api_v3&utm_medium=api_v3_business_search&utm_source=oncXGL2aPIKrtJdnWeFSnA", "review_count": 1153, "categories": [{"alias": "newamerican", "title": "American (New)"}], "rating": 4.5, "coordinates": {"latitude": 33.16199, "longitude": -117.35105}, "transactions": [], "price": "$$", "location": {"address1": "2725 State St", "address2": "", "address3": null, "city": "Carlsbad", "zip_code": "92008", "country": "US", "state": "CA", "display_address": ["2725 State St", "Carlsbad, CA 92008"]}, "phone": "+17606375121", "display_phone": "(760) 637-5121", "distance": 7741.068007197362}, {"id": "ROiheYhZWbyBUxwtrfB2tA", "alias": "shorehouse-kitchen-carlsbad-4", "name": "Shorehouse Kitchen", "image_url": "https://s3-media2.fl.yelpcdn.com/bphoto/_JjgC4-cn37m-biYNdvrWQ/o.jpg", "is_closed": false, "url": "https://www.yelp.com/biz/shorehouse-kitchen-carlsbad-4?adjust_creative=oncXGL2aPIKrtJdnWeFSnA&utm_campaign=yelp_api_v3&utm_medium=api_v3_business_search&utm_source=oncXGL2aPIKrtJdnWeFSnA", "review_count": 170, "categories": [{"alias": "breakfast_brunch", "title": "Breakfast & Brunch"}, {"alias": "coffee", "title": "Coffee & Tea"}, {"alias": "newamerican", "title": "American (New)"}], "rating": 4.5, "coordinates": {"latitude": 33.16092, "longitude": -117.35012}, "transactions": [], "price": "$$", "location": {"address1": "2833 State St", "address2": null, "address3": "", "city": "Carlsbad", "zip_code": "92008", "country": "US", "state": "CA", "display_address": ["2833 State St", "Carlsbad, CA 92008"]}, "phone": "+17607203300", "display_phone": "(760) 720-3300", "distance": 7818.157434220213}, {"id": "QSwRg-Fqd24S4vohu6r0jg", "alias": "dija-mara-oceanside", "name": "Dija Mara", "image_url": "https://s3-media2.fl.yelpcdn.com/bphoto/lZMCn88Woj9ZBSf0Zinklw/o.jpg", "is_closed": false, "url": "https://www.yelp.com/biz/dija-mara-oceanside?adjust_creative=oncXGL2aPIKrtJdnWeFSnA&utm_campaign=yelp_api_v3&utm_medium=api_v3_business_search&utm_source=oncXGL2aPIKrtJdnWeFSnA", "review_count": 174, "categories": [{"alias": "indonesian", "title": "Indonesian"}, {"alias": "newamerican", "title": "American (New)"}, {"alias": "tapasmallplates", "title": "Tapas/Small Plates"}], "rating": 4.5, "coordinates": {"latitude": 33.19339, "longitude": -117.37706}, "transactions": [], "price": "$$", "location": {"address1": "232 S Coast Hwy", "address2": null, "address3": "", "city": "Oceanside", "zip_code": "92054", "country": "US", "state": "CA", "display_address": ["232 S Coast Hwy", "Oceanside, CA 92054"]}, "phone": "+17602315376", "display_phone": "(760) 231-5376", "distance": 6570.600816965206}, {"id": "hhenKUfHpBIve5DV6eWNEA", "alias": "mission-avenue-bar-and-grill-oceanside-4", "name": "Mission Avenue Bar And Grill", "image_url": "https://s3-media4.fl.yelpcdn.com/bphoto/UOq43sDzgRtyemWaa6qPug/o.jpg", "is_closed": false, "url": "https://www.yelp.com/biz/mission-avenue-bar-and-grill-oceanside-4?adjust_creative=oncXGL2aPIKrtJdnWeFSnA&utm_campaign=yelp_api_v3&utm_medium=api_v3_business_search&utm_source=oncXGL2aPIKrtJdnWeFSnA", "review_count": 340, "categories": [{"alias": "cocktailbars", "title": "Cocktail Bars"}, {"alias": "newamerican", "title": "American (New)"}], "rating": 4.0, "coordinates": {"latitude": 33.1969768, "longitude": -117.3774544}, "transactions": [], "price": "$$", "location": {"address1": "711 Mission Ave", "address2": "", "address3": "", "city": "Oceanside", "zip_code": "92054", "country": "US", "state": "CA", "display_address": ["711 Mission Ave", "Oceanside, CA 92054"]}, "phone": "+17606372222", "display_phone": "(760) 637-2222", "distance": 6398.971132497565}, {"id": "c3LuWIdhNxn097O6Ie14UA", "alias": "wildwood-crossing-vista", "name": "WildWood Crossing", "image_url": "https://s3-media4.fl.yelpcdn.com/bphoto/YS6_sXH1HN5aE13RjclZJA/o.jpg", "is_closed": false, "url": "https://www.yelp.com/biz/wildwood-crossing-vista?adjust_creative=oncXGL2aPIKrtJdnWeFSnA&utm_campaign=yelp_api_v3&utm_medium=api_v3_business_search&utm_source=oncXGL2aPIKrtJdnWeFSnA", "review_count": 20, "categories": [{"alias": "newamerican", "title": "American (New)"}, {"alias": "musicvenues", "title": "Music Venues"}, {"alias": "bars", "title": "Bars"}], "rating": 4.0, "coordinates": {"latitude": 33.2048691910313, "longitude": -117.236488660713}, "transactions": [], "location": {"address1": "116 Civic Center Dr", "address2": null, "address3": "", "city": "Vista", "zip_code": "92084", "country": "US", "state": "CA", "display_address": ["116 Civic Center Dr", "Vista, CA 92084"]}, "phone": "+17607581513", "display_phone": "(760) 758-1513", "distance": 7955.813089800186}, {"id": "3hzk6tb8tyZb1OCkCOeicg", "alias": "clara-carlsbad", "name": "Clara", "image_url": "https://s3-media2.fl.yelpcdn.com/bphoto/9xkqEP16h2j6-rf_WDygnA/o.jpg", "is_closed": false, "url": "https://www.yelp.com/biz/clara-carlsbad?adjust_creative=oncXGL2aPIKrtJdnWeFSnA&utm_campaign=yelp_api_v3&utm_medium=api_v3_business_search&utm_source=oncXGL2aPIKrtJdnWeFSnA", "review_count": 71, "categories": [{"alias": "cocktailbars", "title": "Cocktail Bars"}, {"alias": "newamerican", "title": "American (New)"}], "rating": 4.5, "coordinates": {"latitude": 33.15941, "longitude": -117.3505}, "transactions": [], "location": {"address1": "300 Carlsbad Village Dr", "address2": "Ste 213", "address3": "", "city": "Carlsbad", "zip_code": "92008", "country": "US", "state": "CA", "display_address": ["300 Carlsbad Village Dr", "Ste 213", "Carlsbad, CA 92008"]}, "phone": "+17609940699", "display_phone": "(760) 994-0699", "distance": 8004.004620652457}, {"id": "LQQROi9CAwUBY8ekExwM2Q", "alias": "tin-fish-oceanside", "name": "Tin Fish", "image_url": "https://s3-media2.fl.yelpcdn.com/bphoto/JQtUBl2N-inkHPurriSGhw/o.jpg", "is_closed": false, "url": "https://www.yelp.com/biz/tin-fish-oceanside?adjust_creative=oncXGL2aPIKrtJdnWeFSnA&utm_campaign=yelp_api_v3&utm_medium=api_v3_business_search&utm_source=oncXGL2aPIKrtJdnWeFSnA", "review_count": 194, "categories": [{"alias": "seafood", "title": "Seafood"}, {"alias": "newamerican", "title": "American (New)"}, {"alias": "breakfast_brunch", "title": "Breakfast & Brunch"}], "rating": 4.0, "coordinates": {"latitude": 33.194476, "longitude": -117.384109}, "transactions": [], "price": "$$", "location": {"address1": "302 Strand N", "address2": null, "address3": "", "city": "Oceanside", "zip_code": "92054", "country": "US", "state": "CA", "display_address": ["302 Strand N", "Oceanside, CA 92054"]}, "phone": "+17609660007", "display_phone": "(760) 966-0007", "distance": 7064.1811375989555}, {"id": "JWxkKtuolmgZ8fd2yl6HTA", "alias": "pour-house-oceanside-2", "name": "Pour House", "image_url": "https://s3-media2.fl.yelpcdn.com/bphoto/hqP4QfGNBcj8bdUKCI-3Xw/o.jpg", "is_closed": false, "url": "https://www.yelp.com/biz/pour-house-oceanside-2?adjust_creative=oncXGL2aPIKrtJdnWeFSnA&utm_campaign=yelp_api_v3&utm_medium=api_v3_business_search&utm_source=oncXGL2aPIKrtJdnWeFSnA", "review_count": 192, "categories": [{"alias": "cocktailbars", "title": "Cocktail Bars"}, {"alias": "musicvenues", "title": "Music Venues"}, {"alias": "newamerican", "title": "American (New)"}], "rating": 4.0, "coordinates": {"latitude": 33.1733901, "longitude": -117.3608654}, "transactions": [], "price": "$$", "location": {"address1": "1903 South Coast Hwy", "address2": "", "address3": "", "city": "Oceanside", "zip_code": "92054", "country": "US", "state": "CA", "display_address": ["1903 South Coast Hwy", "Oceanside, CA 92054"]}, "phone": "+17607305944", "display_phone": "(760) 730-5944", "distance": 7079.391415164002}, {"id": "qWqcvhQLZ82h60SsJLGZ3A", "alias": "beach-plum-kitchen-carlsbad-2", "name": "Beach Plum Kitchen", "image_url": "https://s3-media1.fl.yelpcdn.com/bphoto/FI4TReSs3CWqm_2BSQ9SCg/o.jpg", "is_closed": false, "url": "https://www.yelp.com/biz/beach-plum-kitchen-carlsbad-2?adjust_creative=oncXGL2aPIKrtJdnWeFSnA&utm_campaign=yelp_api_v3&utm_medium=api_v3_business_search&utm_source=oncXGL2aPIKrtJdnWeFSnA", "review_count": 1190, "categories": [{"alias": "newamerican", "title": "American (New)"}, {"alias": "breakfast_brunch", "title": "Breakfast & Brunch"}], "rating": 4.5, "coordinates": {"latitude": 33.104408, "longitude": -117.267566}, "transactions": [], "price": "$$", "location": {"address1": "6971 El Camino Real", "address2": "Ste 201", "address3": "", "city": "Carlsbad", "zip_code": "92009", "country": "US", "state": "CA", "display_address": ["6971 El Camino Real", "Ste 201", "Carlsbad, CA 92009"]}, "phone": "+17609311362", "display_phone": "(760) 931-1362", "distance": 14319.042501880513}, {"id": "3qBVn9WHsQH-yCTeG1bmIw", "alias": "grandmas-restaurant-oceanside", "name": "Grandma's Restaurant", "image_url": "https://s3-media1.fl.yelpcdn.com/bphoto/tC6bw_UnLhrvSzR7yCYc1A/o.jpg", "is_closed": false, "url": "https://www.yelp.com/biz/grandmas-restaurant-oceanside?adjust_creative=oncXGL2aPIKrtJdnWeFSnA&utm_campaign=yelp_api_v3&utm_medium=api_v3_business_search&utm_source=oncXGL2aPIKrtJdnWeFSnA", "review_count": 60, "categories": [{"alias": "newamerican", "title": "American (New)"}], "rating": 4.0, "coordinates": {"latitude": 33.2176627, "longitude": -117.330741}, "transactions": [], "price": "$", "location": {"address1": "539 Vista Bella", "address2": "", "address3": "", "city": "Oceanside", "zip_code": "92057", "country": "US", "state": "CA", "display_address": ["539 Vista Bella", "Oceanside, CA 92057"]}, "phone": "+17607578777", "display_phone": "(760) 757-8777", "distance": 1542.900578251952}, {"id": "LP9rpAaBpCJM7yNHL0wNqw", "alias": "lighthouse-oyster-bar-and-grill-oceanside", "name": "Lighthouse Oyster Bar & Grill", "image_url": "https://s3-media4.fl.yelpcdn.com/bphoto/Wm4ymuMKIGTlvhO99HbXLA/o.jpg", "is_closed": false, "url": "https://www.yelp.com/biz/lighthouse-oyster-bar-and-grill-oceanside?adjust_creative=oncXGL2aPIKrtJdnWeFSnA&utm_campaign=yelp_api_v3&utm_medium=api_v3_business_search&utm_source=oncXGL2aPIKrtJdnWeFSnA", "review_count": 616, "categories": [{"alias": "seafood", "title": "Seafood"}, {"alias": "bars", "title": "Bars"}, {"alias": "newamerican", "title": "American (New)"}], "rating": 3.5, "coordinates": {"latitude": 33.2043119, "longitude": -117.3900874}, "transactions": [], "price": "$$", "location": {"address1": "262 Harbor Dr S", "address2": "Ste 201", "address3": "", "city": "Oceanside", "zip_code": "92054", "country": "US", "state": "CA", "display_address": ["262 Harbor Dr S", "Ste 201", "Oceanside, CA 92054"]}, "phone": "+17604331900", "display_phone": "(760) 433-1900", "distance": 7045.26397339412}, {"id": "NxwZGhvfo3clcLrEMVaaKw", "alias": "prep-kitchen-san-marcos-san-marcos-2", "name": "Prep Kitchen - San Marcos", "image_url": "https://s3-media2.fl.yelpcdn.com/bphoto/lnzFvkfcNNX9Doo3whrK7g/o.jpg", "is_closed": false, "url": "https://www.yelp.com/biz/prep-kitchen-san-marcos-san-marcos-2?adjust_creative=oncXGL2aPIKrtJdnWeFSnA&utm_campaign=yelp_api_v3&utm_medium=api_v3_business_search&utm_source=oncXGL2aPIKrtJdnWeFSnA", "review_count": 142, "categories": [{"alias": "newamerican", "title": "American (New)"}], "rating": 4.0, "coordinates": {"latitude": 33.135139, "longitude": -117.159651}, "transactions": [], "price": "$$", "location": {"address1": "250 North City Dr", "address2": null, "address3": "", "city": "San Marcos", "zip_code": "92078", "country": "US", "state": "CA", "display_address": ["250 North City Dr", "San Marcos, CA 92078"]}, "phone": "+17607988778", "display_phone": "(760) 798-8778", "distance": 17882.73424261136}, {"id": "pBLJIN4ks2eMdtLieikIwg", "alias": "flying-pig-pub-and-kitchen-vista-vista-2", "name": "Flying Pig Pub & Kitchen - Vista", "image_url": "https://s3-media3.fl.yelpcdn.com/bphoto/V6Ervm2X4Jkfh3WnO9C3kA/o.jpg", "is_closed": false, "url": "https://www.yelp.com/biz/flying-pig-pub-and-kitchen-vista-vista-2?adjust_creative=oncXGL2aPIKrtJdnWeFSnA&utm_campaign=yelp_api_v3&utm_medium=api_v3_business_search&utm_source=oncXGL2aPIKrtJdnWeFSnA", "review_count": 629, "categories": [{"alias": "gastropubs", "title": "Gastropubs"}, {"alias": "newamerican", "title": "American (New)"}], "rating": 4.0, "coordinates": {"latitude": 33.20038, "longitude": -117.24194}, "transactions": [], "price": "$$", "location": {"address1": "230 S Santa Fe", "address2": "", "address3": "", "city": "Vista", "zip_code": "92084", "country": "US", "state": "CA", "display_address": ["230 S Santa Fe", "Vista, CA 92084"]}, "phone": "+17606304311", "display_phone": "(760) 630-4311", "distance": 7639.257761849596}, {"id": "d06Yq7qVry8wDjNPj6GpGg", "alias": "karl-strauss-brewing-company-carlsbad", "name": "Karl Strauss Brewing Company", "image_url": "https://s3-media3.fl.yelpcdn.com/bphoto/CK_EnX2581IZcfocP0oRgw/o.jpg", "is_closed": false, "url": "https://www.yelp.com/biz/karl-strauss-brewing-company-carlsbad?adjust_creative=oncXGL2aPIKrtJdnWeFSnA&utm_campaign=yelp_api_v3&utm_medium=api_v3_business_search&utm_source=oncXGL2aPIKrtJdnWeFSnA", "review_count": 1254, "categories": [{"alias": "pubs", "title": "Pubs"}, {"alias": "breweries", "title": "Breweries"}, {"alias": "newamerican", "title": "American (New)"}], "rating": 4.0, "coordinates": {"latitude": 33.1244883, "longitude": -117.3140585}, "transactions": [], "price": "$$", "location": {"address1": "5801 Armada Dr", "address2": "", "address3": "", "city": "Carlsbad", "zip_code": "92008", "country": "US", "state": "CA", "display_address": ["5801 Armada Dr", "Carlsbad, CA 92008"]}, "phone": "+17604312739", "display_phone": "(760) 431-2739", "distance": 11295.174946922432}, {"id": "inl2V2SvIC5pvgrut_juTw", "alias": "yard-house-carlsbad", "name": "Yard House", "image_url": "https://s3-media2.fl.yelpcdn.com/bphoto/llVMVArZat-DhSIwsSW8pA/o.jpg", "is_closed": false, "url": "https://www.yelp.com/biz/yard-house-carlsbad?adjust_creative=oncXGL2aPIKrtJdnWeFSnA&utm_campaign=yelp_api_v3&utm_medium=api_v3_business_search&utm_source=oncXGL2aPIKrtJdnWeFSnA", "review_count": 344, "categories": [{"alias": "newamerican", "title": "American (New)"}, {"alias": "vegetarian", "title": "Vegetarian"}, {"alias": "bars", "title": "Bars"}], "rating": 4.0, "coordinates": {"latitude": 33.1779918493973, "longitude": -117.329820723526}, "transactions": ["pickup", "delivery"], "price": "$$", "location": {"address1": "2525 El Camino Real", "address2": "", "address3": null, "city": "Carlsbad", "zip_code": "92008", "country": "US", "state": "CA", "display_address": ["2525 El Camino Real", "Carlsbad, CA 92008"]}, "phone": "+17604341009", "display_phone": "(760) 434-1009", "distance": 5447.836119477016}, {"id": "3GlVYOnWdZ4LZO7qgzO4gg", "alias": "partake-gastropub-vista", "name": "Partake Gastropub", "image_url": "https://s3-media3.fl.yelpcdn.com/bphoto/cWrr4g7RI2YPiDSt4mouWg/o.jpg", "is_closed": false, "url": "https://www.yelp.com/biz/partake-gastropub-vista?adjust_creative=oncXGL2aPIKrtJdnWeFSnA&utm_campaign=yelp_api_v3&utm_medium=api_v3_business_search&utm_source=oncXGL2aPIKrtJdnWeFSnA", "review_count": 640, "categories": [{"alias": "wine_bars", "title": "Wine Bars"}, {"alias": "newamerican", "title": "American (New)"}, {"alias": "gastropubs", "title": "Gastropubs"}], "rating": 4.5, "coordinates": {"latitude": 33.19483, "longitude": -117.236734}, "transactions": ["pickup", "delivery"], "price": "$$", "location": {"address1": "721 S Santa Fe Ave", "address2": "", "address3": "", "city": "Vista", "zip_code": "92083", "country": "US", "state": "CA", "display_address": ["721 S Santa Fe Ave", "Vista, CA 92083"]}, "phone": "+17604527217", "display_phone": "(760) 452-7217", "distance": 8321.266006248608}, {"id": "eGCM9QgCBlXM81kSo-g5DQ", "alias": "stone-brewing-world-bistro-and-gardens-escondido-escondido-2", "name": "Stone Brewing World Bistro & Gardens Escondido", "image_url": "https://s3-media3.fl.yelpcdn.com/bphoto/5xweQ_wt8f23Ief1unTQog/o.jpg", "is_closed": false, "url": "https://www.yelp.com/biz/stone-brewing-world-bistro-and-gardens-escondido-escondido-2?adjust_creative=oncXGL2aPIKrtJdnWeFSnA&utm_campaign=yelp_api_v3&utm_medium=api_v3_business_search&utm_source=oncXGL2aPIKrtJdnWeFSnA", "review_count": 4216, "categories": [{"alias": "newamerican", "title": "American (New)"}], "rating": 4.0, "coordinates": {"latitude": 33.116948079231, "longitude": -117.119835988409}, "transactions": [], "price": "$$", "location": {"address1": "1999 Citracado Pkwy", "address2": "", "address3": "", "city": "Escondido", "zip_code": "92029", "country": "US", "state": "CA", "display_address": ["1999 Citracado Pkwy", "Escondido, CA 92029"]}, "phone": "+17602947899", "display_phone": "(760) 294-7899", "distance": 22088.507509898278}, {"id": "4CT1CpSrpp2njcLmIpIf0w", "alias": "draft-republic-carlsbad-carlsbad", "name": "Draft Republic Carlsbad", "image_url": "https://s3-media2.fl.yelpcdn.com/bphoto/Lt_9RHlsRD_uGOgtfufE_A/o.jpg", "is_closed": false, "url": "https://www.yelp.com/biz/draft-republic-carlsbad-carlsbad?adjust_creative=oncXGL2aPIKrtJdnWeFSnA&utm_campaign=yelp_api_v3&utm_medium=api_v3_business_search&utm_source=oncXGL2aPIKrtJdnWeFSnA", "review_count": 399, "categories": [{"alias": "comfortfood", "title": "Comfort Food"}, {"alias": "gastropubs", "title": "Gastropubs"}, {"alias": "newamerican", "title": "American (New)"}], "rating": 4.0, "coordinates": {"latitude": 33.12452, "longitude": -117.3244}, "transactions": [], "price": "$$", "location": {"address1": "5958 Avenida Encinas", "address2": null, "address3": null, "city": "Carlsbad", "zip_code": "92008", "country": "US", "state": "CA", "display_address": ["5958 Avenida Encinas", "Carlsbad, CA 92008"]}, "phone": "+17604484627", "display_phone": "(760) 448-4627", "distance": 11291.744573087948}, {"id": "WUy98rpkOJnkmsgDohWfmg", "alias": "the-grand-tradition-gardens-fallbrook", "name": "The Grand Tradition Gardens", "image_url": "https://s3-media3.fl.yelpcdn.com/bphoto/w2WMyjHZKC7vjpOSojkSLg/o.jpg", "is_closed": false, "url": "https://www.yelp.com/biz/the-grand-tradition-gardens-fallbrook?adjust_creative=oncXGL2aPIKrtJdnWeFSnA&utm_campaign=yelp_api_v3&utm_medium=api_v3_business_search&utm_source=oncXGL2aPIKrtJdnWeFSnA", "review_count": 11, "categories": [{"alias": "gardens", "title": "Botanical Gardens"}, {"alias": "newamerican", "title": "American (New)"}], "rating": 4.5, "coordinates": {"latitude": 33.364262, "longitude": -117.245625}, "transactions": [], "price": "$$$$", "location": {"address1": "220 Grand Tradition Way", "address2": null, "address3": "", "city": "Fallbrook", "zip_code": "92028", "country": "US", "state": "CA", "display_address": ["220 Grand Tradition Way", "Fallbrook, CA 92028"]}, "phone": "+17607286466", "display_phone": "(760) 728-6466", "distance": 16787.395003008645}, {"id": "3xx-Z91-0IrrYOZbG6fybg", "alias": "the-cheesecake-factory-carlsbad", "name": "The Cheesecake Factory", "image_url": "https://s3-media4.fl.yelpcdn.com/bphoto/pgz7HzeE78bPjEW_xHq6fQ/o.jpg", "is_closed": false, "url": "https://www.yelp.com/biz/the-cheesecake-factory-carlsbad?adjust_creative=oncXGL2aPIKrtJdnWeFSnA&utm_campaign=yelp_api_v3&utm_medium=api_v3_business_search&utm_source=oncXGL2aPIKrtJdnWeFSnA", "review_count": 407, "categories": [{"alias": "desserts", "title": "Desserts"}, {"alias": "newamerican", "title": "American (New)"}], "rating": 2.5, "coordinates": {"latitude": 33.178616, "longitude": -117.329964478327}, "transactions": [], "price": "$$", "location": {"address1": "2525 El Camino Real", "address2": "Ste 105", "address3": null, "city": "Carlsbad", "zip_code": "92008", "country": "US", "state": "CA", "display_address": ["2525 El Camino Real", "Ste 105", "Carlsbad, CA 92008"]}, "phone": "+17607309880", "display_phone": "(760) 730-9880", "distance": 5382.539269956655}, {"id": "d7BWosg1jl0TSI325fFMAw", "alias": "7-mile-kitchen-carlsbad", "name": "7 Mile Kitchen", "image_url": "https://s3-media2.fl.yelpcdn.com/bphoto/-MrjKPdeIX99iMbyxBIVPw/o.jpg", "is_closed": false, "url": "https://www.yelp.com/biz/7-mile-kitchen-carlsbad?adjust_creative=oncXGL2aPIKrtJdnWeFSnA&utm_campaign=yelp_api_v3&utm_medium=api_v3_business_search&utm_source=oncXGL2aPIKrtJdnWeFSnA", "review_count": 85, "categories": [{"alias": "newamerican", "title": "American (New)"}, {"alias": "pizza", "title": "Pizza"}, {"alias": "burgers", "title": "Burgers"}], "rating": 3.5, "coordinates": {"latitude": 33.1327473, "longitude": -117.3118966}, "transactions": [], "price": "$$", "location": {"address1": "5420 Grand Pacific Dr", "address2": null, "address3": "", "city": "Carlsbad", "zip_code": "92008", "country": "US", "state": "CA", "display_address": ["5420 Grand Pacific Dr", "Carlsbad, CA 92008"]}, "phone": "+17608272514", "display_phone": "(760) 827-2514", "distance": 10386.799929205781}, {"id": "bgXmLD1lkMBhKvontS_rGw", "alias": "nectarine-grove-encinitas-2", "name": "Nectarine Grove", "image_url": "https://s3-media3.fl.yelpcdn.com/bphoto/QY_aya_gaUtVdBzmiOZpDQ/o.jpg", "is_closed": false, "url": "https://www.yelp.com/biz/nectarine-grove-encinitas-2?adjust_creative=oncXGL2aPIKrtJdnWeFSnA&utm_campaign=yelp_api_v3&utm_medium=api_v3_business_search&utm_source=oncXGL2aPIKrtJdnWeFSnA", "review_count": 241, "categories": [{"alias": "newamerican", "title": "American (New)"}, {"alias": "gluten_free", "title": "Gluten-Free"}, {"alias": "coffee", "title": "Coffee & Tea"}], "rating": 4.5, "coordinates": {"latitude": 33.065256, "longitude": -117.30285}, "transactions": [], "price": "$$", "location": {"address1": "948 N Coast Hwy 101", "address2": null, "address3": "", "city": "Encinitas", "zip_code": "92024", "country": "US", "state": "CA", "display_address": ["948 N Coast Hwy 101", "Encinitas, CA 92024"]}, "phone": "+17609444525", "display_phone": "(760) 944-4525", "distance": 17935.22650608873}, {"id": "1vdHkdvH-tJUdMc01M2cvQ", "alias": "the-land-and-water-co-carlsbad", "name": "The Land & Water Co", "image_url": "https://s3-media3.fl.yelpcdn.com/bphoto/5_NVfdeImjfo54fbGKZjFA/o.jpg", "is_closed": false, "url": "https://www.yelp.com/biz/the-land-and-water-co-carlsbad?adjust_creative=oncXGL2aPIKrtJdnWeFSnA&utm_campaign=yelp_api_v3&utm_medium=api_v3_business_search&utm_source=oncXGL2aPIKrtJdnWeFSnA", "review_count": 713, "categories": [{"alias": "sushi", "title": "Sushi Bars"}, {"alias": "tapasmallplates", "title": "Tapas/Small Plates"}, {"alias": "newamerican", "title": "American (New)"}], "rating": 4.0, "coordinates": {"latitude": 33.1587965456973, "longitude": -117.35085560168}, "transactions": [], "price": "$$", "location": {"address1": "2978 Carlsbad Blvd", "address2": "Ste 110", "address3": "", "city": "Carlsbad", "zip_code": "92008", "country": "US", "state": "CA", "display_address": ["2978 Carlsbad Blvd", "Ste 110", "Carlsbad, CA 92008"]}, "phone": "+17607295263", "display_phone": "(760) 729-5263", "distance": 8068.13732819517}, {"id": "6K0wcGtpWx20TMlwFPpf_A", "alias": "ignite-bistro-and-wine-spot-carlsbad-3", "name": "Ignite Bistro & Wine Spot", "image_url": "https://s3-media3.fl.yelpcdn.com/bphoto/-RI4fqtsk7qoH7-h28eObQ/o.jpg", "is_closed": false, "url": "https://www.yelp.com/biz/ignite-bistro-and-wine-spot-carlsbad-3?adjust_creative=oncXGL2aPIKrtJdnWeFSnA&utm_campaign=yelp_api_v3&utm_medium=api_v3_business_search&utm_source=oncXGL2aPIKrtJdnWeFSnA", "review_count": 1232, "categories": [{"alias": "newamerican", "title": "American (New)"}, {"alias": "wine_bars", "title": "Wine Bars"}, {"alias": "burgers", "title": "Burgers"}], "rating": 4.0, "coordinates": {"latitude": 33.1033807915894, "longitude": -117.266123939123}, "transactions": ["restaurant_reservation"], "price": "$$", "location": {"address1": "6996 El Camino Real", "address2": null, "address3": "", "city": "Carlsbad", "zip_code": "92009", "country": "US", "state": "CA", "display_address": ["6996 El Camino Real", "Carlsbad, CA 92009"]}, "phone": "+17604387800", "display_phone": "(760) 438-7800", "distance": 14471.357874513726}, {"id": "eFxe6iHo5IrsuaPpYtjhOg", "alias": "fish-district-carlsbad", "name": "Fish District", "image_url": "https://s3-media3.fl.yelpcdn.com/bphoto/oMgnb0ei5uTA4-YkYvYE5w/o.jpg", "is_closed": false, "url": "https://www.yelp.com/biz/fish-district-carlsbad?adjust_creative=oncXGL2aPIKrtJdnWeFSnA&utm_campaign=yelp_api_v3&utm_medium=api_v3_business_search&utm_source=oncXGL2aPIKrtJdnWeFSnA", "review_count": 591, "categories": [{"alias": "seafood", "title": "Seafood"}, {"alias": "newamerican", "title": "American (New)"}, {"alias": "fishnchips", "title": "Fish & Chips"}], "rating": 4.0, "coordinates": {"latitude": 33.1270765334925, "longitude": -117.25302350805}, "transactions": [], "price": "$$", "location": {"address1": "2675 Gateway Rd", "address2": "Ste 102", "address3": "", "city": "Carlsbad", "zip_code": "92010", "country": "US", "state": "CA", "display_address": ["2675 Gateway Rd", "Ste 102", "Carlsbad, CA 92010"]}, "phone": "+14422440221", "display_phone": "(442) 244-0221", "distance": 12561.992371461734}, {"id": "6oD3dmJNiw6kUMfvnAMMjA", "alias": "harbor-house-restraunt-oceanside", "name": "Harbor House Restraunt", "image_url": "", "is_closed": false, "url": "https://www.yelp.com/biz/harbor-house-restraunt-oceanside?adjust_creative=oncXGL2aPIKrtJdnWeFSnA&utm_campaign=yelp_api_v3&utm_medium=api_v3_business_search&utm_source=oncXGL2aPIKrtJdnWeFSnA", "review_count": 1, "categories": [{"alias": "newamerican", "title": "American (New)"}], "rating": 5.0, "coordinates": {"latitude": 33.1883996431637, "longitude": -117.363003907813}, "transactions": [], "location": {"address1": "", "address2": "", "address3": "", "city": "Oceanside", "zip_code": "25416", "country": "US", "state": "CA", "display_address": ["Oceanside, CA 25416"]}, "phone": "", "display_phone": "", "distance": 5905.187666635994}, {"id": "d-myWt_BI97XhMwdBpZ6bQ", "alias": "decoy-dockside-san-marcos-3", "name": "Decoy Dockside", "image_url": "https://s3-media2.fl.yelpcdn.com/bphoto/6xIi-SlAUBbXA3PpWKgp6g/o.jpg", "is_closed": false, "url": "https://www.yelp.com/biz/decoy-dockside-san-marcos-3?adjust_creative=oncXGL2aPIKrtJdnWeFSnA&utm_campaign=yelp_api_v3&utm_medium=api_v3_business_search&utm_source=oncXGL2aPIKrtJdnWeFSnA", "review_count": 583, "categories": [{"alias": "newamerican", "title": "American (New)"}, {"alias": "breakfast_brunch", "title": "Breakfast & Brunch"}, {"alias": "lounges", "title": "Lounges"}], "rating": 3.5, "coordinates": {"latitude": 33.1246, "longitude": -117.20758}, "transactions": [], "price": "$$$", "location": {"address1": "1025 La Bonita Dr", "address2": "", "address3": "", "city": "San Marcos", "zip_code": "92078", "country": "US", "state": "CA", "display_address": ["1025 La Bonita Dr", "San Marcos, CA 92078"]}, "phone": "+17607440120", "display_phone": "(760) 744-0120", "distance": 15245.804459215798}, {"id": "My_AvoBs4VvcFI7MQjRe8Q", "alias": "urban-plates-carlsbad", "name": "Urban Plates", "image_url": "https://s3-media2.fl.yelpcdn.com/bphoto/grcUyzF-1hgpQv12q72SfA/o.jpg", "is_closed": false, "url": "https://www.yelp.com/biz/urban-plates-carlsbad?adjust_creative=oncXGL2aPIKrtJdnWeFSnA&utm_campaign=yelp_api_v3&utm_medium=api_v3_business_search&utm_source=oncXGL2aPIKrtJdnWeFSnA", "review_count": 578, "categories": [{"alias": "newamerican", "title": "American (New)"}, {"alias": "sandwiches", "title": "Sandwiches"}, {"alias": "salad", "title": "Salad"}], "rating": 4.0, "coordinates": {"latitude": 33.0721860188668, "longitude": -117.265344641734}, "transactions": [], "price": "$$", "location": {"address1": "1923 Calle Barcelona", "address2": "Ste 148", "address3": "", "city": "Carlsbad", "zip_code": "92009", "country": "US", "state": "CA", "display_address": ["1923 Calle Barcelona", "Ste 148", "Carlsbad, CA 92009"]}, "phone": "+17606525678", "display_phone": "(760) 652-5678", "distance": 17797.89370650841}, {"id": "TRZUrjHFNrc0sImd69YQZA", "alias": "tin-leaf-fresh-kitchen-carlsbad-2", "name": "Tin Leaf Fresh Kitchen", "image_url": "https://s3-media3.fl.yelpcdn.com/bphoto/gzzHQaIpCB48EqKSJv3x2Q/o.jpg", "is_closed": false, "url": "https://www.yelp.com/biz/tin-leaf-fresh-kitchen-carlsbad-2?adjust_creative=oncXGL2aPIKrtJdnWeFSnA&utm_campaign=yelp_api_v3&utm_medium=api_v3_business_search&utm_source=oncXGL2aPIKrtJdnWeFSnA", "review_count": 691, "categories": [{"alias": "newamerican", "title": "American (New)"}, {"alias": "mediterranean", "title": "Mediterranean"}, {"alias": "salad", "title": "Salad"}], "rating": 4.0, "coordinates": {"latitude": 33.1026471015914, "longitude": -117.267359839951}, "transactions": [], "price": "$$", "location": {"address1": "6985 El Camino Real", "address2": "Ste 108", "address3": "", "city": "Carlsbad", "zip_code": "92009", "country": "US", "state": "CA", "display_address": ["6985 El Camino Real", "Ste 108", "Carlsbad, CA 92009"]}, "phone": "+17604315323", "display_phone": "(760) 431-5323", "distance": 14510.343206035739}, {"id": "LAo_bFq1h2bcDHq95Vuebg", "alias": "chandlers-restaurant-and-lounge-carlsbad", "name": "Chandler's Restaurant & Lounge", "image_url": "https://s3-media2.fl.yelpcdn.com/bphoto/5TWK0OAvELUxcg06wY5eHw/o.jpg", "is_closed": false, "url": "https://www.yelp.com/biz/chandlers-restaurant-and-lounge-carlsbad?adjust_creative=oncXGL2aPIKrtJdnWeFSnA&utm_campaign=yelp_api_v3&utm_medium=api_v3_business_search&utm_source=oncXGL2aPIKrtJdnWeFSnA", "review_count": 479, "categories": [{"alias": "bars", "title": "Bars"}, {"alias": "newamerican", "title": "American (New)"}, {"alias": "seafood", "title": "Seafood"}], "rating": 3.5, "coordinates": {"latitude": 33.0978528, "longitude": -117.3158446}, "transactions": [], "price": "$$", "location": {"address1": "1 Ponto Rd", "address2": "", "address3": "", "city": "Carlsbad", "zip_code": "92011", "country": "US", "state": "CA", "display_address": ["1 Ponto Rd", "Carlsbad, CA 92011"]}, "phone": "+17606835500", "display_phone": "(760) 683-5500", "distance": 14252.026781468008}, {"id": "Pk1RB_ymVaY1ZK4XcskvYQ", "alias": "bjs-restaurant-and-brewhouse-carlsbad-2", "name": "BJ's Restaurant & Brewhouse", "image_url": "https://s3-media2.fl.yelpcdn.com/bphoto/bpLbi_sIatXNr6NLy87DLg/o.jpg", "is_closed": false, "url": "https://www.yelp.com/biz/bjs-restaurant-and-brewhouse-carlsbad-2?adjust_creative=oncXGL2aPIKrtJdnWeFSnA&utm_campaign=yelp_api_v3&utm_medium=api_v3_business_search&utm_source=oncXGL2aPIKrtJdnWeFSnA", "review_count": 847, "categories": [{"alias": "breweries", "title": "Breweries"}, {"alias": "newamerican", "title": "American (New)"}, {"alias": "pizza", "title": "Pizza"}], "rating": 3.0, "coordinates": {"latitude": 33.127135, "longitude": -117.324024}, "transactions": ["delivery"], "price": "$$", "location": {"address1": "5613 Paseo Del Norte", "address2": "", "address3": "", "city": "Carlsbad", "zip_code": "92008", "country": "US", "state": "CA", "display_address": ["5613 Paseo Del Norte", "Carlsbad, CA 92008"]}, "phone": "+17605794440", "display_phone": "(760) 579-4440", "distance": 11007.71599760575}, {"id": "2s9lq_Nv0e9HYSnNlDkMRQ", "alias": "green-dragon-tavern-and-museum-carlsbad-2", "name": "Green Dragon Tavern & Museum", "image_url": "https://s3-media2.fl.yelpcdn.com/bphoto/Kmvrngqjtsi7hxZU8cAxDQ/o.jpg", "is_closed": false, "url": "https://www.yelp.com/biz/green-dragon-tavern-and-museum-carlsbad-2?adjust_creative=oncXGL2aPIKrtJdnWeFSnA&utm_campaign=yelp_api_v3&utm_medium=api_v3_business_search&utm_source=oncXGL2aPIKrtJdnWeFSnA", "review_count": 560, "categories": [{"alias": "venues", "title": "Venues & Event Spaces"}, {"alias": "newamerican", "title": "American (New)"}, {"alias": "sportsbars", "title": "Sports Bars"}], "rating": 4.0, "coordinates": {"latitude": 33.1203167392517, "longitude": -117.319950885914}, "transactions": [], "price": "$$", "location": {"address1": "6115 Paseo Del Norte", "address2": "", "address3": "", "city": "Carlsbad", "zip_code": "92011", "country": "US", "state": "CA", "display_address": ["6115 Paseo Del Norte", "Carlsbad, CA 92011"]}, "phone": "+17609182421", "display_phone": "(760) 918-2421", "distance": 11753.619723010086}, {"id": "P96s4gA5-weOAG43HXjlHQ", "alias": "seasons-restaurant-carlsbad", "name": "Seasons Restaurant", "image_url": "https://s3-media4.fl.yelpcdn.com/bphoto/frZjy15WxX8B6lAyskK4lg/o.jpg", "is_closed": false, "url": "https://www.yelp.com/biz/seasons-restaurant-carlsbad?adjust_creative=oncXGL2aPIKrtJdnWeFSnA&utm_campaign=yelp_api_v3&utm_medium=api_v3_business_search&utm_source=oncXGL2aPIKrtJdnWeFSnA", "review_count": 63, "categories": [{"alias": "newamerican", "title": "American (New)"}, {"alias": "breakfast_brunch", "title": "Breakfast & Brunch"}], "rating": 4.5, "coordinates": {"latitude": 33.0970027238953, "longitude": -117.283306956832}, "transactions": [], "price": "$$$", "location": {"address1": "7210 Blue Heron Pl", "address2": "", "address3": "", "city": "Carlsbad", "zip_code": "92011", "country": "US", "state": "CA", "display_address": ["7210 Blue Heron Pl", "Carlsbad, CA 92011"]}, "phone": "+17608148677", "display_phone": "(760) 814-8677", "distance": 14707.81803949383}, {"id": "ltbPgzk1su8zAuj8otL8vA", "alias": "canyons-restaurant-carlsbad", "name": "Canyons Restaurant", "image_url": "https://s3-media3.fl.yelpcdn.com/bphoto/P6L_8R1VIvsc3oSvYXuG9A/o.jpg", "is_closed": false, "url": "https://www.yelp.com/biz/canyons-restaurant-carlsbad?adjust_creative=oncXGL2aPIKrtJdnWeFSnA&utm_campaign=yelp_api_v3&utm_medium=api_v3_business_search&utm_source=oncXGL2aPIKrtJdnWeFSnA", "review_count": 125, "categories": [{"alias": "newamerican", "title": "American (New)"}, {"alias": "breakfast_brunch", "title": "Breakfast & Brunch"}, {"alias": "sportsbars", "title": "Sports Bars"}], "rating": 3.5, "coordinates": {"latitude": 33.1287456, "longitude": -117.305754}, "transactions": ["restaurant_reservation"], "price": "$$", "location": {"address1": "5800 The Crossings Dr", "address2": "", "address3": "", "city": "Carlsbad", "zip_code": "92008", "country": "US", "state": "CA", "display_address": ["5800 The Crossings Dr", "Carlsbad, CA 92008"]}, "phone": "+17604441888", "display_phone": "(760) 444-1888", "distance": 10877.001473229167}, {"id": "1DEQz7jiTHs78NnXsxm4nQ", "alias": "20-twenty-carlsbad", "name": "20|Twenty", "image_url": "https://s3-media4.fl.yelpcdn.com/bphoto/2E5uzVAtR-a4eT31lddFfA/o.jpg", "is_closed": false, "url": "https://www.yelp.com/biz/20-twenty-carlsbad?adjust_creative=oncXGL2aPIKrtJdnWeFSnA&utm_campaign=yelp_api_v3&utm_medium=api_v3_business_search&utm_source=oncXGL2aPIKrtJdnWeFSnA", "review_count": 397, "categories": [{"alias": "newamerican", "title": "American (New)"}], "rating": 3.5, "coordinates": {"latitude": 33.1300289251587, "longitude": -117.309055566787}, "transactions": [], "price": "$$", "location": {"address1": "5480 Grand Pacific Dr", "address2": "", "address3": "", "city": "Carlsbad", "zip_code": "92008", "country": "US", "state": "CA", "display_address": ["5480 Grand Pacific Dr", "Carlsbad, CA 92008"]}, "phone": "+17608272500", "display_phone": "(760) 827-2500", "distance": 10706.349981710524}, {"id": "nQN1RBo4AjnYgRIFrsBtXA", "alias": "127-west-social-house-fallbrook-2", "name": "127 West Social House", "image_url": "https://s3-media1.fl.yelpcdn.com/bphoto/JXkjFxKvqcOnzFzCzmC9uQ/o.jpg", "is_closed": false, "url": "https://www.yelp.com/biz/127-west-social-house-fallbrook-2?adjust_creative=oncXGL2aPIKrtJdnWeFSnA&utm_campaign=yelp_api_v3&utm_medium=api_v3_business_search&utm_source=oncXGL2aPIKrtJdnWeFSnA", "review_count": 214, "categories": [{"alias": "pubs", "title": "Pubs"}, {"alias": "newamerican", "title": "American (New)"}], "rating": 4.0, "coordinates": {"latitude": 33.38047, "longitude": -117.25205}, "transactions": [], "price": "$$", "location": {"address1": "127 W Elder St", "address2": "", "address3": "", "city": "Fallbrook", "zip_code": "92028", "country": "US", "state": "CA", "display_address": ["127 W Elder St", "Fallbrook, CA 92028"]}, "phone": "+17606453765", "display_phone": "(760) 645-3765", "distance": 18241.342063373486}, {"id": "BITRkgkHbwQu_5VX5H0OBQ", "alias": "barrel-republic-carlsbad-carlsbad-2", "name": "Barrel Republic Carlsbad", "image_url": "https://s3-media1.fl.yelpcdn.com/bphoto/ThrYkqlEj0ymCHDQY-xUJw/o.jpg", "is_closed": false, "url": "https://www.yelp.com/biz/barrel-republic-carlsbad-carlsbad-2?adjust_creative=oncXGL2aPIKrtJdnWeFSnA&utm_campaign=yelp_api_v3&utm_medium=api_v3_business_search&utm_source=oncXGL2aPIKrtJdnWeFSnA", "review_count": 265, "categories": [{"alias": "bars", "title": "Bars"}, {"alias": "newamerican", "title": "American (New)"}], "rating": 4.0, "coordinates": {"latitude": 33.1599562615156, "longitude": -117.349093258381}, "transactions": [], "price": "$$", "location": {"address1": "2961 State St", "address2": "", "address3": null, "city": "Carlsbad", "zip_code": "92008", "country": "US", "state": "CA", "display_address": ["2961 State St", "Carlsbad, CA 92008"]}, "phone": "+17608418404", "display_phone": "(760) 841-8404", "distance": 7887.574840567163}, {"id": "aB-R0uY5Y-lTaUSbHvaVlw", "alias": "argyle-steakhouse-carlsbad", "name": "Argyle Steakhouse", "image_url": "https://s3-media1.fl.yelpcdn.com/bphoto/sWXYQ9s74hwr7A5HwpWsCA/o.jpg", "is_closed": false, "url": "https://www.yelp.com/biz/argyle-steakhouse-carlsbad?adjust_creative=oncXGL2aPIKrtJdnWeFSnA&utm_campaign=yelp_api_v3&utm_medium=api_v3_business_search&utm_source=oncXGL2aPIKrtJdnWeFSnA", "review_count": 213, "categories": [{"alias": "steak", "title": "Steakhouses"}, {"alias": "newamerican", "title": "American (New)"}, {"alias": "lounges", "title": "Lounges"}], "rating": 4.0, "coordinates": {"latitude": 33.09285, "longitude": -117.28322}, "transactions": [], "price": "$$$", "location": {"address1": "7447 Batiquitos Dr", "address2": "", "address3": "", "city": "Carlsbad", "zip_code": "92011", "country": "US", "state": "CA", "display_address": ["7447 Batiquitos Dr", "Carlsbad, CA 92011"]}, "phone": "+17606036908", "display_phone": "(760) 603-6908", "distance": 15087.421529972578}, {"id": "M64RxUJdSaFzQQEsJrR5Sg", "alias": "priority-public-house-encinitas", "name": "Priority Public House", "image_url": "https://s3-media3.fl.yelpcdn.com/bphoto/OGRXlg2QXW6wpqWbtcXa-A/o.jpg", "is_closed": false, "url": "https://www.yelp.com/biz/priority-public-house-encinitas?adjust_creative=oncXGL2aPIKrtJdnWeFSnA&utm_campaign=yelp_api_v3&utm_medium=api_v3_business_search&utm_source=oncXGL2aPIKrtJdnWeFSnA", "review_count": 435, "categories": [{"alias": "gastropubs", "title": "Gastropubs"}, {"alias": "newamerican", "title": "American (New)"}], "rating": 4.0, "coordinates": {"latitude": 33.05952, "longitude": -117.30043}, "transactions": [], "price": "$$", "location": {"address1": "576 N Coast Hwy 101", "address2": null, "address3": "", "city": "Encinitas", "zip_code": "92024", "country": "US", "state": "CA", "display_address": ["576 N Coast Hwy 101", "Encinitas, CA 92024"]}, "phone": "+17602301999", "display_phone": "(760) 230-1999", "distance": 18579.35960443291}, {"id": "WQQR4QSBqrI1Yb0YoNZJkA", "alias": "veggie-grill-carlsbad-3", "name": "Veggie Grill", "image_url": "https://s3-media4.fl.yelpcdn.com/bphoto/WyoW6MGqkNyp96uzQeyIXw/o.jpg", "is_closed": false, "url": "https://www.yelp.com/biz/veggie-grill-carlsbad-3?adjust_creative=oncXGL2aPIKrtJdnWeFSnA&utm_campaign=yelp_api_v3&utm_medium=api_v3_business_search&utm_source=oncXGL2aPIKrtJdnWeFSnA", "review_count": 437, "categories": [{"alias": "vegan", "title": "Vegan"}, {"alias": "vegetarian", "title": "Vegetarian"}, {"alias": "newamerican", "title": "American (New)"}], "rating": 4.0, "coordinates": {"latitude": 33.12137, "longitude": -117.314119}, "transactions": ["pickup", "delivery"], "price": "$$", "location": {"address1": "965 Palomar Airport Rd", "address2": "", "address3": "", "city": "Carlsbad", "zip_code": "92011", "country": "US", "state": "CA", "display_address": ["965 Palomar Airport Rd", "Carlsbad, CA 92011"]}, "phone": "+17604380034", "display_phone": "(760) 438-0034", "distance": 11641.534094757608}, {"id": "MIPNMYCvN1Ksg_dlkK74-w", "alias": "tremont-street-bar-and-grill-oceanside", "name": "Tremont Street Bar & Grill", "image_url": "https://s3-media4.fl.yelpcdn.com/bphoto/8Vgyyr0-Yj_cOFJHgusgLw/o.jpg", "is_closed": false, "url": "https://www.yelp.com/biz/tremont-street-bar-and-grill-oceanside?adjust_creative=oncXGL2aPIKrtJdnWeFSnA&utm_campaign=yelp_api_v3&utm_medium=api_v3_business_search&utm_source=oncXGL2aPIKrtJdnWeFSnA", "review_count": 144, "categories": [{"alias": "newamerican", "title": "American (New)"}, {"alias": "sportsbars", "title": "Sports Bars"}], "rating": 3.5, "coordinates": {"latitude": 33.1964645385742, "longitude": -117.381439208984}, "transactions": [], "price": "$$", "location": {"address1": "311 N Tremont St", "address2": "", "address3": "", "city": "Oceanside", "zip_code": "92054", "country": "US", "state": "CA", "display_address": ["311 N Tremont St", "Oceanside, CA 92054"]}, "phone": "+17604359555", "display_phone": "(760) 435-9555", "distance": 6735.689439619106}, {"id": "ZuoBuwAGdpj0S5aaCb0isg", "alias": "senor-pancho-mexican-grill-oceanside", "name": "Senor Pancho Mexican Grill", "image_url": "https://s3-media1.fl.yelpcdn.com/bphoto/c2tpeAEpEEvKSuqFxRmBSQ/o.jpg", "is_closed": false, "url": "https://www.yelp.com/biz/senor-pancho-mexican-grill-oceanside?adjust_creative=oncXGL2aPIKrtJdnWeFSnA&utm_campaign=yelp_api_v3&utm_medium=api_v3_business_search&utm_source=oncXGL2aPIKrtJdnWeFSnA", "review_count": 59, "categories": [{"alias": "newamerican", "title": "American (New)"}], "rating": 3.5, "coordinates": {"latitude": 33.1941719, "longitude": -117.3777084}, "transactions": [], "price": "$", "location": {"address1": "202 S Coast Hwy", "address2": "", "address3": "", "city": "Oceanside", "zip_code": "92054", "country": "US", "state": "CA", "display_address": ["202 S Coast Hwy", "Oceanside, CA 92054"]}, "phone": "+17607229602", "display_phone": "(760) 722-9602", "distance": 6572.368344531867}, {"id": "G4tCExEOux5t1zfyDLjxcA", "alias": "pure-burger-carlsbad", "name": "Pure Burger", "image_url": "https://s3-media4.fl.yelpcdn.com/bphoto/v0Ht-pC-UFPzuYA-Pi4z5Q/o.jpg", "is_closed": false, "url": "https://www.yelp.com/biz/pure-burger-carlsbad?adjust_creative=oncXGL2aPIKrtJdnWeFSnA&utm_campaign=yelp_api_v3&utm_medium=api_v3_business_search&utm_source=oncXGL2aPIKrtJdnWeFSnA", "review_count": 767, "categories": [{"alias": "burgers", "title": "Burgers"}, {"alias": "hotdogs", "title": "Fast Food"}, {"alias": "newamerican", "title": "American (New)"}], "rating": 4.0, "coordinates": {"latitude": 33.1268903, "longitude": -117.2541476}, "transactions": ["pickup", "delivery"], "price": "$$", "location": {"address1": "2641 Gateway Rd", "address2": null, "address3": "", "city": "Carlsbad", "zip_code": "92009", "country": "US", "state": "CA", "display_address": ["2641 Gateway Rd", "Carlsbad, CA 92009"]}, "phone": "+17606835101", "display_phone": "(760) 683-5101", "distance": 12530.031121618473}, {"id": "YpohND2cTm35aHXiNWZi-A", "alias": "cin\u00e9polis-luxury-cinemas-carlsbad-3", "name": "Cin\u00e9polis Luxury Cinemas", "image_url": "https://s3-media2.fl.yelpcdn.com/bphoto/SRZMjpi-Len0Ie_GIzJDlQ/o.jpg", "is_closed": false, "url": "https://www.yelp.com/biz/cin%C3%A9polis-luxury-cinemas-carlsbad-3?adjust_creative=oncXGL2aPIKrtJdnWeFSnA&utm_campaign=yelp_api_v3&utm_medium=api_v3_business_search&utm_source=oncXGL2aPIKrtJdnWeFSnA", "review_count": 766, "categories": [{"alias": "movietheaters", "title": "Cinema"}, {"alias": "newamerican", "title": "American (New)"}, {"alias": "bars", "title": "Bars"}], "rating": 3.5, "coordinates": {"latitude": 33.10377, "longitude": -117.26814}, "transactions": [], "price": "$$", "location": {"address1": "6941 El Camino Real", "address2": "", "address3": "", "city": "Carlsbad", "zip_code": "92009", "country": "US", "state": "CA", "display_address": ["6941 El Camino Real", "Carlsbad, CA 92009"]}, "phone": "+17608276700", "display_phone": "(760) 827-6700", "distance": 14329.227707069349}], "total": 73, "region": {"center": {"longitude": -117.31819152832031, "latitude": 33.226009439623446}}}