{"businesses": [{"id": "tKDFL5NjPWnX_AK3uj7INA", "alias": "mint-restaurant-laguna-hills", "name": "Mint Restaurant", "image_url": "https://s3-media1.fl.yelpcdn.com/bphoto/H_3910FOh7XKwSLS4352Lw/o.jpg", "is_closed": false, "url": "https://www.yelp.com/biz/mint-restaurant-laguna-hills?adjust_creative=oncXGL2aPIKrtJdnWeFSnA&utm_campaign=yelp_api_v3&utm_medium=api_v3_business_search&utm_source=oncXGL2aPIKrtJdnWeFSnA", "review_count": 362, "categories": [{"alias": "indpak", "title": "Indian"}, {"alias": "halal", "title": "Halal"}, {"alias": "pakistani", "title": "Pakistani"}], "rating": 4.5, "coordinates": {"latitude": 33.59363, "longitude": -117.69887}, "transactions": ["delivery", "pickup"], "price": "$$", "location": {"address1": "25381 Alicia Pkwy", "address2": "Unit C", "address3": "", "city": "Laguna Hills", "zip_code": "92653", "country": "US", "state": "CA", "display_address": ["25381 Alicia Pkwy", "Unit C", "Laguna Hills, CA 92653"]}, "phone": "+19493051556", "display_phone": "(949) 305-1556", "distance": 54055.62894747201}, {"id": "twrgECv5HHVxjDb_1cLNEQ", "alias": "tikka-curry-bowls-mission-viejo", "name": "Tikka Curry Bowls", "image_url": "https://s3-media1.fl.yelpcdn.com/bphoto/XewS3gOPBMbTtcoT2jpTyw/o.jpg", "is_closed": false, "url": "https://www.yelp.com/biz/tikka-curry-bowls-mission-viejo?adjust_creative=oncXGL2aPIKrtJdnWeFSnA&utm_campaign=yelp_api_v3&utm_medium=api_v3_business_search&utm_source=oncXGL2aPIKrtJdnWeFSnA", "review_count": 559, "categories": [{"alias": "indpak", "title": "Indian"}, {"alias": "halal", "title": "Halal"}, {"alias": "pakistani", "title": "Pakistani"}], "rating": 4.5, "coordinates": {"latitude": 33.5941335772306, "longitude": -117.659267751538}, "transactions": ["delivery", "pickup"], "price": "$", "location": {"address1": "25380 Marguerite Pkwy", "address2": "Ste F", "address3": "", "city": "Mission Viejo", "zip_code": "92692", "country": "US", "state": "CA", "display_address": ["25380 Marguerite Pkwy", "Ste F", "Mission Viejo, CA 92692"]}, "phone": "+19496479555", "display_phone": "(949) 647-9555", "distance": 51747.60330154096}, {"id": "WixjZlM4OBZx_MSVRdfu4Q", "alias": "paradise-biryani-pointe-san-diego", "name": "Paradise Biryani Pointe", "image_url": "https://s3-media4.fl.yelpcdn.com/bphoto/pIDl0kzzRz8xuOjvkr1nWw/o.jpg", "is_closed": false, "url": "https://www.yelp.com/biz/paradise-biryani-pointe-san-diego?adjust_creative=oncXGL2aPIKrtJdnWeFSnA&utm_campaign=yelp_api_v3&utm_medium=api_v3_business_search&utm_source=oncXGL2aPIKrtJdnWeFSnA", "review_count": 261, "categories": [{"alias": "indpak", "title": "Indian"}, {"alias": "halal", "title": "Halal"}, {"alias": "pakistani", "title": "Pakistani"}], "rating": 3.5, "coordinates": {"latitude": 32.9147102, "longitude": -117.1314056}, "transactions": ["delivery", "pickup"], "price": "$$", "location": {"address1": "8995 Mira Mesa Blvd", "address2": "Ste A", "address3": "", "city": "San Diego", "zip_code": "92126", "country": "US", "state": "CA", "display_address": ["8995 Mira Mesa Blvd", "Ste A", "San Diego, CA 92126"]}, "phone": "+18587579051", "display_phone": "(858) 757-9051", "distance": 38811.846954962646}, {"id": "gCFsyyejSwcO6JCxKrC9mw", "alias": "curry-n-kabab-san-diego-2", "name": "Curry 'n Kabab", "image_url": "https://s3-media1.fl.yelpcdn.com/bphoto/Og9Nb1SHaobksivWrJ2QSA/o.jpg", "is_closed": false, "url": "https://www.yelp.com/biz/curry-n-kabab-san-diego-2?adjust_creative=oncXGL2aPIKrtJdnWeFSnA&utm_campaign=yelp_api_v3&utm_medium=api_v3_business_search&utm_source=oncXGL2aPIKrtJdnWeFSnA", "review_count": 140, "categories": [{"alias": "indpak", "title": "Indian"}, {"alias": "pakistani", "title": "Pakistani"}, {"alias": "kebab", "title": "Kebab"}], "rating": 4.5, "coordinates": {"latitude": 32.8938449, "longitude": -117.1274065}, "transactions": ["delivery", "pickup"], "price": "$$", "location": {"address1": "9272 Miramar Rd", "address2": "Suit 20", "address3": "", "city": "San Diego", "zip_code": "92126", "country": "US", "state": "CA", "display_address": ["9272 Miramar Rd", "Suit 20", "San Diego, CA 92126"]}, "phone": "+18585270045", "display_phone": "(858) 527-0045", "distance": 40859.68176452776}, {"id": "HXRB4uI4Ctb2Yufa-fOvww", "alias": "ashoka-the-great-san-diego-2", "name": "Ashoka The Great", "image_url": "https://s3-media3.fl.yelpcdn.com/bphoto/yUJkzRvRdyCeaEKJ5hVJfw/o.jpg", "is_closed": false, "url": "https://www.yelp.com/biz/ashoka-the-great-san-diego-2?adjust_creative=oncXGL2aPIKrtJdnWeFSnA&utm_campaign=yelp_api_v3&utm_medium=api_v3_business_search&utm_source=oncXGL2aPIKrtJdnWeFSnA", "review_count": 372, "categories": [{"alias": "indpak", "title": "Indian"}, {"alias": "pakistani", "title": "Pakistani"}], "rating": 3.5, "coordinates": {"latitude": 32.89534, "longitude": -117.12413}, "transactions": ["delivery", "pickup"], "price": "$$", "location": {"address1": "9474 Black Mountain Rd", "address2": "", "address3": "", "city": "San Diego", "zip_code": "92126", "country": "US", "state": "CA", "display_address": ["9474 Black Mountain Rd", "San Diego, CA 92126"]}, "phone": "+18586959749", "display_phone": "(858) 695-9749", "distance": 41000.10043070445}, {"id": "9bWTmhocDMrNdzqImbqVkA", "alias": "tandoori-hut-san-diego-3", "name": "Tandoori Hut", "image_url": "https://s3-media4.fl.yelpcdn.com/bphoto/86EcArIkiYXPGYsgZvGskg/o.jpg", "is_closed": false, "url": "https://www.yelp.com/biz/tandoori-hut-san-diego-3?adjust_creative=oncXGL2aPIKrtJdnWeFSnA&utm_campaign=yelp_api_v3&utm_medium=api_v3_business_search&utm_source=oncXGL2aPIKrtJdnWeFSnA", "review_count": 1536, "categories": [{"alias": "indpak", "title": "Indian"}, {"alias": "pakistani", "title": "Pakistani"}], "rating": 4.0, "coordinates": {"latitude": 32.7480517, "longitude": -117.1605874}, "transactions": ["delivery", "pickup"], "price": "$$", "location": {"address1": "3890 5th Ave", "address2": null, "address3": "", "city": "San Diego", "zip_code": "92103", "country": "US", "state": "CA", "display_address": ["3890 5th Ave", "San Diego, CA 92103"]}, "phone": "+16192954488", "display_phone": "(619) 295-4488", "distance": 55142.31729558045}, {"id": "WN8bXtccc-egeW6MbuJ_Og", "alias": "silverspoon-wrap-n-roll-tustin-2", "name": "SilverSpoon Wrap 'N' Roll", "image_url": "https://s3-media2.fl.yelpcdn.com/bphoto/g-iqm4SyDHsx16EMCvdVgw/o.jpg", "is_closed": false, "url": "https://www.yelp.com/biz/silverspoon-wrap-n-roll-tustin-2?adjust_creative=oncXGL2aPIKrtJdnWeFSnA&utm_campaign=yelp_api_v3&utm_medium=api_v3_business_search&utm_source=oncXGL2aPIKrtJdnWeFSnA", "review_count": 246, "categories": [{"alias": "indpak", "title": "Indian"}, {"alias": "halal", "title": "Halal"}, {"alias": "pakistani", "title": "Pakistani"}], "rating": 4.0, "coordinates": {"latitude": 33.7474295622405, "longitude": -117.81131953373}, "transactions": ["delivery", "pickup"], "price": "$$", "location": {"address1": "13112 Newport Ave", "address2": "Ste D", "address3": "", "city": "Tustin", "zip_code": "92780", "country": "US", "state": "CA", "display_address": ["13112 Newport Ave", "Ste D", "Tustin, CA 92780"]}, "phone": "+17148387655", "display_phone": "(714) 838-7655", "distance": 73844.02320279877}, {"id": "ou0vKXhcA6SlOUS4Io3LpQ", "alias": "bombay-coast-indian-tandoor-and-curry-express-la-jolla", "name": "Bombay Coast Indian Tandoor & Curry Express", "image_url": "https://s3-media1.fl.yelpcdn.com/bphoto/RgQaP6qj9aGx6ADrvcaUzA/o.jpg", "is_closed": false, "url": "https://www.yelp.com/biz/bombay-coast-indian-tandoor-and-curry-express-la-jolla?adjust_creative=oncXGL2aPIKrtJdnWeFSnA&utm_campaign=yelp_api_v3&utm_medium=api_v3_business_search&utm_source=oncXGL2aPIKrtJdnWeFSnA", "review_count": 88, "categories": [{"alias": "indpak", "title": "Indian"}, {"alias": "pakistani", "title": "Pakistani"}], "rating": 2.5, "coordinates": {"latitude": 32.8800061472839, "longitude": -117.236067652702}, "transactions": [], "price": "$", "location": {"address1": "9500 Gilman Dr", "address2": "", "address3": "Price Center East", "city": "La Jolla", "zip_code": "92093", "country": "US", "state": "CA", "display_address": ["9500 Gilman Dr", "Price Center East", "La Jolla, CA 92093"]}, "phone": "+18586229070", "display_phone": "(858) 622-9070", "distance": 39227.70667120559}, {"id": "Hg5Re8GGM50_G8hO3bM3Sg", "alias": "tandoori-fresh-costa-mesa", "name": "Tandoori Fresh", "image_url": "https://s3-media2.fl.yelpcdn.com/bphoto/0r4n2Ze5mZFdZoZhFTtSLg/o.jpg", "is_closed": false, "url": "https://www.yelp.com/biz/tandoori-fresh-costa-mesa?adjust_creative=oncXGL2aPIKrtJdnWeFSnA&utm_campaign=yelp_api_v3&utm_medium=api_v3_business_search&utm_source=oncXGL2aPIKrtJdnWeFSnA", "review_count": 614, "categories": [{"alias": "indpak", "title": "Indian"}, {"alias": "pakistani", "title": "Pakistani"}, {"alias": "halal", "title": "Halal"}], "rating": 4.0, "coordinates": {"latitude": 33.674104, "longitude": -117.92016}, "transactions": [], "price": "$$", "location": {"address1": "1500 Adams Ave", "address2": "Ste 100A", "address3": "", "city": "Costa Mesa", "zip_code": "92626", "country": "US", "state": "CA", "display_address": ["1500 Adams Ave", "Ste 100A", "Costa Mesa, CA 92626"]}, "phone": "+17144444407", "display_phone": "(714) 444-4407", "distance": 74844.31062536042}, {"id": "f24afiUhMQC6TX6x3boqVg", "alias": "taste-of-india-fountain-valley", "name": "Taste of India", "image_url": "https://s3-media2.fl.yelpcdn.com/bphoto/NhMcBjZtB5c4CKlrNJLq9Q/o.jpg", "is_closed": false, "url": "https://www.yelp.com/biz/taste-of-india-fountain-valley?adjust_creative=oncXGL2aPIKrtJdnWeFSnA&utm_campaign=yelp_api_v3&utm_medium=api_v3_business_search&utm_source=oncXGL2aPIKrtJdnWeFSnA", "review_count": 390, "categories": [{"alias": "indpak", "title": "Indian"}, {"alias": "pakistani", "title": "Pakistani"}], "rating": 3.5, "coordinates": {"latitude": 33.715113747817, "longitude": -117.973861220687}, "transactions": ["pickup"], "price": "$", "location": {"address1": "8890 Warner Ave", "address2": "", "address3": "", "city": "Fountain Valley", "zip_code": "92708", "country": "US", "state": "CA", "display_address": ["8890 Warner Ave", "Fountain Valley, CA 92708"]}, "phone": "+17148416868", "display_phone": "(714) 841-6868", "distance": 81587.03609597874}, {"id": "wTaM0NPPeKYBVHG8WUePJw", "alias": "cafe-kashmir-san-diego-2", "name": "Cafe Kashmir", "image_url": "", "is_closed": false, "url": "https://www.yelp.com/biz/cafe-kashmir-san-diego-2?adjust_creative=oncXGL2aPIKrtJdnWeFSnA&utm_campaign=yelp_api_v3&utm_medium=api_v3_business_search&utm_source=oncXGL2aPIKrtJdnWeFSnA", "review_count": 2, "categories": [{"alias": "indpak", "title": "Indian"}, {"alias": "pakistani", "title": "Pakistani"}], "rating": 1.5, "coordinates": {"latitude": 32.8939401358366, "longitude": -117.123227789998}, "transactions": [], "location": {"address1": "9508 Miramar Rd", "address2": "", "address3": "", "city": "San Diego", "zip_code": "92126", "country": "US", "state": "CA", "display_address": ["9508 Miramar Rd", "San Diego, CA 92126"]}, "phone": "+18585490882", "display_phone": "(858) 549-0882", "distance": 41165.19166915535}, {"id": "gScYmNxba1AyP_jEFR4e7A", "alias": "abu-nawas-el-cajon", "name": "Abu Nawas", "image_url": "https://s3-media2.fl.yelpcdn.com/bphoto/lXVYDpa2q-WFaFI_QV8t6Q/o.jpg", "is_closed": false, "url": "https://www.yelp.com/biz/abu-nawas-el-cajon?adjust_creative=oncXGL2aPIKrtJdnWeFSnA&utm_campaign=yelp_api_v3&utm_medium=api_v3_business_search&utm_source=oncXGL2aPIKrtJdnWeFSnA", "review_count": 1, "categories": [{"alias": "pakistani", "title": "Pakistani"}], "rating": 1.0, "coordinates": {"latitude": 32.7928993311662, "longitude": -116.969418007634}, "transactions": [], "location": {"address1": "293 El Cajon Blvd", "address2": "", "address3": "", "city": "El Cajon", "zip_code": "92020", "country": "US", "state": "CA", "display_address": ["293 El Cajon Blvd", "El Cajon, CA 92020"]}, "phone": "+16199056221", "display_phone": "(619) 905-6221", "distance": 58111.90179410717}, {"id": "ubRDlseO1O4A7fp5Q78y1Q", "alias": "noorani-halal-restaurant-garden-grove", "name": "Noorani Halal Restaurant", "image_url": "https://s3-media3.fl.yelpcdn.com/bphoto/2Stc-Shs9syePU24E7Q3Vg/o.jpg", "is_closed": false, "url": "https://www.yelp.com/biz/noorani-halal-restaurant-garden-grove?adjust_creative=oncXGL2aPIKrtJdnWeFSnA&utm_campaign=yelp_api_v3&utm_medium=api_v3_business_search&utm_source=oncXGL2aPIKrtJdnWeFSnA", "review_count": 196, "categories": [{"alias": "pakistani", "title": "Pakistani"}], "rating": 3.5, "coordinates": {"latitude": 33.7562450124, "longitude": -117.954785915875}, "transactions": [], "price": "$$", "location": {"address1": "14204 Brookhurst St", "address2": "", "address3": "", "city": "Garden Grove", "zip_code": "92843", "country": "US", "state": "CA", "display_address": ["14204 Brookhurst St", "Garden Grove, CA 92843"]}, "phone": "+17146361000", "display_phone": "(714) 636-1000", "distance": 83452.68560306246}, {"id": "pJKeB7AvcxnlzvhLPEvf8Q", "alias": "tikka-guys-anaheim", "name": "Tikka Guys", "image_url": "https://s3-media3.fl.yelpcdn.com/bphoto/maebH7M1NvSY-NJqo-f2vA/o.jpg", "is_closed": false, "url": "https://www.yelp.com/biz/tikka-guys-anaheim?adjust_creative=oncXGL2aPIKrtJdnWeFSnA&utm_campaign=yelp_api_v3&utm_medium=api_v3_business_search&utm_source=oncXGL2aPIKrtJdnWeFSnA", "review_count": 94, "categories": [{"alias": "indpak", "title": "Indian"}, {"alias": "mideastern", "title": "Middle Eastern"}, {"alias": "pakistani", "title": "Pakistani"}], "rating": 4.0, "coordinates": {"latitude": 33.8350665822487, "longitude": -117.915299946706}, "transactions": ["pickup"], "price": "$$", "location": {"address1": "160 West Lincoln Ave", "address2": "", "address3": null, "city": "Anaheim", "zip_code": "92805", "country": "US", "state": "CA", "display_address": ["160 West Lincoln Ave", "Anaheim, CA 92805"]}, "phone": "+16572309820", "display_phone": "(657) 230-9820", "distance": 87462.62038101304}, {"id": "eLb4CPJ8eiOQe9BJKbZmdQ", "alias": "bismillah-halal-tandoori-buena-park-2", "name": "Bismillah Halal Tandoori", "image_url": "https://s3-media3.fl.yelpcdn.com/bphoto/wHBrw7u7-5-KcNuSZr-ptA/o.jpg", "is_closed": false, "url": "https://www.yelp.com/biz/bismillah-halal-tandoori-buena-park-2?adjust_creative=oncXGL2aPIKrtJdnWeFSnA&utm_campaign=yelp_api_v3&utm_medium=api_v3_business_search&utm_source=oncXGL2aPIKrtJdnWeFSnA", "review_count": 130, "categories": [{"alias": "indpak", "title": "Indian"}, {"alias": "pakistani", "title": "Pakistani"}, {"alias": "halal", "title": "Halal"}], "rating": 3.5, "coordinates": {"latitude": 33.83279, "longitude": -118.01204}, "transactions": ["delivery", "pickup"], "price": "$$", "location": {"address1": "8901 Knott Ave", "address2": "", "address3": "", "city": "Buena Park", "zip_code": "90620", "country": "US", "state": "CA", "display_address": ["8901 Knott Ave", "Buena Park, CA 90620"]}, "phone": "+17148277201", "display_phone": "(714) 827-7201", "distance": 93187.24934322569}, {"id": "oK7er7r4d8dxJBP-aB_34Q", "alias": "the-hotspot-grill-lakewood", "name": "The Hotspot Grill", "image_url": "https://s3-media2.fl.yelpcdn.com/bphoto/XBuPPzHIZkDgqRE5tyEW3A/o.jpg", "is_closed": false, "url": "https://www.yelp.com/biz/the-hotspot-grill-lakewood?adjust_creative=oncXGL2aPIKrtJdnWeFSnA&utm_campaign=yelp_api_v3&utm_medium=api_v3_business_search&utm_source=oncXGL2aPIKrtJdnWeFSnA", "review_count": 36, "categories": [{"alias": "halal", "title": "Halal"}, {"alias": "tradamerican", "title": "American (Traditional)"}, {"alias": "pakistani", "title": "Pakistani"}], "rating": 4.5, "coordinates": {"latitude": 33.8388749, "longitude": -118.071445}, "transactions": [], "price": "$", "location": {"address1": "12211 E Centralia St", "address2": "", "address3": null, "city": "Lakewood", "zip_code": "90715", "country": "US", "state": "CA", "display_address": ["12211 E Centralia St", "Lakewood, CA 90715"]}, "phone": "+15628603031", "display_phone": "(562) 860-3031", "distance": 97630.91267665023}, {"id": "x-X450HEe8o3lzIQHag9nQ", "alias": "mehfil-restaurant-lakewood", "name": "Mehfil Restaurant", "image_url": "https://s3-media3.fl.yelpcdn.com/bphoto/zx98y0ScLuvztwHR9UugPw/o.jpg", "is_closed": false, "url": "https://www.yelp.com/biz/mehfil-restaurant-lakewood?adjust_creative=oncXGL2aPIKrtJdnWeFSnA&utm_campaign=yelp_api_v3&utm_medium=api_v3_business_search&utm_source=oncXGL2aPIKrtJdnWeFSnA", "review_count": 49, "categories": [{"alias": "halal", "title": "Halal"}, {"alias": "pakistani", "title": "Pakistani"}, {"alias": "indpak", "title": "Indian"}], "rating": 4.0, "coordinates": {"latitude": 33.8388749, "longitude": -118.0705822}, "transactions": [], "price": "$", "location": {"address1": "12225 Centralia St", "address2": "", "address3": null, "city": "Lakewood", "zip_code": "90715", "country": "US", "state": "CA", "display_address": ["12225 Centralia St", "Lakewood, CA 90715"]}, "phone": "+15624022244", "display_phone": "(562) 402-2244", "distance": 97599.52118673867}, {"id": "PaL9qRbYqf55jKOujvt71w", "alias": "mezban-biryani-palace-artesia-2", "name": "Mezban Biryani Palace", "image_url": "https://s3-media2.fl.yelpcdn.com/bphoto/deMumydDIdV6PEFgjGRvhA/o.jpg", "is_closed": false, "url": "https://www.yelp.com/biz/mezban-biryani-palace-artesia-2?adjust_creative=oncXGL2aPIKrtJdnWeFSnA&utm_campaign=yelp_api_v3&utm_medium=api_v3_business_search&utm_source=oncXGL2aPIKrtJdnWeFSnA", "review_count": 264, "categories": [{"alias": "indpak", "title": "Indian"}, {"alias": "pakistani", "title": "Pakistani"}, {"alias": "halal", "title": "Halal"}], "rating": 4.0, "coordinates": {"latitude": 33.858401, "longitude": -118.0821275}, "transactions": [], "price": "$$", "location": {"address1": "18620 S Pioneer Blvd", "address2": "", "address3": "", "city": "Artesia", "zip_code": "90701", "country": "US", "state": "CA", "display_address": ["18620 S Pioneer Blvd", "Artesia, CA 90701"]}, "phone": "+15628653838", "display_phone": "(562) 865-3838", "distance": 99786.16569031934}, {"id": "r4dGEbgY8OlpnnJe9V8PYg", "alias": "shahnawaz-halal-tandoori-artesia", "name": "Shahnawaz Halal Tandoori", "image_url": "https://s3-media2.fl.yelpcdn.com/bphoto/AbsIFne8iNpkbCENvgW1Cw/o.jpg", "is_closed": false, "url": "https://www.yelp.com/biz/shahnawaz-halal-tandoori-artesia?adjust_creative=oncXGL2aPIKrtJdnWeFSnA&utm_campaign=yelp_api_v3&utm_medium=api_v3_business_search&utm_source=oncXGL2aPIKrtJdnWeFSnA", "review_count": 100, "categories": [{"alias": "indpak", "title": "Indian"}, {"alias": "halal", "title": "Halal"}, {"alias": "pakistani", "title": "Pakistani"}], "rating": 3.5, "coordinates": {"latitude": 33.8602092, "longitude": -118.0819951}, "transactions": [], "price": "$$", "location": {"address1": "18728 Pioneer Blvd", "address2": "", "address3": "", "city": "Artesia", "zip_code": "90701", "country": "US", "state": "CA", "display_address": ["18728 Pioneer Blvd", "Artesia, CA 90701"]}, "phone": "+15624027443", "display_phone": "(562) 402-7443", "distance": 99907.84248113303}, {"id": "EoHvyubU065OppfBJKIvHw", "alias": "house-of-spice-artesia", "name": "House Of Spice", "image_url": "", "is_closed": false, "url": "https://www.yelp.com/biz/house-of-spice-artesia?adjust_creative=oncXGL2aPIKrtJdnWeFSnA&utm_campaign=yelp_api_v3&utm_medium=api_v3_business_search&utm_source=oncXGL2aPIKrtJdnWeFSnA", "review_count": 1, "categories": [{"alias": "indpak", "title": "Indian"}, {"alias": "pakistani", "title": "Pakistani"}], "rating": 5.0, "coordinates": {"latitude": 33.8625914, "longitude": -118.0819864}, "transactions": [], "location": {"address1": "18604 Pioneer Blvd", "address2": "", "address3": "", "city": "Artesia", "zip_code": "90701", "country": "US", "state": "CA", "display_address": ["18604 Pioneer Blvd", "Artesia, CA 90701"]}, "phone": "+15625212734", "display_phone": "(562) 521-2734", "distance": 100110.68403432678}, {"id": "b_BkYgXLe3P7D6o9W56ndQ", "alias": "shan-mahal-cuisine-artesia", "name": "Shan Mahal Cuisine", "image_url": "https://s3-media1.fl.yelpcdn.com/bphoto/KKJ8gEW7sx8PvxjJxF3RVg/o.jpg", "is_closed": false, "url": "https://www.yelp.com/biz/shan-mahal-cuisine-artesia?adjust_creative=oncXGL2aPIKrtJdnWeFSnA&utm_campaign=yelp_api_v3&utm_medium=api_v3_business_search&utm_source=oncXGL2aPIKrtJdnWeFSnA", "review_count": 17, "categories": [{"alias": "pakistani", "title": "Pakistani"}, {"alias": "indpak", "title": "Indian"}, {"alias": "halal", "title": "Halal"}], "rating": 3.0, "coordinates": {"latitude": 33.8610008, "longitude": -118.0821277}, "transactions": [], "price": "$$", "location": {"address1": "18738-40 Pioneer Blvd", "address2": "", "address3": "Indian and Pakistani Halal Restaurant and Banquet Hall", "city": "Artesia", "zip_code": "90701", "country": "US", "state": "CA", "display_address": ["18738-40 Pioneer Blvd", "Indian and Pakistani Halal Restaurant and Banquet Hall", "Artesia, CA 90701"]}, "phone": "+15627866082", "display_phone": "(562) 786-6082", "distance": 99989.34604769602}], "total": 21, "region": {"center": {"longitude": -117.31819152832031, "latitude": 33.226009439623446}}}