{"businesses": [{"id": "mGdsGFALJmrGDRd1YW6hGg", "alias": "panca-peruvian-cuisine-and-rotisserie-oceanside-3", "name": "Panca Peruvian Cuisine & Rotisserie", "image_url": "https://s3-media4.fl.yelpcdn.com/bphoto/IDsgFlBwgCkkn-PMAXCSTg/o.jpg", "is_closed": false, "url": "https://www.yelp.com/biz/panca-peruvian-cuisine-and-rotisserie-oceanside-3?adjust_creative=oncXGL2aPIKrtJdnWeFSnA&utm_campaign=yelp_api_v3&utm_medium=api_v3_business_search&utm_source=oncXGL2aPIKrtJdnWeFSnA", "review_count": 734, "categories": [{"alias": "peruvian", "title": "Peruvian"}], "rating": 4.5, "coordinates": {"latitude": 33.1738223352608, "longitude": -117.360564861833}, "transactions": ["pickup", "delivery"], "price": "$$", "location": {"address1": "1902 S Coast Hwy", "address2": "", "address3": "", "city": "Oceanside", "zip_code": "92054", "country": "US", "state": "CA", "display_address": ["1902 S Coast Hwy", "Oceanside, CA 92054"]}, "phone": "+17607223396", "display_phone": "(760) 722-3396", "distance": 7015.554096071614}, {"id": "3bAOfawO5RCGi6-wSAFpjA", "alias": "pisco-rotisserie-and-cevicheria-carlsbad", "name": "Pisco Rotisserie & Cevicheria", "image_url": "https://s3-media4.fl.yelpcdn.com/bphoto/Np1BFv0nIIVM436NAyu4mQ/o.jpg", "is_closed": false, "url": "https://www.yelp.com/biz/pisco-rotisserie-and-cevicheria-carlsbad?adjust_creative=oncXGL2aPIKrtJdnWeFSnA&utm_campaign=yelp_api_v3&utm_medium=api_v3_business_search&utm_source=oncXGL2aPIKrtJdnWeFSnA", "review_count": 293, "categories": [{"alias": "peruvian", "title": "Peruvian"}, {"alias": "seafood", "title": "Seafood"}], "rating": 4.0, "coordinates": {"latitude": 33.12399, "longitude": -117.32414}, "transactions": [], "price": "$$", "location": {"address1": "5970 Avenida Encinas", "address2": "", "address3": null, "city": "Carlsbad", "zip_code": "92008", "country": "US", "state": "CA", "display_address": ["5970 Avenida Encinas", "Carlsbad, CA 92008"]}, "phone": "+17604381212", "display_phone": "(760) 438-1212", "distance": 11349.234244232282}, {"id": "iCLgNea5a2zCS3o3nQrVdQ", "alias": "tambo-cafe-oceanside-3", "name": "Tambo Cafe", "image_url": "https://s3-media1.fl.yelpcdn.com/bphoto/zNVsCViR_P3DA_RwZGD0sg/o.jpg", "is_closed": false, "url": "https://www.yelp.com/biz/tambo-cafe-oceanside-3?adjust_creative=oncXGL2aPIKrtJdnWeFSnA&utm_campaign=yelp_api_v3&utm_medium=api_v3_business_search&utm_source=oncXGL2aPIKrtJdnWeFSnA", "review_count": 20, "categories": [{"alias": "desserts", "title": "Desserts"}, {"alias": "peruvian", "title": "Peruvian"}, {"alias": "cafes", "title": "Cafes"}], "rating": 4.0, "coordinates": {"latitude": 33.1735764, "longitude": -117.360634}, "transactions": [], "location": {"address1": "1904 S Coast Hwy", "address2": "", "address3": null, "city": "Oceanside", "zip_code": "92054", "country": "US", "state": "CA", "display_address": ["1904 S Coast Hwy", "Oceanside, CA 92054"]}, "phone": "+17606963090", "display_phone": "(760) 696-3090", "distance": 7019.191700687453}, {"id": "zkKCB1lDRRexR1PqKBmG4A", "alias": "qero-restaurant-encinitas-2", "name": "Q'ero Restaurant", "image_url": "https://s3-media3.fl.yelpcdn.com/bphoto/0TR0WRyzPjK5OS6c4gNGbA/o.jpg", "is_closed": false, "url": "https://www.yelp.com/biz/qero-restaurant-encinitas-2?adjust_creative=oncXGL2aPIKrtJdnWeFSnA&utm_campaign=yelp_api_v3&utm_medium=api_v3_business_search&utm_source=oncXGL2aPIKrtJdnWeFSnA", "review_count": 605, "categories": [{"alias": "peruvian", "title": "Peruvian"}], "rating": 4.0, "coordinates": {"latitude": 33.0451, "longitude": -117.29402}, "transactions": [], "price": "$$$", "location": {"address1": "564 S Coast Hwy 101", "address2": null, "address3": "", "city": "Encinitas", "zip_code": "92024", "country": "US", "state": "CA", "display_address": ["564 S Coast Hwy 101", "Encinitas, CA 92024"]}, "phone": "+17607539050", "display_phone": "(760) 753-9050", "distance": 20236.013420339143}, {"id": "DlF-gL8t3T0zRCPNXxDwRA", "alias": "cafe-secret-del-mar", "name": "Cafe Secret", "image_url": "https://s3-media1.fl.yelpcdn.com/bphoto/QttaARNDqCDQ4VSjrAYySQ/o.jpg", "is_closed": false, "url": "https://www.yelp.com/biz/cafe-secret-del-mar?adjust_creative=oncXGL2aPIKrtJdnWeFSnA&utm_campaign=yelp_api_v3&utm_medium=api_v3_business_search&utm_source=oncXGL2aPIKrtJdnWeFSnA", "review_count": 522, "categories": [{"alias": "peruvian", "title": "Peruvian"}, {"alias": "cafes", "title": "Cafes"}, {"alias": "seafood", "title": "Seafood"}], "rating": 4.0, "coordinates": {"latitude": 32.95612, "longitude": -117.26436}, "transactions": [], "price": "$$", "location": {"address1": "1140 Camino Del Mar", "address2": "", "address3": "", "city": "Del Mar", "zip_code": "92014", "country": "US", "state": "CA", "display_address": ["1140 Camino Del Mar", "Del Mar, CA 92014"]}, "phone": "+18587920821", "display_phone": "(858) 792-0821", "distance": 30424.600879230486}, {"id": "xY1wVAyXsUV2LvK-_z4t5Q", "alias": "inka-mamas-san-clemente", "name": "Inka Mama's", "image_url": "https://s3-media2.fl.yelpcdn.com/bphoto/oBd4lHjdR3A8dCEM4k9Apg/o.jpg", "is_closed": false, "url": "https://www.yelp.com/biz/inka-mamas-san-clemente?adjust_creative=oncXGL2aPIKrtJdnWeFSnA&utm_campaign=yelp_api_v3&utm_medium=api_v3_business_search&utm_source=oncXGL2aPIKrtJdnWeFSnA", "review_count": 271, "categories": [{"alias": "peruvian", "title": "Peruvian"}, {"alias": "seafood", "title": "Seafood"}, {"alias": "bars", "title": "Bars"}], "rating": 4.5, "coordinates": {"latitude": 33.4641699014557, "longitude": -117.599844932556}, "transactions": [], "price": "$$", "location": {"address1": "821 Via Suerte", "address2": "Unit 104", "address3": "", "city": "San Clemente", "zip_code": "92673", "country": "US", "state": "CA", "display_address": ["821 Via Suerte", "Unit 104", "San Clemente, CA 92673"]}, "phone": "+19493696262", "display_phone": "(949) 369-6262", "distance": 37226.1529117628}, {"id": "mtn4uojv4aXT5-WfTKnxow", "alias": "the-vox-kitchen-fountain-valley-2", "name": "The Vox Kitchen", "image_url": "https://s3-media3.fl.yelpcdn.com/bphoto/EaFMwZxiEzKN2AmW5grB6w/o.jpg", "is_closed": false, "url": "https://www.yelp.com/biz/the-vox-kitchen-fountain-valley-2?adjust_creative=oncXGL2aPIKrtJdnWeFSnA&utm_campaign=yelp_api_v3&utm_medium=api_v3_business_search&utm_source=oncXGL2aPIKrtJdnWeFSnA", "review_count": 2320, "categories": [{"alias": "vietnamese", "title": "Vietnamese"}, {"alias": "asianfusion", "title": "Asian Fusion"}, {"alias": "peruvian", "title": "Peruvian"}], "rating": 4.5, "coordinates": {"latitude": 33.72744, "longitude": -117.95568}, "transactions": ["restaurant_reservation"], "price": "$$", "location": {"address1": "16161 Brookhurst St", "address2": null, "address3": "", "city": "Fountain Valley", "zip_code": "92708", "country": "US", "state": "CA", "display_address": ["16161 Brookhurst St", "Fountain Valley, CA 92708"]}, "phone": "+16572316493", "display_phone": "(657) 231-6493", "distance": 81301.93765777249}, {"id": "Ln7JoyN0cQ6HiuWRezUk_A", "alias": "la-choza-peruvian-and-mexican-restaurant-temecula", "name": "La Choza Peruvian & Mexican Restaurant", "image_url": "https://s3-media3.fl.yelpcdn.com/bphoto/UCJ0S0HYPxjYlWEUDTDUiA/o.jpg", "is_closed": false, "url": "https://www.yelp.com/biz/la-choza-peruvian-and-mexican-restaurant-temecula?adjust_creative=oncXGL2aPIKrtJdnWeFSnA&utm_campaign=yelp_api_v3&utm_medium=api_v3_business_search&utm_source=oncXGL2aPIKrtJdnWeFSnA", "review_count": 237, "categories": [{"alias": "peruvian", "title": "Peruvian"}, {"alias": "mexican", "title": "Mexican"}], "rating": 4.5, "coordinates": {"latitude": 33.508194, "longitude": -117.141856}, "transactions": [], "price": "$$", "location": {"address1": "29760 Rancho California Rd", "address2": "Ste 115", "address3": "", "city": "Temecula", "zip_code": "92591", "country": "US", "state": "CA", "display_address": ["29760 Rancho California Rd", "Ste 115", "Temecula, CA 92591"]}, "phone": "+19512259720", "display_phone": "(951) 225-9720", "distance": 35393.53353350353}, {"id": "grnxu9MifEszMNWeGd7rGg", "alias": "elis-peruvian-kitchen-san-diego-7", "name": "Eli's Peruvian Kitchen", "image_url": "https://s3-media3.fl.yelpcdn.com/bphoto/lGVKUG2jyAeFoqC97xoTsA/o.jpg", "is_closed": false, "url": "https://www.yelp.com/biz/elis-peruvian-kitchen-san-diego-7?adjust_creative=oncXGL2aPIKrtJdnWeFSnA&utm_campaign=yelp_api_v3&utm_medium=api_v3_business_search&utm_source=oncXGL2aPIKrtJdnWeFSnA", "review_count": 66, "categories": [{"alias": "peruvian", "title": "Peruvian"}], "rating": 5.0, "coordinates": {"latitude": 32.75646, "longitude": -117.08725}, "transactions": [], "price": "$$", "location": {"address1": "4979 El Cajon Blvd", "address2": null, "address3": "", "city": "San Diego", "zip_code": "92115", "country": "US", "state": "CA", "display_address": ["4979 El Cajon Blvd", "San Diego, CA 92115"]}, "phone": "+16194522852", "display_phone": "(619) 452-2852", "distance": 56474.488655506495}, {"id": "7MjyP5_JDtvgokPzPK1OFA", "alias": "machu-picchu-bar-and-restaurant-san-diego-2", "name": "Machu Picchu Bar & Restaurant", "image_url": "https://s3-media1.fl.yelpcdn.com/bphoto/-NWQ7XbwwGfVwoRBExBq8w/o.jpg", "is_closed": false, "url": "https://www.yelp.com/biz/machu-picchu-bar-and-restaurant-san-diego-2?adjust_creative=oncXGL2aPIKrtJdnWeFSnA&utm_campaign=yelp_api_v3&utm_medium=api_v3_business_search&utm_source=oncXGL2aPIKrtJdnWeFSnA", "review_count": 28, "categories": [{"alias": "peruvian", "title": "Peruvian"}, {"alias": "bars", "title": "Bars"}, {"alias": "seafood", "title": "Seafood"}], "rating": 3.0, "coordinates": {"latitude": 32.7085555, "longitude": -117.1602531}, "transactions": ["restaurant_reservation"], "location": {"address1": "314 5th Ave", "address2": null, "address3": "", "city": "San Diego", "zip_code": "92101", "country": "US", "state": "CA", "display_address": ["314 5th Ave", "San Diego, CA 92101"]}, "phone": "+16198927595", "display_phone": "(619) 892-7595", "distance": 59380.61182011441}, {"id": "HvNoNhAeoa99Dno2Q4vD8Q", "alias": "pisco-rotisserie-and-cevicheria-san-diego", "name": "Pisco Rotisserie & Cevicheria", "image_url": "https://s3-media3.fl.yelpcdn.com/bphoto/LqvFdHBHSrNpD-sGjtgmOg/o.jpg", "is_closed": false, "url": "https://www.yelp.com/biz/pisco-rotisserie-and-cevicheria-san-diego?adjust_creative=oncXGL2aPIKrtJdnWeFSnA&utm_campaign=yelp_api_v3&utm_medium=api_v3_business_search&utm_source=oncXGL2aPIKrtJdnWeFSnA", "review_count": 290, "categories": [{"alias": "peruvian", "title": "Peruvian"}, {"alias": "seafood", "title": "Seafood"}], "rating": 3.5, "coordinates": {"latitude": 32.73574, "longitude": -117.21666}, "transactions": [], "price": "$$", "location": {"address1": "2401 Truxtun Rd", "address2": "Ste 102", "address3": null, "city": "San Diego", "zip_code": "92106", "country": "US", "state": "CA", "display_address": ["2401 Truxtun Rd", "Ste 102", "San Diego, CA 92106"]}, "phone": "+16192223111", "display_phone": "(619) 222-3111", "distance": 55285.35293568883}, {"id": "Ueg1ZKr4AogC7M8iBfXiVQ", "alias": "delicias-peruanas-lake-forest", "name": "Delicias Peruanas", "image_url": "https://s3-media1.fl.yelpcdn.com/bphoto/Xqkguaa6_KYn02VzwPx6TA/o.jpg", "is_closed": false, "url": "https://www.yelp.com/biz/delicias-peruanas-lake-forest?adjust_creative=oncXGL2aPIKrtJdnWeFSnA&utm_campaign=yelp_api_v3&utm_medium=api_v3_business_search&utm_source=oncXGL2aPIKrtJdnWeFSnA", "review_count": 344, "categories": [{"alias": "peruvian", "title": "Peruvian"}], "rating": 4.5, "coordinates": {"latitude": 33.6274954377496, "longitude": -117.704858657425}, "transactions": [], "price": "$$", "location": {"address1": "24354 Muirlands Blvd", "address2": "", "address3": "", "city": "Lake Forest", "zip_code": "92630", "country": "US", "state": "CA", "display_address": ["24354 Muirlands Blvd", "Lake Forest, CA 92630"]}, "phone": "+19494724752", "display_phone": "(949) 472-4752", "distance": 57276.75269013073}, {"id": "MIcw39vuWZXZbpHk_5czcw", "alias": "engs-chinese-deli-san-juan-capistrano-4", "name": "Eng's Chinese Deli", "image_url": "https://s3-media1.fl.yelpcdn.com/bphoto/SLnZYDC_JFUyuFbO6ljN-A/o.jpg", "is_closed": false, "url": "https://www.yelp.com/biz/engs-chinese-deli-san-juan-capistrano-4?adjust_creative=oncXGL2aPIKrtJdnWeFSnA&utm_campaign=yelp_api_v3&utm_medium=api_v3_business_search&utm_source=oncXGL2aPIKrtJdnWeFSnA", "review_count": 17, "categories": [{"alias": "chinese", "title": "Chinese"}, {"alias": "peruvian", "title": "Peruvian"}], "rating": 4.0, "coordinates": {"latitude": 33.4958307, "longitude": -117.6627149}, "transactions": [], "price": "$", "location": {"address1": "32173 Camino Capistrano", "address2": null, "address3": "", "city": "San Juan Capistrano", "zip_code": "92675", "country": "US", "state": "CA", "display_address": ["32173 Camino Capistrano", "San Juan Capistrano, CA 92675"]}, "phone": "+19492489507", "display_phone": "(949) 248-9507", "distance": 43863.58530448224}, {"id": "I3lqRG5CoBo5bZFQAOAuKQ", "alias": "inka-mamas-foothill-ranch-2", "name": "Inka Mama's", "image_url": "https://s3-media2.fl.yelpcdn.com/bphoto/jcCcpCAUZhsL53-GdBpk9w/o.jpg", "is_closed": false, "url": "https://www.yelp.com/biz/inka-mamas-foothill-ranch-2?adjust_creative=oncXGL2aPIKrtJdnWeFSnA&utm_campaign=yelp_api_v3&utm_medium=api_v3_business_search&utm_source=oncXGL2aPIKrtJdnWeFSnA", "review_count": 492, "categories": [{"alias": "peruvian", "title": "Peruvian"}], "rating": 4.0, "coordinates": {"latitude": 33.6807022094727, "longitude": -117.667007446289}, "transactions": [], "price": "$$", "location": {"address1": "26676 Portola Pkwy", "address2": null, "address3": "", "city": "Foothill Ranch", "zip_code": "92610", "country": "US", "state": "CA", "display_address": ["26676 Portola Pkwy", "Foothill Ranch, CA 92610"]}, "phone": "+19499516262", "display_phone": "(949) 951-6262", "distance": 60060.43937070369}, {"id": "UCB4P39vPpYaqL0R_y_M-Q", "alias": "inka-mamas-aliso-viejo", "name": "Inka Mama's", "image_url": "https://s3-media4.fl.yelpcdn.com/bphoto/bxs_UMkbDVHVWP0Dznqk2A/o.jpg", "is_closed": false, "url": "https://www.yelp.com/biz/inka-mamas-aliso-viejo?adjust_creative=oncXGL2aPIKrtJdnWeFSnA&utm_campaign=yelp_api_v3&utm_medium=api_v3_business_search&utm_source=oncXGL2aPIKrtJdnWeFSnA", "review_count": 396, "categories": [{"alias": "peruvian", "title": "Peruvian"}], "rating": 4.0, "coordinates": {"latitude": 33.575384, "longitude": -117.726128}, "transactions": [], "price": "$$", "location": {"address1": "26731 Aliso Creek Rd", "address2": "Ste A", "address3": "", "city": "Aliso Viejo", "zip_code": "92656", "country": "US", "state": "CA", "display_address": ["26731 Aliso Creek Rd", "Ste A", "Aliso Viejo, CA 92656"]}, "phone": "+19493606263", "display_phone": "(949) 360-6263", "distance": 54251.691830147225}, {"id": "wgSvqwJnl4sQ6VoOiKgn0A", "alias": "inkas-restaurant-irvine-3", "name": "Inka's Restaurant", "image_url": "https://s3-media3.fl.yelpcdn.com/bphoto/URkyPiIwNATkbj9BMnhfDw/o.jpg", "is_closed": false, "url": "https://www.yelp.com/biz/inkas-restaurant-irvine-3?adjust_creative=oncXGL2aPIKrtJdnWeFSnA&utm_campaign=yelp_api_v3&utm_medium=api_v3_business_search&utm_source=oncXGL2aPIKrtJdnWeFSnA", "review_count": 334, "categories": [{"alias": "peruvian", "title": "Peruvian"}], "rating": 4.0, "coordinates": {"latitude": 33.657314, "longitude": -117.769778}, "transactions": ["pickup"], "price": "$$", "location": {"address1": "16277 Laguna Canyon Rd", "address2": "Ste A", "address3": "", "city": "Irvine", "zip_code": "92618", "country": "US", "state": "CA", "display_address": ["16277 Laguna Canyon Rd", "Ste A", "Irvine, CA 92618"]}, "phone": "+19497531276", "display_phone": "(949) 753-1276", "distance": 63684.54032840006}, {"id": "0h4KLeo458nfdmzBCJZJLA", "alias": "inka-grill-lake-forest", "name": "Inka Grill", "image_url": "https://s3-media4.fl.yelpcdn.com/bphoto/xrSXH8XgS3UIF_IO2xr--w/o.jpg", "is_closed": false, "url": "https://www.yelp.com/biz/inka-grill-lake-forest?adjust_creative=oncXGL2aPIKrtJdnWeFSnA&utm_campaign=yelp_api_v3&utm_medium=api_v3_business_search&utm_source=oncXGL2aPIKrtJdnWeFSnA", "review_count": 321, "categories": [{"alias": "peruvian", "title": "Peruvian"}], "rating": 3.5, "coordinates": {"latitude": 33.629726647544, "longitude": -117.719171047211}, "transactions": ["pickup", "delivery"], "price": "$$", "location": {"address1": "23600 Rockfield Blvd", "address2": "Ste 2K", "address3": "", "city": "Lake Forest", "zip_code": "92630", "country": "US", "state": "CA", "display_address": ["23600 Rockfield Blvd", "Ste 2K", "Lake Forest, CA 92630"]}, "phone": "+19495879008", "display_phone": "(949) 587-9008", "distance": 58308.57221296872}, {"id": "CASizF-7appim7BYmgyD0Q", "alias": "a-taste-of-peru-baking-and-catering-santa-ana", "name": "A Taste of Peru Baking & Catering", "image_url": "https://s3-media4.fl.yelpcdn.com/bphoto/dc1g1t5vWcqckKiDwcm9Lg/o.jpg", "is_closed": false, "url": "https://www.yelp.com/biz/a-taste-of-peru-baking-and-catering-santa-ana?adjust_creative=oncXGL2aPIKrtJdnWeFSnA&utm_campaign=yelp_api_v3&utm_medium=api_v3_business_search&utm_source=oncXGL2aPIKrtJdnWeFSnA", "review_count": 1, "categories": [{"alias": "peruvian", "title": "Peruvian"}, {"alias": "catering", "title": "Caterers"}], "rating": 5.0, "coordinates": {"latitude": 33.7481934, "longitude": -117.8664136}, "transactions": [], "location": {"address1": "201 E 4th St", "address2": "Ste K", "address3": null, "city": "Santa Ana", "zip_code": "92701", "country": "US", "state": "CA", "display_address": ["201 E 4th St", "Ste K", "Santa Ana, CA 92701"]}, "phone": "+17148825757", "display_phone": "(714) 882-5757", "distance": 77176.31280752657}, {"id": "8o6d27Q22ELRUKkv9ltC_Q", "alias": "brasa-rotisserie-santa-ana", "name": "BRASA Rotisserie", "image_url": "https://s3-media1.fl.yelpcdn.com/bphoto/NqiRLwGTAyf5SPi-pAUO_g/o.jpg", "is_closed": false, "url": "https://www.yelp.com/biz/brasa-rotisserie-santa-ana?adjust_creative=oncXGL2aPIKrtJdnWeFSnA&utm_campaign=yelp_api_v3&utm_medium=api_v3_business_search&utm_source=oncXGL2aPIKrtJdnWeFSnA", "review_count": 199, "categories": [{"alias": "peruvian", "title": "Peruvian"}, {"alias": "sandwiches", "title": "Sandwiches"}, {"alias": "chickenshop", "title": "Chicken Shop"}], "rating": 4.0, "coordinates": {"latitude": 33.6949201, "longitude": -117.8856949}, "transactions": ["pickup", "delivery"], "price": "$$", "location": {"address1": "3940 S Bristol", "address2": "Ste 111", "address3": "", "city": "Santa Ana", "zip_code": "92704", "country": "US", "state": "CA", "display_address": ["3940 S Bristol", "Ste 111", "Santa Ana, CA 92704"]}, "phone": "+16572660603", "display_phone": "(657) 266-0603", "distance": 74098.16581629353}, {"id": "yQbGgm1iPXGfpz9ZJ4JtAQ", "alias": "inka-cantina-fountain-valley-3", "name": "Inka Cantina", "image_url": "https://s3-media3.fl.yelpcdn.com/bphoto/j9fKMS4ojk-HZji0GvmNSQ/o.jpg", "is_closed": false, "url": "https://www.yelp.com/biz/inka-cantina-fountain-valley-3?adjust_creative=oncXGL2aPIKrtJdnWeFSnA&utm_campaign=yelp_api_v3&utm_medium=api_v3_business_search&utm_source=oncXGL2aPIKrtJdnWeFSnA", "review_count": 479, "categories": [{"alias": "peruvian", "title": "Peruvian"}, {"alias": "salad", "title": "Salad"}, {"alias": "seafood", "title": "Seafood"}], "rating": 4.0, "coordinates": {"latitude": 33.6974478, "longitude": -117.9544788}, "transactions": [], "price": "$$", "location": {"address1": "18279 Brookhurst St", "address2": "Ste 4", "address3": "", "city": "Fountain Valley", "zip_code": "92708", "country": "US", "state": "CA", "display_address": ["18279 Brookhurst St", "Ste 4", "Fountain Valley, CA 92708"]}, "phone": "+17149654600", "display_phone": "(714) 965-4600", "distance": 78970.36252174262}, {"id": "mrxvlWsiiYr_eFsLS51aQA", "alias": "norys-peruvian-restaurant-lake-forest", "name": "Nory's Peruvian Restaurant", "image_url": "https://s3-media1.fl.yelpcdn.com/bphoto/TbJcTTmNRVjj8D50yevS4A/o.jpg", "is_closed": false, "url": "https://www.yelp.com/biz/norys-peruvian-restaurant-lake-forest?adjust_creative=oncXGL2aPIKrtJdnWeFSnA&utm_campaign=yelp_api_v3&utm_medium=api_v3_business_search&utm_source=oncXGL2aPIKrtJdnWeFSnA", "review_count": 73, "categories": [{"alias": "peruvian", "title": "Peruvian"}], "rating": 3.5, "coordinates": {"latitude": 33.6251009, "longitude": -117.7147131}, "transactions": [], "price": "$$", "location": {"address1": "23798 Mercury Rd", "address2": "Ste 2810", "address3": "", "city": "Lake Forest", "zip_code": "92630", "country": "US", "state": "CA", "display_address": ["23798 Mercury Rd", "Ste 2810", "Lake Forest, CA 92630"]}, "phone": "+19494580318", "display_phone": "(949) 458-0318", "distance": 57600.171533737936}, {"id": "9zdg1dyPBQiDt9c3Pob-XQ", "alias": "el-pollo-kri-ollo-corona-2", "name": "El Pollo Kri-ollo", "image_url": "https://s3-media3.fl.yelpcdn.com/bphoto/7MzlTQAdZ9oC1hv8cN3IxQ/o.jpg", "is_closed": false, "url": "https://www.yelp.com/biz/el-pollo-kri-ollo-corona-2?adjust_creative=oncXGL2aPIKrtJdnWeFSnA&utm_campaign=yelp_api_v3&utm_medium=api_v3_business_search&utm_source=oncXGL2aPIKrtJdnWeFSnA", "review_count": 162, "categories": [{"alias": "peruvian", "title": "Peruvian"}], "rating": 4.5, "coordinates": {"latitude": 33.87776, "longitude": -117.58956}, "transactions": [], "price": "$$", "location": {"address1": "1390 W 6th St", "address2": "Ste 124", "address3": "", "city": "corona", "zip_code": "92882", "country": "US", "state": "CA", "display_address": ["1390 W 6th St", "Ste 124", "corona, CA 92882"]}, "phone": "+19514273867", "display_phone": "(951) 427-3867", "distance": 76771.4968488001}, {"id": "VST4gB9TeWU0db1JeTZ6Og", "alias": "inka-mamas-santa-ana", "name": "Inka Mama's", "image_url": "https://s3-media2.fl.yelpcdn.com/bphoto/0zdhhlWSTM7CO0TUWAxzDw/o.jpg", "is_closed": false, "url": "https://www.yelp.com/biz/inka-mamas-santa-ana?adjust_creative=oncXGL2aPIKrtJdnWeFSnA&utm_campaign=yelp_api_v3&utm_medium=api_v3_business_search&utm_source=oncXGL2aPIKrtJdnWeFSnA", "review_count": 491, "categories": [{"alias": "peruvian", "title": "Peruvian"}, {"alias": "seafood", "title": "Seafood"}], "rating": 4.0, "coordinates": {"latitude": 33.695011, "longitude": -117.885925}, "transactions": [], "price": "$$", "location": {"address1": "3930 S Bristol St", "address2": "Ste 107", "address3": "", "city": "Santa Ana", "zip_code": "92704", "country": "US", "state": "CA", "display_address": ["3930 S Bristol St", "Ste 107", "Santa Ana, CA 92704"]}, "phone": "+17145576262", "display_phone": "(714) 557-6262", "distance": 74117.3691477225}, {"id": "SCa9EcjZOxjO4uQYsd3xww", "alias": "el-cortijo-grill-peruvian-express-santa-ana-3", "name": "El Cortijo Grill Peruvian Express", "image_url": "https://s3-media2.fl.yelpcdn.com/bphoto/zbvpdNUN9i4zNPKI2GrMoQ/o.jpg", "is_closed": false, "url": "https://www.yelp.com/biz/el-cortijo-grill-peruvian-express-santa-ana-3?adjust_creative=oncXGL2aPIKrtJdnWeFSnA&utm_campaign=yelp_api_v3&utm_medium=api_v3_business_search&utm_source=oncXGL2aPIKrtJdnWeFSnA", "review_count": 97, "categories": [{"alias": "peruvian", "title": "Peruvian"}], "rating": 4.5, "coordinates": {"latitude": 33.7602549, "longitude": -117.8717351}, "transactions": ["pickup", "delivery"], "price": "$$", "location": {"address1": "413 W 17th St", "address2": "Ste 107", "address3": null, "city": "Santa Ana", "zip_code": "92706", "country": "US", "state": "CA", "display_address": ["413 W 17th St", "Ste 107", "Santa Ana, CA 92706"]}, "phone": "+17147202718", "display_phone": "(714) 720-2718", "distance": 78521.00211655426}, {"id": "GAd9PJhVtaEYAqnJVlhEpg", "alias": "reginas-restaurant-garden-grove", "name": "Regina's Restaurant", "image_url": "https://s3-media2.fl.yelpcdn.com/bphoto/Y7MMaJFYlpTpyl6Dxfw_Cg/o.jpg", "is_closed": false, "url": "https://www.yelp.com/biz/reginas-restaurant-garden-grove?adjust_creative=oncXGL2aPIKrtJdnWeFSnA&utm_campaign=yelp_api_v3&utm_medium=api_v3_business_search&utm_source=oncXGL2aPIKrtJdnWeFSnA", "review_count": 290, "categories": [{"alias": "italian", "title": "Italian"}, {"alias": "argentine", "title": "Argentine"}, {"alias": "peruvian", "title": "Peruvian"}], "rating": 4.0, "coordinates": {"latitude": 33.7599798, "longitude": -117.9370264}, "transactions": ["pickup", "delivery"], "price": "$$", "location": {"address1": "11025 Westminster Ave", "address2": "", "address3": "", "city": "Garden Grove", "zip_code": "92843", "country": "US", "state": "CA", "display_address": ["11025 Westminster Ave", "Garden Grove, CA 92843"]}, "phone": "+17146389595", "display_phone": "(714) 638-9595", "distance": 82573.43067173402}, {"id": "cKG85iyh9m6SNRMMHWzH2Q", "alias": "inka-grill-costa-mesa", "name": "Inka Grill", "image_url": "https://s3-media1.fl.yelpcdn.com/bphoto/0qNGvDcXaL1Sk1k1u8B_4A/o.jpg", "is_closed": false, "url": "https://www.yelp.com/biz/inka-grill-costa-mesa?adjust_creative=oncXGL2aPIKrtJdnWeFSnA&utm_campaign=yelp_api_v3&utm_medium=api_v3_business_search&utm_source=oncXGL2aPIKrtJdnWeFSnA", "review_count": 757, "categories": [{"alias": "peruvian", "title": "Peruvian"}, {"alias": "seafood", "title": "Seafood"}, {"alias": "empanadas", "title": "Empanadas"}], "rating": 3.5, "coordinates": {"latitude": 33.667927783525, "longitude": -117.882493884528}, "transactions": ["pickup", "delivery"], "price": "$$", "location": {"address1": "260 Bristol St", "address2": null, "address3": "", "city": "Costa Mesa", "zip_code": "92626", "country": "US", "state": "CA", "display_address": ["260 Bristol St", "Costa Mesa, CA 92626"]}, "phone": "+17144444652", "display_phone": "(714) 444-4652", "distance": 71803.7950485079}, {"id": "3kuIMzYI1ThSftPshoWsiA", "alias": "peruvian-rotisserie-chicken-huntington-beach-2", "name": "Peruvian Rotisserie Chicken", "image_url": "https://s3-media3.fl.yelpcdn.com/bphoto/mPEHgGZHY3kQIMrQbSy4aQ/o.jpg", "is_closed": false, "url": "https://www.yelp.com/biz/peruvian-rotisserie-chicken-huntington-beach-2?adjust_creative=oncXGL2aPIKrtJdnWeFSnA&utm_campaign=yelp_api_v3&utm_medium=api_v3_business_search&utm_source=oncXGL2aPIKrtJdnWeFSnA", "review_count": 441, "categories": [{"alias": "peruvian", "title": "Peruvian"}, {"alias": "chickenshop", "title": "Chicken Shop"}, {"alias": "seafood", "title": "Seafood"}], "rating": 4.0, "coordinates": {"latitude": 33.6844454803127, "longitude": -117.987946344055}, "transactions": ["pickup", "delivery"], "price": "$$", "location": {"address1": "19092 Beach Blvd", "address2": "Ste S", "address3": "", "city": "Huntington Beach", "zip_code": "92648", "country": "US", "state": "CA", "display_address": ["19092 Beach Blvd", "Ste S", "Huntington Beach, CA 92648"]}, "phone": "+17145934111", "display_phone": "(714) 593-4111", "distance": 80368.72489143064}, {"id": "I4KEcUO6DjgY4AjwE3tJ5g", "alias": "se\u00f1or-pollo-garden-grove-3", "name": "Se\u00f1or Pollo", "image_url": "https://s3-media4.fl.yelpcdn.com/bphoto/OYNrbO2yyDsY7mqTYewhQg/o.jpg", "is_closed": false, "url": "https://www.yelp.com/biz/se%C3%B1or-pollo-garden-grove-3?adjust_creative=oncXGL2aPIKrtJdnWeFSnA&utm_campaign=yelp_api_v3&utm_medium=api_v3_business_search&utm_source=oncXGL2aPIKrtJdnWeFSnA", "review_count": 127, "categories": [{"alias": "peruvian", "title": "Peruvian"}], "rating": 4.0, "coordinates": {"latitude": 33.7602715656978, "longitude": -117.925666607916}, "transactions": [], "price": "$$", "location": {"address1": "11681 Westminster Ave", "address2": "", "address3": "", "city": "Garden Grove", "zip_code": "92843", "country": "US", "state": "CA", "display_address": ["11681 Westminster Ave", "Garden Grove, CA 92843"]}, "phone": "+17145390205", "display_phone": "(714) 539-0205", "distance": 81868.34755558985}, {"id": "KFrOE1iOD8NXPRgx2FS0zQ", "alias": "latin-chef-san-diego", "name": "Latin Chef", "image_url": "https://s3-media3.fl.yelpcdn.com/bphoto/qi5pKf1BLPgJ2kRd0UK-KQ/o.jpg", "is_closed": false, "url": "https://www.yelp.com/biz/latin-chef-san-diego?adjust_creative=oncXGL2aPIKrtJdnWeFSnA&utm_campaign=yelp_api_v3&utm_medium=api_v3_business_search&utm_source=oncXGL2aPIKrtJdnWeFSnA", "review_count": 286, "categories": [{"alias": "latin", "title": "Latin American"}, {"alias": "brazilian", "title": "Brazilian"}, {"alias": "peruvian", "title": "Peruvian"}], "rating": 3.5, "coordinates": {"latitude": 32.79826, "longitude": -117.24913}, "transactions": ["pickup", "delivery"], "price": "$$", "location": {"address1": "1142 Garnet Ave", "address2": "", "address3": "", "city": "San Diego", "zip_code": "92109", "country": "US", "state": "CA", "display_address": ["1142 Garnet Ave", "San Diego, CA 92109"]}, "phone": "+18582708810", "display_phone": "(858) 270-8810", "distance": 48010.1718872175}, {"id": "_hwN2sg2uyKP2G9dK4ECRA", "alias": "casa-inka-fountain-valley", "name": "Casa Inka", "image_url": "https://s3-media4.fl.yelpcdn.com/bphoto/WxG93tnaQ21nU0-2gxW-AA/o.jpg", "is_closed": false, "url": "https://www.yelp.com/biz/casa-inka-fountain-valley?adjust_creative=oncXGL2aPIKrtJdnWeFSnA&utm_campaign=yelp_api_v3&utm_medium=api_v3_business_search&utm_source=oncXGL2aPIKrtJdnWeFSnA", "review_count": 855, "categories": [{"alias": "peruvian", "title": "Peruvian"}], "rating": 4.0, "coordinates": {"latitude": 33.715603, "longitude": -117.978639}, "transactions": [], "price": "$$", "location": {"address1": "8610 Warner Ave", "address2": "", "address3": "", "city": "Fountain Valley", "zip_code": "92708", "country": "US", "state": "CA", "display_address": ["8610 Warner Ave", "Fountain Valley, CA 92708"]}, "phone": "+17148477555", "display_phone": "(714) 847-7555", "distance": 81953.90491357986}, {"id": "q6lJoJ4FD1l3OCbTWZ9rJQ", "alias": "yokys-pollo-a-la-brasa-santa-ana", "name": "Yoky's Pollo a la Brasa", "image_url": "https://s3-media2.fl.yelpcdn.com/bphoto/D24eWjy1s5QXdl2owfjBiQ/o.jpg", "is_closed": false, "url": "https://www.yelp.com/biz/yokys-pollo-a-la-brasa-santa-ana?adjust_creative=oncXGL2aPIKrtJdnWeFSnA&utm_campaign=yelp_api_v3&utm_medium=api_v3_business_search&utm_source=oncXGL2aPIKrtJdnWeFSnA", "review_count": 2, "categories": [{"alias": "mexican", "title": "Mexican"}, {"alias": "italian", "title": "Italian"}, {"alias": "peruvian", "title": "Peruvian"}], "rating": 2.0, "coordinates": {"latitude": 33.747125, "longitude": -117.8677749}, "transactions": [], "location": {"address1": "304 N Main St", "address2": "", "address3": "", "city": "Santa Ana", "zip_code": "92701", "country": "US", "state": "CA", "display_address": ["304 N Main St", "Santa Ana, CA 92701"]}, "phone": "+17145640032", "display_phone": "(714) 564-0032", "distance": 77185.70325174669}, {"id": "yY4dTJG6sX1KHz3--7dmpQ", "alias": "aires-del-per\u00fa-garden-grove-2", "name": "Aires del Per\u00fa", "image_url": "https://s3-media1.fl.yelpcdn.com/bphoto/VI1drc-ocMOy828TAi-NiA/o.jpg", "is_closed": false, "url": "https://www.yelp.com/biz/aires-del-per%C3%BA-garden-grove-2?adjust_creative=oncXGL2aPIKrtJdnWeFSnA&utm_campaign=yelp_api_v3&utm_medium=api_v3_business_search&utm_source=oncXGL2aPIKrtJdnWeFSnA", "review_count": 104, "categories": [{"alias": "peruvian", "title": "Peruvian"}, {"alias": "italian", "title": "Italian"}], "rating": 3.0, "coordinates": {"latitude": 33.7887870907279, "longitude": -117.905898865078}, "transactions": [], "price": "$$", "location": {"address1": "13008 Chapman Ave", "address2": "", "address3": "", "city": "Garden Grove", "zip_code": "92868", "country": "US", "state": "CA", "display_address": ["13008 Chapman Ave", "Garden Grove, CA 92868"]}, "phone": "+17147507343", "display_phone": "(714) 750-7343", "distance": 82958.47909726364}, {"id": "ju-eLKL1-oHPT97aqisFwQ", "alias": "andes-peruvian-grill-yorba-linda", "name": "Andes Peruvian Grill", "image_url": "https://s3-media1.fl.yelpcdn.com/bphoto/X7786svVe_iUBQPBnRkyLQ/o.jpg", "is_closed": false, "url": "https://www.yelp.com/biz/andes-peruvian-grill-yorba-linda?adjust_creative=oncXGL2aPIKrtJdnWeFSnA&utm_campaign=yelp_api_v3&utm_medium=api_v3_business_search&utm_source=oncXGL2aPIKrtJdnWeFSnA", "review_count": 272, "categories": [{"alias": "peruvian", "title": "Peruvian"}], "rating": 4.0, "coordinates": {"latitude": 33.8895524986178, "longitude": -117.791164639407}, "transactions": ["pickup", "delivery"], "price": "$$", "location": {"address1": "19715 Yorba Linda Blvd", "address2": "", "address3": "", "city": "Yorba Linda", "zip_code": "92886", "country": "US", "state": "CA", "display_address": ["19715 Yorba Linda Blvd", "Yorba Linda, CA 92886"]}, "phone": "+17147799100", "display_phone": "(714) 779-9100", "distance": 85817.11322202446}, {"id": "Bo_ssnagU2LZYV3GLmgytw", "alias": "la-pollada-peruvian-grill-anaheim", "name": "La Pollada Peruvian Grill", "image_url": "https://s3-media3.fl.yelpcdn.com/bphoto/LAl4-4EFzxZ1NmsHqxg6rw/o.jpg", "is_closed": false, "url": "https://www.yelp.com/biz/la-pollada-peruvian-grill-anaheim?adjust_creative=oncXGL2aPIKrtJdnWeFSnA&utm_campaign=yelp_api_v3&utm_medium=api_v3_business_search&utm_source=oncXGL2aPIKrtJdnWeFSnA", "review_count": 113, "categories": [{"alias": "peruvian", "title": "Peruvian"}], "rating": 3.5, "coordinates": {"latitude": 33.8188183616584, "longitude": -117.942521066145}, "transactions": [], "price": "$$", "location": {"address1": "933 S Euclid St", "address2": "", "address3": "", "city": "Anaheim", "zip_code": "92802", "country": "US", "state": "CA", "display_address": ["933 S Euclid St", "Anaheim, CA 92802"]}, "phone": "+17146000730", "display_phone": "(714) 600-0730", "distance": 87718.5585405561}, {"id": "TxKruH7CnRqduPtGaJQe0w", "alias": "chicama-peruvian-restaurant-stanton", "name": "Chicama Peruvian Restaurant", "image_url": "https://s3-media2.fl.yelpcdn.com/bphoto/I5xB_Tzzl_hg_CHVXdDm8g/o.jpg", "is_closed": false, "url": "https://www.yelp.com/biz/chicama-peruvian-restaurant-stanton?adjust_creative=oncXGL2aPIKrtJdnWeFSnA&utm_campaign=yelp_api_v3&utm_medium=api_v3_business_search&utm_source=oncXGL2aPIKrtJdnWeFSnA", "review_count": 204, "categories": [{"alias": "peruvian", "title": "Peruvian"}], "rating": 4.0, "coordinates": {"latitude": 33.810319, "longitude": -118.011161}, "transactions": ["pickup", "delivery"], "price": "$$", "location": {"address1": "6959 Cerritos Ave", "address2": null, "address3": "", "city": "Stanton", "zip_code": "90680", "country": "US", "state": "CA", "display_address": ["6959 Cerritos Ave", "Stanton, CA 90680"]}, "phone": "+17149952510", "display_phone": "(714) 995-2510", "distance": 91368.62591896685}, {"id": "BcmhDdDudhLZp_iQ_s3rgA", "alias": "aji-limon-buena-park", "name": "Aji Limon", "image_url": "https://s3-media2.fl.yelpcdn.com/bphoto/RludrKycaM-69uIrjPvJ6A/o.jpg", "is_closed": false, "url": "https://www.yelp.com/biz/aji-limon-buena-park?adjust_creative=oncXGL2aPIKrtJdnWeFSnA&utm_campaign=yelp_api_v3&utm_medium=api_v3_business_search&utm_source=oncXGL2aPIKrtJdnWeFSnA", "review_count": 432, "categories": [{"alias": "peruvian", "title": "Peruvian"}], "rating": 4.0, "coordinates": {"latitude": 33.8321149, "longitude": -118.0099337}, "transactions": [], "price": "$$", "location": {"address1": "7035 Lincoln Ave", "address2": "", "address3": "", "city": "Buena Park", "zip_code": "90620", "country": "US", "state": "CA", "display_address": ["7035 Lincoln Ave", "Buena Park, CA 90620"]}, "phone": "+17142291500", "display_phone": "(714) 229-1500", "distance": 93045.66937431261}, {"id": "Xcosa8T5MKpkAe6QKo71gg", "alias": "pollo-inka-express-hawaiian-gardens", "name": "Pollo Inka Express", "image_url": "https://s3-media3.fl.yelpcdn.com/bphoto/JyvXJBYQYVF7qZYnrEkWLA/o.jpg", "is_closed": false, "url": "https://www.yelp.com/biz/pollo-inka-express-hawaiian-gardens?adjust_creative=oncXGL2aPIKrtJdnWeFSnA&utm_campaign=yelp_api_v3&utm_medium=api_v3_business_search&utm_source=oncXGL2aPIKrtJdnWeFSnA", "review_count": 281, "categories": [{"alias": "latin", "title": "Latin American"}, {"alias": "hotdogs", "title": "Fast Food"}, {"alias": "peruvian", "title": "Peruvian"}], "rating": 4.0, "coordinates": {"latitude": 33.8311193239716, "longitude": -118.073799647391}, "transactions": ["pickup", "delivery"], "price": "$", "location": {"address1": "12110 Carson St", "address2": "", "address3": "", "city": "Hawaiian Gardens", "zip_code": "90716", "country": "US", "state": "CA", "display_address": ["12110 Carson St", "Hawaiian Gardens, CA 90716"]}, "phone": "+15624445522", "display_phone": "(562) 444-5522", "distance": 97122.16155193657}, {"id": "NChPC9sZfG039W3UwJ5XnA", "alias": "charos-peruvian-cuisine-long-beach", "name": "Charo's Peruvian Cuisine", "image_url": "https://s3-media3.fl.yelpcdn.com/bphoto/HmJVO_2O6SETeMpAwhh7ZA/o.jpg", "is_closed": false, "url": "https://www.yelp.com/biz/charos-peruvian-cuisine-long-beach?adjust_creative=oncXGL2aPIKrtJdnWeFSnA&utm_campaign=yelp_api_v3&utm_medium=api_v3_business_search&utm_source=oncXGL2aPIKrtJdnWeFSnA", "review_count": 293, "categories": [{"alias": "peruvian", "title": "Peruvian"}], "rating": 4.0, "coordinates": {"latitude": 33.8314602169759, "longitude": -118.087964057922}, "transactions": [], "price": "$$", "location": {"address1": "7563 Carson St", "address2": null, "address3": "", "city": "Long Beach", "zip_code": "90808", "country": "US", "state": "CA", "display_address": ["7563 Carson St", "Long Beach, CA 90808"]}, "phone": "+15626270087", "display_phone": "(562) 627-0087", "distance": 98099.08782227202}, {"id": "PIc04W2EdwLmuECI2NntGg", "alias": "el-rocoto-cerritos", "name": "El Rocoto", "image_url": "https://s3-media3.fl.yelpcdn.com/bphoto/rlxOL1z9kX8Avqh7YQmROQ/o.jpg", "is_closed": false, "url": "https://www.yelp.com/biz/el-rocoto-cerritos?adjust_creative=oncXGL2aPIKrtJdnWeFSnA&utm_campaign=yelp_api_v3&utm_medium=api_v3_business_search&utm_source=oncXGL2aPIKrtJdnWeFSnA", "review_count": 1123, "categories": [{"alias": "peruvian", "title": "Peruvian"}], "rating": 4.0, "coordinates": {"latitude": 33.8589148, "longitude": -118.0898523}, "transactions": [], "price": "$$", "location": {"address1": "11433 South St", "address2": null, "address3": "", "city": "Cerritos", "zip_code": "90703", "country": "US", "state": "CA", "display_address": ["11433 South St", "Cerritos, CA 90703"]}, "phone": "+15629241919", "display_phone": "(562) 924-1919", "distance": 100335.29292336504}, {"id": "1iguPtoghSll3GkDaw_F_w", "alias": "chef-hornero-bellflower", "name": "Chef Hornero", "image_url": "https://s3-media1.fl.yelpcdn.com/bphoto/uy5HmevK3o5yA1zobVTXsg/o.jpg", "is_closed": false, "url": "https://www.yelp.com/biz/chef-hornero-bellflower?adjust_creative=oncXGL2aPIKrtJdnWeFSnA&utm_campaign=yelp_api_v3&utm_medium=api_v3_business_search&utm_source=oncXGL2aPIKrtJdnWeFSnA", "review_count": 94, "categories": [{"alias": "peruvian", "title": "Peruvian"}, {"alias": "latin", "title": "Latin American"}], "rating": 3.0, "coordinates": {"latitude": 33.9026725, "longitude": -118.1163619}, "transactions": ["pickup"], "price": "$$", "location": {"address1": "14074 Woodruff Ave", "address2": "", "address3": "", "city": "Bellflower", "zip_code": "90706", "country": "US", "state": "CA", "display_address": ["14074 Woodruff Ave", "Bellflower, CA 90706"]}, "phone": "+15628671896", "display_phone": "(562) 867-1896", "distance": 105500.40806171799}], "total": 40, "region": {"center": {"longitude": -117.31819152832031, "latitude": 33.226009439623446}}}