{"businesses": [{"id": "v1H9N_3k3ckng8NcZek6gw", "alias": "fratellis-italian-kitchen-oceanside-5", "name": "Fratelli's Italian Kitchen", "image_url": "https://s3-media1.fl.yelpcdn.com/bphoto/rAUy6VUipaPXVzdSQ-g2lg/o.jpg", "is_closed": false, "url": "https://www.yelp.com/biz/fratellis-italian-kitchen-oceanside-5?adjust_creative=oncXGL2aPIKrtJdnWeFSnA&utm_campaign=yelp_api_v3&utm_medium=api_v3_business_search&utm_source=oncXGL2aPIKrtJdnWeFSnA", "review_count": 680, "categories": [{"alias": "italian", "title": "Italian"}, {"alias": "pizza", "title": "Pizza"}, {"alias": "seafood", "title": "Seafood"}], "rating": 4.5, "coordinates": {"latitude": 33.2281406, "longitude": -117.3245743}, "transactions": ["pickup", "delivery"], "price": "$$", "location": {"address1": "3915 Mission Ave", "address2": "Ste 12", "address3": "", "city": "Oceanside", "zip_code": "92058", "country": "US", "state": "CA", "display_address": ["3915 Mission Ave", "Ste 12", "Oceanside, CA 92058"]}, "phone": "+17606969007", "display_phone": "(760) 696-9007", "distance": 624.0395120973519}, {"id": "UPGYeMQGPyKahAsW0AMorw", "alias": "mangia-e-bevi-oceanside", "name": "Mangia e Bevi", "image_url": "https://s3-media2.fl.yelpcdn.com/bphoto/JyNc7RZ6xSYKdnkOArHM2Q/o.jpg", "is_closed": false, "url": "https://www.yelp.com/biz/mangia-e-bevi-oceanside?adjust_creative=oncXGL2aPIKrtJdnWeFSnA&utm_campaign=yelp_api_v3&utm_medium=api_v3_business_search&utm_source=oncXGL2aPIKrtJdnWeFSnA", "review_count": 16, "categories": [{"alias": "italian", "title": "Italian"}, {"alias": "pizza", "title": "Pizza"}, {"alias": "wine_bars", "title": "Wine Bars"}], "rating": 5.0, "coordinates": {"latitude": 33.21011, "longitude": -117.31162}, "transactions": [], "location": {"address1": "3613 Ocean Ranch Blvd", "address2": "Ste 100", "address3": "", "city": "Oceanside", "zip_code": "92056", "country": "US", "state": "CA", "display_address": ["3613 Ocean Ranch Blvd", "Ste 100", "Oceanside, CA 92056"]}, "phone": "+17602311225", "display_phone": "(760) 231-1225", "distance": 1877.8899368942748}, {"id": "3GsXr0QB3olbteXRU38Epw", "alias": "rosaria-pizza-oceanside", "name": "Rosaria Pizza", "image_url": "https://s3-media1.fl.yelpcdn.com/bphoto/5qlTdYUXchi1q07pY9YOIA/o.jpg", "is_closed": false, "url": "https://www.yelp.com/biz/rosaria-pizza-oceanside?adjust_creative=oncXGL2aPIKrtJdnWeFSnA&utm_campaign=yelp_api_v3&utm_medium=api_v3_business_search&utm_source=oncXGL2aPIKrtJdnWeFSnA", "review_count": 5, "categories": [{"alias": "pizza", "title": "Pizza"}], "rating": 5.0, "coordinates": {"latitude": 33.19566, "longitude": -117.38085}, "transactions": ["pickup", "delivery"], "location": {"address1": "209 N Tremont St", "address2": null, "address3": "", "city": "Oceanside", "zip_code": "92054", "country": "US", "state": "CA", "display_address": ["209 N Tremont St", "Oceanside, CA 92054"]}, "phone": "+17607221949", "display_phone": "(760) 722-1949", "distance": 6734.279720361866}, {"id": "DnDi5lJ7SKFshww3dZHUHg", "alias": "big-bobs-best-pizza-oceanside", "name": "Big Bob's Best Pizza", "image_url": "https://s3-media1.fl.yelpcdn.com/bphoto/Y5cqqvPVRLLv1ZYGw-Id_Q/o.jpg", "is_closed": false, "url": "https://www.yelp.com/biz/big-bobs-best-pizza-oceanside?adjust_creative=oncXGL2aPIKrtJdnWeFSnA&utm_campaign=yelp_api_v3&utm_medium=api_v3_business_search&utm_source=oncXGL2aPIKrtJdnWeFSnA", "review_count": 432, "categories": [{"alias": "pizza", "title": "Pizza"}], "rating": 4.5, "coordinates": {"latitude": 33.20949, "longitude": -117.31192}, "transactions": [], "price": "$$", "location": {"address1": "3617 Ocean Ranch Blvd", "address2": "Ste 105", "address3": "", "city": "Oceanside", "zip_code": "92056", "country": "US", "state": "CA", "display_address": ["3617 Ocean Ranch Blvd", "Ste 105", "Oceanside, CA 92056"]}, "phone": "+17602315050", "display_phone": "(760) 231-5050", "distance": 1902.29489913474}, {"id": "DQSVKLupJlcLB9xBK4o1tA", "alias": "fat-joes-o-side-oceanside", "name": "Fat Joe's O'side", "image_url": "https://s3-media3.fl.yelpcdn.com/bphoto/NiLl7fEU-gr75ghz9ZDuZQ/o.jpg", "is_closed": false, "url": "https://www.yelp.com/biz/fat-joes-o-side-oceanside?adjust_creative=oncXGL2aPIKrtJdnWeFSnA&utm_campaign=yelp_api_v3&utm_medium=api_v3_business_search&utm_source=oncXGL2aPIKrtJdnWeFSnA", "review_count": 52, "categories": [{"alias": "sportsbars", "title": "Sports Bars"}, {"alias": "pizza", "title": "Pizza"}], "rating": 4.0, "coordinates": {"latitude": 33.191112, "longitude": -117.3753153}, "transactions": [], "price": "$", "location": {"address1": "424 S Coast Hwy", "address2": "", "address3": null, "city": "Oceanside", "zip_code": "92054", "country": "US", "state": "CA", "display_address": ["424 S Coast Hwy", "Oceanside, CA 92054"]}, "phone": "+17607225637", "display_phone": "(760) 722-5637", "distance": 6571.738389223645}, {"id": "cJIcN2kZHiOvuvQrH_Ep8g", "alias": "benitos-cafe-oceanside", "name": "Benito's Cafe", "image_url": "https://s3-media2.fl.yelpcdn.com/bphoto/n4K1JC7Z18MNUFaxXir-YA/o.jpg", "is_closed": false, "url": "https://www.yelp.com/biz/benitos-cafe-oceanside?adjust_creative=oncXGL2aPIKrtJdnWeFSnA&utm_campaign=yelp_api_v3&utm_medium=api_v3_business_search&utm_source=oncXGL2aPIKrtJdnWeFSnA", "review_count": 18, "categories": [{"alias": "pizza", "title": "Pizza"}, {"alias": "pastashops", "title": "Pasta Shops"}, {"alias": "chickenshop", "title": "Chicken Shop"}], "rating": 4.5, "coordinates": {"latitude": 33.19667, "longitude": -117.37853}, "transactions": [], "location": {"address1": "610 Mission Ave", "address2": "", "address3": null, "city": "Oceanside", "zip_code": "92054", "country": "US", "state": "CA", "display_address": ["610 Mission Ave", "Oceanside, CA 92054"]}, "phone": "+17607213000", "display_phone": "(760) 721-3000", "distance": 6480.1735178135505}, {"id": "aPcUhduRD-uWwzDSz-GddA", "alias": "two-brothers-from-italy-oceanside", "name": "Two Brothers From Italy", "image_url": "https://s3-media3.fl.yelpcdn.com/bphoto/aCORsr2X6Br3x33XGcsASQ/o.jpg", "is_closed": false, "url": "https://www.yelp.com/biz/two-brothers-from-italy-oceanside?adjust_creative=oncXGL2aPIKrtJdnWeFSnA&utm_campaign=yelp_api_v3&utm_medium=api_v3_business_search&utm_source=oncXGL2aPIKrtJdnWeFSnA", "review_count": 74, "categories": [{"alias": "pizza", "title": "Pizza"}, {"alias": "italian", "title": "Italian"}], "rating": 4.5, "coordinates": {"latitude": 33.18645, "longitude": -117.37194}, "transactions": [], "price": "$$", "location": {"address1": "1001 S Coast Hwy", "address2": "", "address3": null, "city": "Oceanside", "zip_code": "92054", "country": "US", "state": "CA", "display_address": ["1001 S Coast Hwy", "Oceanside, CA 92054"]}, "phone": "+17606963884", "display_phone": "(760) 696-3884", "distance": 6662.661043125071}, {"id": "G5xWWnVkxhXiCjhH79U_xQ", "alias": "knockout-pizza-oceanside-oceanside-2", "name": "Knockout Pizza - Oceanside", "image_url": "https://s3-media2.fl.yelpcdn.com/bphoto/rH0KaPKP_01thl8CjK5omQ/o.jpg", "is_closed": false, "url": "https://www.yelp.com/biz/knockout-pizza-oceanside-oceanside-2?adjust_creative=oncXGL2aPIKrtJdnWeFSnA&utm_campaign=yelp_api_v3&utm_medium=api_v3_business_search&utm_source=oncXGL2aPIKrtJdnWeFSnA", "review_count": 192, "categories": [{"alias": "pizza", "title": "Pizza"}, {"alias": "salad", "title": "Salad"}], "rating": 4.0, "coordinates": {"latitude": 33.1949341308909, "longitude": -117.380586038917}, "transactions": ["pickup", "delivery"], "price": "$", "location": {"address1": "401 Mission Ave", "address2": "Ste B120", "address3": "", "city": "Oceanside", "zip_code": "92054", "country": "US", "state": "CA", "display_address": ["401 Mission Ave", "Ste B120", "Oceanside, CA 92054"]}, "phone": "+17607228888", "display_phone": "(760) 722-8888", "distance": 6755.351422850991}, {"id": "3HwghixraHhQaG5GAChmsw", "alias": "bites-pints-taphouse-carlsbad", "name": "Bites + Pints Taphouse", "image_url": "https://s3-media2.fl.yelpcdn.com/bphoto/npuXcrqFlA6N8RsDvTzNlw/o.jpg", "is_closed": false, "url": "https://www.yelp.com/biz/bites-pints-taphouse-carlsbad?adjust_creative=oncXGL2aPIKrtJdnWeFSnA&utm_campaign=yelp_api_v3&utm_medium=api_v3_business_search&utm_source=oncXGL2aPIKrtJdnWeFSnA", "review_count": 23, "categories": [{"alias": "pizza", "title": "Pizza"}, {"alias": "tradamerican", "title": "American (Traditional)"}, {"alias": "salad", "title": "Salad"}], "rating": 3.5, "coordinates": {"latitude": 33.17993, "longitude": -117.32715}, "transactions": ["pickup", "delivery"], "location": {"address1": "2501 El Camino Real", "address2": "Ste 210", "address3": null, "city": "Carlsbad", "zip_code": "92008", "country": "US", "state": "CA", "display_address": ["2501 El Camino Real", "Ste 210", "Carlsbad, CA 92008"]}, "phone": "+17607291904", "display_phone": "(760) 729-1904", "distance": 5370.7588590354635}, {"id": "OitweOChpXLJ_pdwX_4JyQ", "alias": "killer-pizza-from-mars-oceanside-2", "name": "Killer Pizza From Mars", "image_url": "https://s3-media3.fl.yelpcdn.com/bphoto/VZSv8_jCkQCA4unYvpV1Ng/o.jpg", "is_closed": false, "url": "https://www.yelp.com/biz/killer-pizza-from-mars-oceanside-2?adjust_creative=oncXGL2aPIKrtJdnWeFSnA&utm_campaign=yelp_api_v3&utm_medium=api_v3_business_search&utm_source=oncXGL2aPIKrtJdnWeFSnA", "review_count": 332, "categories": [{"alias": "pizza", "title": "Pizza"}], "rating": 4.0, "coordinates": {"latitude": 33.2268608591, "longitude": -117.332498338}, "transactions": [], "price": "$$", "location": {"address1": "3772 Mission Ave", "address2": "Ste 127", "address3": "", "city": "Oceanside", "zip_code": "92058", "country": "US", "state": "CA", "display_address": ["3772 Mission Ave", "Ste 127", "Oceanside, CA 92058"]}, "phone": "+17607226060", "display_phone": "(760) 722-6060", "distance": 1334.121911344815}, {"id": "oDZJaS04OMmRlEsisNRAXg", "alias": "the-privateer-coal-fire-pizza-oceanside", "name": "The Privateer Coal Fire Pizza", "image_url": "https://s3-media2.fl.yelpcdn.com/bphoto/8ei0Nk3mWu3CvUlmbWPUUg/o.jpg", "is_closed": false, "url": "https://www.yelp.com/biz/the-privateer-coal-fire-pizza-oceanside?adjust_creative=oncXGL2aPIKrtJdnWeFSnA&utm_campaign=yelp_api_v3&utm_medium=api_v3_business_search&utm_source=oncXGL2aPIKrtJdnWeFSnA", "review_count": 519, "categories": [{"alias": "pizza", "title": "Pizza"}, {"alias": "italian", "title": "Italian"}, {"alias": "bars", "title": "Bars"}], "rating": 4.0, "coordinates": {"latitude": 33.176624, "longitude": -117.362973}, "transactions": ["pickup", "delivery"], "price": "$$", "location": {"address1": "1706 S Coast Hwy", "address2": "", "address3": "", "city": "Oceanside", "zip_code": "92054", "country": "US", "state": "CA", "display_address": ["1706 S Coast Hwy", "Oceanside, CA 92054"]}, "phone": "+17604532500", "display_phone": "(760) 453-2500", "distance": 6886.0719848096205}, {"id": "tf0EGIrqf0YqdqTyl-F0tA", "alias": "pizzamaniac-vista-5", "name": "Pizzamaniac", "image_url": "https://s3-media1.fl.yelpcdn.com/bphoto/zVzg8bzX3nzhTW2iSBMV8g/o.jpg", "is_closed": false, "url": "https://www.yelp.com/biz/pizzamaniac-vista-5?adjust_creative=oncXGL2aPIKrtJdnWeFSnA&utm_campaign=yelp_api_v3&utm_medium=api_v3_business_search&utm_source=oncXGL2aPIKrtJdnWeFSnA", "review_count": 473, "categories": [{"alias": "pizza", "title": "Pizza"}], "rating": 5.0, "coordinates": {"latitude": 33.2209354, "longitude": -117.2435248}, "transactions": [], "price": "$", "location": {"address1": "1461 N Santa Fe Ave", "address2": null, "address3": "", "city": "Vista", "zip_code": "92084", "country": "US", "state": "CA", "display_address": ["1461 N Santa Fe Ave", "Vista, CA 92084"]}, "phone": "+17609459901", "display_phone": "(760) 945-9901", "distance": 6968.295020278922}, {"id": "ifiFFSqPDMgvZZIMHsPppA", "alias": "breakwater-brewing-company-oceanside", "name": "Breakwater Brewing Company", "image_url": "https://s3-media4.fl.yelpcdn.com/bphoto/imePvG4kmdwM9t9D36fz_Q/o.jpg", "is_closed": false, "url": "https://www.yelp.com/biz/breakwater-brewing-company-oceanside?adjust_creative=oncXGL2aPIKrtJdnWeFSnA&utm_campaign=yelp_api_v3&utm_medium=api_v3_business_search&utm_source=oncXGL2aPIKrtJdnWeFSnA", "review_count": 536, "categories": [{"alias": "breweries", "title": "Breweries"}, {"alias": "pizza", "title": "Pizza"}, {"alias": "sandwiches", "title": "Sandwiches"}], "rating": 4.0, "coordinates": {"latitude": 33.1950701, "longitude": -117.3790501}, "transactions": ["pickup", "delivery"], "price": "$$", "location": {"address1": "101 N Coast Hwy", "address2": "", "address3": "", "city": "Oceanside", "zip_code": "92054", "country": "US", "state": "CA", "display_address": ["101 N Coast Hwy", "Oceanside, CA 92054"]}, "phone": "+17604336064", "display_phone": "(760) 433-6064", "distance": 6629.898712592796}, {"id": "Q9a-6GU_lgw62G289jwcFQ", "alias": "carmines-oceanside-3", "name": "Carmine's", "image_url": "https://s3-media3.fl.yelpcdn.com/bphoto/aZN-EhJ__LOVVSLy_8dnBQ/o.jpg", "is_closed": false, "url": "https://www.yelp.com/biz/carmines-oceanside-3?adjust_creative=oncXGL2aPIKrtJdnWeFSnA&utm_campaign=yelp_api_v3&utm_medium=api_v3_business_search&utm_source=oncXGL2aPIKrtJdnWeFSnA", "review_count": 337, "categories": [{"alias": "pizza", "title": "Pizza"}, {"alias": "italian", "title": "Italian"}, {"alias": "sandwiches", "title": "Sandwiches"}], "rating": 4.0, "coordinates": {"latitude": 33.194374252891, "longitude": -117.37839158417}, "transactions": ["pickup", "delivery"], "price": "$", "location": {"address1": "119 S Coast Hwy", "address2": null, "address3": "", "city": "Oceanside", "zip_code": "92054", "country": "US", "state": "CA", "display_address": ["119 S Coast Hwy", "Oceanside, CA 92054"]}, "phone": "+17609666888", "display_phone": "(760) 966-6888", "distance": 6613.669489571014}, {"id": "IXwx9kkQL7rGUT_bJseXsQ", "alias": "zigzag-pizza-oceanside-2", "name": "ZIGZAG Pizza", "image_url": "https://s3-media2.fl.yelpcdn.com/bphoto/_sSgrYllwuydT6taith4_g/o.jpg", "is_closed": false, "url": "https://www.yelp.com/biz/zigzag-pizza-oceanside-2?adjust_creative=oncXGL2aPIKrtJdnWeFSnA&utm_campaign=yelp_api_v3&utm_medium=api_v3_business_search&utm_source=oncXGL2aPIKrtJdnWeFSnA", "review_count": 349, "categories": [{"alias": "salad", "title": "Salad"}, {"alias": "pizza", "title": "Pizza"}], "rating": 4.0, "coordinates": {"latitude": 33.1950646600199, "longitude": -117.383429507935}, "transactions": [], "price": "$$", "location": {"address1": "333 N Myers St", "address2": "", "address3": "", "city": "Oceanside", "zip_code": "92054", "country": "US", "state": "CA", "display_address": ["333 N Myers St", "Oceanside, CA 92054"]}, "phone": "+17604331555", "display_phone": "(760) 433-1555", "distance": 6976.798602931526}, {"id": "3DfGQiRIaL2AD18eF4JXFA", "alias": "tony-pepperoni-pizzeria-oceanside", "name": "Tony Pepperoni Pizzeria", "image_url": "https://s3-media4.fl.yelpcdn.com/bphoto/8SkML_caQdsYOTYGUgRM4Q/o.jpg", "is_closed": false, "url": "https://www.yelp.com/biz/tony-pepperoni-pizzeria-oceanside?adjust_creative=oncXGL2aPIKrtJdnWeFSnA&utm_campaign=yelp_api_v3&utm_medium=api_v3_business_search&utm_source=oncXGL2aPIKrtJdnWeFSnA", "review_count": 222, "categories": [{"alias": "pizza", "title": "Pizza"}], "rating": 4.0, "coordinates": {"latitude": 33.2407387179985, "longitude": -117.293069506142}, "transactions": [], "price": "$$", "location": {"address1": "805 College Blvd", "address2": "", "address3": "", "city": "Oceanside", "zip_code": "92057", "country": "US", "state": "CA", "display_address": ["805 College Blvd", "Oceanside, CA 92057"]}, "phone": "+17607266400", "display_phone": "(760) 726-6400", "distance": 2853.4112195974863}, {"id": "VYGr0SglLydBUD-X2KL1qg", "alias": "the-privateer-marketplace-and-wine-bar-oceanside-3", "name": "The Privateer Marketplace & Wine Bar", "image_url": "https://s3-media1.fl.yelpcdn.com/bphoto/A_eHdAnYD-0K99gMsBiENA/o.jpg", "is_closed": false, "url": "https://www.yelp.com/biz/the-privateer-marketplace-and-wine-bar-oceanside-3?adjust_creative=oncXGL2aPIKrtJdnWeFSnA&utm_campaign=yelp_api_v3&utm_medium=api_v3_business_search&utm_source=oncXGL2aPIKrtJdnWeFSnA", "review_count": 35, "categories": [{"alias": "wine_bars", "title": "Wine Bars"}, {"alias": "pizza", "title": "Pizza"}, {"alias": "italian", "title": "Italian"}], "rating": 4.0, "coordinates": {"latitude": 33.1766141, "longitude": -117.3631858}, "transactions": [], "price": "$$", "location": {"address1": "1704 S Coast Hwy", "address2": "", "address3": null, "city": "Oceanside", "zip_code": "92054", "country": "US", "state": "CA", "display_address": ["1704 S Coast Hwy", "Oceanside, CA 92054"]}, "phone": "+17604532254", "display_phone": "(760) 453-2254", "distance": 6874.935334063041}, {"id": "B0jMCEjkPoftd1StpeBvwA", "alias": "brooklyn-boyz-pizza-oceanside", "name": "Brooklyn Boyz Pizza", "image_url": "https://s3-media3.fl.yelpcdn.com/bphoto/Me3f685-x8JwAQ-RrgwNhw/o.jpg", "is_closed": false, "url": "https://www.yelp.com/biz/brooklyn-boyz-pizza-oceanside?adjust_creative=oncXGL2aPIKrtJdnWeFSnA&utm_campaign=yelp_api_v3&utm_medium=api_v3_business_search&utm_source=oncXGL2aPIKrtJdnWeFSnA", "review_count": 446, "categories": [{"alias": "pizza", "title": "Pizza"}], "rating": 4.0, "coordinates": {"latitude": 33.182539, "longitude": -117.340745}, "transactions": ["pickup", "delivery"], "price": "$", "location": {"address1": "2183 Vista Way", "address2": "Ste B", "address3": "", "city": "Oceanside", "zip_code": "92054", "country": "US", "state": "CA", "display_address": ["2183 Vista Way", "Ste B", "Oceanside, CA 92054"]}, "phone": "+17607574992", "display_phone": "(760) 757-4992", "distance": 5269.501006316142}, {"id": "EL7USeh31s554-xZzIH32Q", "alias": "upper-crust-pizza-oceanside", "name": "Upper Crust Pizza", "image_url": "https://s3-media2.fl.yelpcdn.com/bphoto/bDpUVBucBIoxbV08_AHrNw/o.jpg", "is_closed": false, "url": "https://www.yelp.com/biz/upper-crust-pizza-oceanside?adjust_creative=oncXGL2aPIKrtJdnWeFSnA&utm_campaign=yelp_api_v3&utm_medium=api_v3_business_search&utm_source=oncXGL2aPIKrtJdnWeFSnA", "review_count": 204, "categories": [{"alias": "pizza", "title": "Pizza"}, {"alias": "italian", "title": "Italian"}, {"alias": "sandwiches", "title": "Sandwiches"}], "rating": 4.0, "coordinates": {"latitude": 33.207398, "longitude": -117.2852966}, "transactions": ["pickup", "delivery"], "price": "$", "location": {"address1": "4196 Oceanside Blvd", "address2": "Ste A", "address3": "", "city": "Oceanside", "zip_code": "92056", "country": "US", "state": "CA", "display_address": ["4196 Oceanside Blvd", "Ste A", "Oceanside, CA 92056"]}, "phone": "+17606309330", "display_phone": "(760) 630-9330", "distance": 3603.9887341595263}, {"id": "ZgwYZCJCxyvREzFHBuNGYQ", "alias": "dominics-italian-restaurant-oceanside-3", "name": "Dominic's Italian Restaurant", "image_url": "https://s3-media2.fl.yelpcdn.com/bphoto/v_N5s-_vxqUF2rZgJztRHg/o.jpg", "is_closed": false, "url": "https://www.yelp.com/biz/dominics-italian-restaurant-oceanside-3?adjust_creative=oncXGL2aPIKrtJdnWeFSnA&utm_campaign=yelp_api_v3&utm_medium=api_v3_business_search&utm_source=oncXGL2aPIKrtJdnWeFSnA", "review_count": 396, "categories": [{"alias": "pizza", "title": "Pizza"}, {"alias": "italian", "title": "Italian"}, {"alias": "sandwiches", "title": "Sandwiches"}], "rating": 3.5, "coordinates": {"latitude": 33.2046738, "longitude": -117.389192}, "transactions": ["pickup", "delivery"], "price": "$$", "location": {"address1": "268 Harbor Dr S", "address2": "", "address3": "", "city": "Oceanside", "zip_code": "92054", "country": "US", "state": "CA", "display_address": ["268 Harbor Dr S", "Oceanside, CA 92054"]}, "phone": "+17607541881", "display_phone": "(760) 754-1881", "distance": 7018.144261157506}, {"id": "aRacnEURw6oTkrijdeUZXA", "alias": "buona-forchetta-encinitas", "name": "Buona Forchetta", "image_url": "https://s3-media3.fl.yelpcdn.com/bphoto/WXve-tSW9FcOXICtSENE9g/o.jpg", "is_closed": false, "url": "https://www.yelp.com/biz/buona-forchetta-encinitas?adjust_creative=oncXGL2aPIKrtJdnWeFSnA&utm_campaign=yelp_api_v3&utm_medium=api_v3_business_search&utm_source=oncXGL2aPIKrtJdnWeFSnA", "review_count": 29, "categories": [{"alias": "pizza", "title": "Pizza"}, {"alias": "italian", "title": "Italian"}, {"alias": "wine_bars", "title": "Wine Bars"}], "rating": 5.0, "coordinates": {"latitude": 33.05359, "longitude": -117.29659}, "transactions": [], "location": {"address1": "250 N Coast Hwy 101", "address2": "", "address3": null, "city": "Encinitas", "zip_code": "92024", "country": "US", "state": "CA", "display_address": ["250 N Coast Hwy 101", "Encinitas, CA 92024"]}, "phone": "+17607048070", "display_phone": "(760) 704-8070", "distance": 19275.190905024425}, {"id": "MM6uxCzBjCTwKzfFYbagrw", "alias": "the-draft-restaurant-and-sports-bar-oceanside", "name": "The Draft Restaurant & Sports Bar", "image_url": "https://s3-media3.fl.yelpcdn.com/bphoto/d4FSDA0x6Ah5EnlC0T7iQA/o.jpg", "is_closed": false, "url": "https://www.yelp.com/biz/the-draft-restaurant-and-sports-bar-oceanside?adjust_creative=oncXGL2aPIKrtJdnWeFSnA&utm_campaign=yelp_api_v3&utm_medium=api_v3_business_search&utm_source=oncXGL2aPIKrtJdnWeFSnA", "review_count": 356, "categories": [{"alias": "chicken_wings", "title": "Chicken Wings"}, {"alias": "pizza", "title": "Pizza"}, {"alias": "sportsbars", "title": "Sports Bars"}], "rating": 3.5, "coordinates": {"latitude": 33.2070946797679, "longitude": -117.283067769815}, "transactions": ["pickup"], "price": "$$", "location": {"address1": "4225 Oceanside Blvd", "address2": "", "address3": "", "city": "Oceanside", "zip_code": "92056", "country": "US", "state": "CA", "display_address": ["4225 Oceanside Blvd", "Oceanside, CA 92056"]}, "phone": "+17606314700", "display_phone": "(760) 631-4700", "distance": 3885.8275259394272}, {"id": "vkqkJbaQmK3HzpsFcG-9Ag", "alias": "two-brothers-from-italy-pizza-oceanside", "name": "Two Brothers From Italy Pizza", "image_url": "https://s3-media1.fl.yelpcdn.com/bphoto/am8Upw3vf643TQzVYwWf2A/o.jpg", "is_closed": false, "url": "https://www.yelp.com/biz/two-brothers-from-italy-pizza-oceanside?adjust_creative=oncXGL2aPIKrtJdnWeFSnA&utm_campaign=yelp_api_v3&utm_medium=api_v3_business_search&utm_source=oncXGL2aPIKrtJdnWeFSnA", "review_count": 206, "categories": [{"alias": "pizza", "title": "Pizza"}, {"alias": "sandwiches", "title": "Sandwiches"}, {"alias": "italian", "title": "Italian"}], "rating": 4.0, "coordinates": {"latitude": 33.217352, "longitude": -117.271243}, "transactions": [], "price": "$$", "location": {"address1": "4760 Oceanside Blvd", "address2": "Ste B1", "address3": "", "city": "Oceanside", "zip_code": "92056", "country": "US", "state": "CA", "display_address": ["4760 Oceanside Blvd", "Ste B1", "Oceanside, CA 92056"]}, "phone": "+17607583638", "display_phone": "(760) 758-3638", "distance": 4472.031163511649}, {"id": "d7BWosg1jl0TSI325fFMAw", "alias": "7-mile-kitchen-carlsbad", "name": "7 Mile Kitchen", "image_url": "https://s3-media2.fl.yelpcdn.com/bphoto/-MrjKPdeIX99iMbyxBIVPw/o.jpg", "is_closed": false, "url": "https://www.yelp.com/biz/7-mile-kitchen-carlsbad?adjust_creative=oncXGL2aPIKrtJdnWeFSnA&utm_campaign=yelp_api_v3&utm_medium=api_v3_business_search&utm_source=oncXGL2aPIKrtJdnWeFSnA", "review_count": 85, "categories": [{"alias": "newamerican", "title": "American (New)"}, {"alias": "pizza", "title": "Pizza"}, {"alias": "burgers", "title": "Burgers"}], "rating": 3.5, "coordinates": {"latitude": 33.1327473, "longitude": -117.3118966}, "transactions": [], "price": "$$", "location": {"address1": "5420 Grand Pacific Dr", "address2": null, "address3": "", "city": "Carlsbad", "zip_code": "92008", "country": "US", "state": "CA", "display_address": ["5420 Grand Pacific Dr", "Carlsbad, CA 92008"]}, "phone": "+17608272514", "display_phone": "(760) 827-2514", "distance": 10386.799929205781}, {"id": "8rhcyGEg8AbUuxNKb5cL6Q", "alias": "venetos-oceanside", "name": "Venetos", "image_url": "https://s3-media3.fl.yelpcdn.com/bphoto/EEQ9ZZ4HWW5b6QHJFttNKw/o.jpg", "is_closed": false, "url": "https://www.yelp.com/biz/venetos-oceanside?adjust_creative=oncXGL2aPIKrtJdnWeFSnA&utm_campaign=yelp_api_v3&utm_medium=api_v3_business_search&utm_source=oncXGL2aPIKrtJdnWeFSnA", "review_count": 286, "categories": [{"alias": "pizza", "title": "Pizza"}, {"alias": "italian", "title": "Italian"}, {"alias": "salad", "title": "Salad"}], "rating": 3.5, "coordinates": {"latitude": 33.1996032, "longitude": -117.3824595}, "transactions": ["pickup"], "price": "$$", "location": {"address1": "608 N Coast Hwy", "address2": "", "address3": "", "city": "Oceanside", "zip_code": "92054", "country": "US", "state": "CA", "display_address": ["608 N Coast Hwy", "Oceanside, CA 92054"]}, "phone": "+17607221228", "display_phone": "(760) 722-1228", "distance": 6657.987347147839}, {"id": "fvVYXZKYHfgpJ0K98dJ4pA", "alias": "mountain-mikes-pizza-oceanside", "name": "Mountain Mike's Pizza", "image_url": "https://s3-media4.fl.yelpcdn.com/bphoto/tT4aF_R1VyRs_0wAXf6q5w/o.jpg", "is_closed": false, "url": "https://www.yelp.com/biz/mountain-mikes-pizza-oceanside?adjust_creative=oncXGL2aPIKrtJdnWeFSnA&utm_campaign=yelp_api_v3&utm_medium=api_v3_business_search&utm_source=oncXGL2aPIKrtJdnWeFSnA", "review_count": 84, "categories": [{"alias": "pizza", "title": "Pizza"}], "rating": 3.5, "coordinates": {"latitude": 33.2476844, "longitude": -117.2923396}, "transactions": ["pickup", "delivery"], "price": "$$", "location": {"address1": "455 College Blvd", "address2": "", "address3": null, "city": "Oceanside", "zip_code": "92057", "country": "US", "state": "CA", "display_address": ["455 College Blvd", "Oceanside, CA 92057"]}, "phone": "+17602953121", "display_phone": "(760) 295-3121", "distance": 3180.935473910865}, {"id": "cto_W4jjMqI6dU7G7JaKTA", "alias": "pizza-port-carlsbad-3", "name": "Pizza Port", "image_url": "https://s3-media2.fl.yelpcdn.com/bphoto/DT_E8CKJE-BlqKzXfiaDbA/o.jpg", "is_closed": false, "url": "https://www.yelp.com/biz/pizza-port-carlsbad-3?adjust_creative=oncXGL2aPIKrtJdnWeFSnA&utm_campaign=yelp_api_v3&utm_medium=api_v3_business_search&utm_source=oncXGL2aPIKrtJdnWeFSnA", "review_count": 1854, "categories": [{"alias": "pizza", "title": "Pizza"}, {"alias": "breweries", "title": "Breweries"}, {"alias": "beerbar", "title": "Beer Bar"}], "rating": 3.5, "coordinates": {"latitude": 33.1598323, "longitude": -117.3478227}, "transactions": ["pickup"], "price": "$$", "location": {"address1": "571 Carlsbad Village Dr", "address2": "", "address3": "", "city": "Carlsbad", "zip_code": "92008", "country": "US", "state": "CA", "display_address": ["571 Carlsbad Village Dr", "Carlsbad, CA 92008"]}, "phone": "+17607207007", "display_phone": "(760) 720-7007", "distance": 7847.354726525798}, {"id": "EUWF4__8fj7VUWq9c19OoA", "alias": "pizza-on-tap-vista", "name": "Pizza On Tap", "image_url": "https://s3-media4.fl.yelpcdn.com/bphoto/ZUeijKmujSPFlluSTFwmMQ/o.jpg", "is_closed": false, "url": "https://www.yelp.com/biz/pizza-on-tap-vista?adjust_creative=oncXGL2aPIKrtJdnWeFSnA&utm_campaign=yelp_api_v3&utm_medium=api_v3_business_search&utm_source=oncXGL2aPIKrtJdnWeFSnA", "review_count": 216, "categories": [{"alias": "pizza", "title": "Pizza"}, {"alias": "salad", "title": "Salad"}, {"alias": "sportsbars", "title": "Sports Bars"}], "rating": 4.5, "coordinates": {"latitude": 33.1887288, "longitude": -117.2802999}, "transactions": ["pickup", "delivery"], "price": "$", "location": {"address1": "1825 W Vista Way", "address2": "", "address3": "", "city": "Vista", "zip_code": "92083", "country": "US", "state": "CA", "display_address": ["1825 W Vista Way", "Vista, CA 92083"]}, "phone": "+17606304105", "display_phone": "(760) 630-4105", "distance": 5357.527182748288}, {"id": "eTiQGScV5TbUfFeH4etwMQ", "alias": "blaze-fast-fired-pizza-carlsbad", "name": "Blaze Fast-Fire'd Pizza", "image_url": "https://s3-media4.fl.yelpcdn.com/bphoto/RdiWPOGfcK5C4bmnuL0MvA/o.jpg", "is_closed": false, "url": "https://www.yelp.com/biz/blaze-fast-fired-pizza-carlsbad?adjust_creative=oncXGL2aPIKrtJdnWeFSnA&utm_campaign=yelp_api_v3&utm_medium=api_v3_business_search&utm_source=oncXGL2aPIKrtJdnWeFSnA", "review_count": 686, "categories": [{"alias": "pizza", "title": "Pizza"}, {"alias": "salad", "title": "Salad"}, {"alias": "hotdogs", "title": "Fast Food"}], "rating": 4.5, "coordinates": {"latitude": 33.1250977336068, "longitude": -117.320182059245}, "transactions": [], "price": "$", "location": {"address1": "5620 Paseo Del Norte", "address2": "", "address3": "", "city": "Carlsbad", "zip_code": "92008", "country": "US", "state": "CA", "display_address": ["5620 Paseo Del Norte", "Carlsbad, CA 92008"]}, "phone": "+17608945029", "display_phone": "(760) 894-5029", "distance": 11222.386521930675}, {"id": "m9J_XexyX9FLbE5dRpFSaQ", "alias": "fairways-oceanside", "name": "Fairway's", "image_url": "https://s3-media3.fl.yelpcdn.com/bphoto/E8NXmn4VbKXob0g0PZ-aaw/o.jpg", "is_closed": false, "url": "https://www.yelp.com/biz/fairways-oceanside?adjust_creative=oncXGL2aPIKrtJdnWeFSnA&utm_campaign=yelp_api_v3&utm_medium=api_v3_business_search&utm_source=oncXGL2aPIKrtJdnWeFSnA", "review_count": 1, "categories": [{"alias": "pizza", "title": "Pizza"}], "rating": 5.0, "coordinates": {"latitude": 33.27459, "longitude": -117.28745}, "transactions": [], "location": {"address1": "5201-A Village Dr", "address2": "", "address3": null, "city": "Oceanside", "zip_code": "92057", "country": "US", "state": "CA", "display_address": ["5201-A Village Dr", "Oceanside, CA 92057"]}, "phone": "+17609678400", "display_phone": "(760) 967-8400", "distance": 6011.653299627225}, {"id": "tUMvfEBvvXjOxiQC2XCsYw", "alias": "urbn-vista", "name": "URBN", "image_url": "https://s3-media3.fl.yelpcdn.com/bphoto/GdWL7mWTKOYPLYkIgYVdDQ/o.jpg", "is_closed": false, "url": "https://www.yelp.com/biz/urbn-vista?adjust_creative=oncXGL2aPIKrtJdnWeFSnA&utm_campaign=yelp_api_v3&utm_medium=api_v3_business_search&utm_source=oncXGL2aPIKrtJdnWeFSnA", "review_count": 791, "categories": [{"alias": "pizza", "title": "Pizza"}], "rating": 4.0, "coordinates": {"latitude": 33.202535, "longitude": -117.242428}, "transactions": ["pickup", "delivery"], "price": "$$", "location": {"address1": "203 Main St", "address2": "", "address3": "", "city": "Vista", "zip_code": "92084", "country": "US", "state": "CA", "display_address": ["203 Main St", "Vista, CA 92084"]}, "phone": "+17607248840", "display_phone": "(760) 724-8840", "distance": 7515.994668715977}, {"id": "Pk1RB_ymVaY1ZK4XcskvYQ", "alias": "bjs-restaurant-and-brewhouse-carlsbad-2", "name": "BJ's Restaurant & Brewhouse", "image_url": "https://s3-media2.fl.yelpcdn.com/bphoto/bpLbi_sIatXNr6NLy87DLg/o.jpg", "is_closed": false, "url": "https://www.yelp.com/biz/bjs-restaurant-and-brewhouse-carlsbad-2?adjust_creative=oncXGL2aPIKrtJdnWeFSnA&utm_campaign=yelp_api_v3&utm_medium=api_v3_business_search&utm_source=oncXGL2aPIKrtJdnWeFSnA", "review_count": 847, "categories": [{"alias": "breweries", "title": "Breweries"}, {"alias": "newamerican", "title": "American (New)"}, {"alias": "pizza", "title": "Pizza"}], "rating": 3.0, "coordinates": {"latitude": 33.127135, "longitude": -117.324024}, "transactions": ["delivery"], "price": "$$", "location": {"address1": "5613 Paseo Del Norte", "address2": "", "address3": "", "city": "Carlsbad", "zip_code": "92008", "country": "US", "state": "CA", "display_address": ["5613 Paseo Del Norte", "Carlsbad, CA 92008"]}, "phone": "+17605794440", "display_phone": "(760) 579-4440", "distance": 11007.71599760575}, {"id": "lRM1MjVvRH5FJOrOOf45vQ", "alias": "romas-pizza-and-grill-oceanside", "name": "Roma's Pizza and Grill", "image_url": "https://s3-media1.fl.yelpcdn.com/bphoto/bkyFpUAvbO3RG8j3NyuxbA/o.jpg", "is_closed": false, "url": "https://www.yelp.com/biz/romas-pizza-and-grill-oceanside?adjust_creative=oncXGL2aPIKrtJdnWeFSnA&utm_campaign=yelp_api_v3&utm_medium=api_v3_business_search&utm_source=oncXGL2aPIKrtJdnWeFSnA", "review_count": 85, "categories": [{"alias": "pizza", "title": "Pizza"}], "rating": 3.5, "coordinates": {"latitude": 33.25464, "longitude": -117.30062}, "transactions": ["pickup", "delivery"], "price": "$$", "location": {"address1": "617 N Redondo Dr", "address2": "Ste B", "address3": "", "city": "Oceanside", "zip_code": "92057", "country": "US", "state": "CA", "display_address": ["617 N Redondo Dr", "Ste B", "Oceanside, CA 92057"]}, "phone": "+17607572003", "display_phone": "(760) 757-2003", "distance": 3566.6849653191325}, {"id": "dYOccn1az0n0blBWuory1Q", "alias": "roosevelt-pizzeria-carlsbad-3", "name": "Roosevelt Pizzeria", "image_url": "https://s3-media1.fl.yelpcdn.com/bphoto/hntv0gM16K84bjR0MprHXA/o.jpg", "is_closed": false, "url": "https://www.yelp.com/biz/roosevelt-pizzeria-carlsbad-3?adjust_creative=oncXGL2aPIKrtJdnWeFSnA&utm_campaign=yelp_api_v3&utm_medium=api_v3_business_search&utm_source=oncXGL2aPIKrtJdnWeFSnA", "review_count": 179, "categories": [{"alias": "pizza", "title": "Pizza"}, {"alias": "italian", "title": "Italian"}], "rating": 4.5, "coordinates": {"latitude": 33.15929, "longitude": -117.34738}, "transactions": [], "price": "$$", "location": {"address1": "3067 Roosevelt St", "address2": "", "address3": "", "city": "Carlsbad", "zip_code": "92008", "country": "US", "state": "CA", "display_address": ["3067 Roosevelt St", "Carlsbad, CA 92008"]}, "phone": "+17607309105", "display_phone": "(760) 730-9105", "distance": 7889.7964887535545}, {"id": "tLNKsTrU0T8UyilCLaP5-g", "alias": "cusimanos-pizzeria-oceanside", "name": "Cusimano's Pizzeria", "image_url": "https://s3-media2.fl.yelpcdn.com/bphoto/D7ilQsCQoyhId9FiXeYp5g/o.jpg", "is_closed": false, "url": "https://www.yelp.com/biz/cusimanos-pizzeria-oceanside?adjust_creative=oncXGL2aPIKrtJdnWeFSnA&utm_campaign=yelp_api_v3&utm_medium=api_v3_business_search&utm_source=oncXGL2aPIKrtJdnWeFSnA", "review_count": 68, "categories": [{"alias": "pizza", "title": "Pizza"}, {"alias": "italian", "title": "Italian"}], "rating": 4.0, "coordinates": {"latitude": 33.181416, "longitude": -117.293098}, "transactions": [], "price": "$", "location": {"address1": "3809 Plaza Dr", "address2": "", "address3": "", "city": "Oceanside", "zip_code": "92056", "country": "US", "state": "CA", "display_address": ["3809 Plaza Dr", "Oceanside, CA 92056"]}, "phone": "+17604141200", "display_phone": "(760) 414-1200", "distance": 5485.04898102267}, {"id": "iaV-0DI3Mky4WO0uhydohQ", "alias": "grand-slam-pizza-vista", "name": "Grand Slam Pizza", "image_url": "https://s3-media2.fl.yelpcdn.com/bphoto/4H1vJ2M3_tXyylSJFK1bWQ/o.jpg", "is_closed": false, "url": "https://www.yelp.com/biz/grand-slam-pizza-vista?adjust_creative=oncXGL2aPIKrtJdnWeFSnA&utm_campaign=yelp_api_v3&utm_medium=api_v3_business_search&utm_source=oncXGL2aPIKrtJdnWeFSnA", "review_count": 81, "categories": [{"alias": "pizza", "title": "Pizza"}, {"alias": "sportsbars", "title": "Sports Bars"}, {"alias": "italian", "title": "Italian"}], "rating": 5.0, "coordinates": {"latitude": 33.15787, "longitude": -117.24943}, "transactions": ["pickup", "delivery"], "location": {"address1": "1910 Shadowridge Dr", "address2": "Ste 101", "address3": null, "city": "Vista", "zip_code": "92081", "country": "US", "state": "CA", "display_address": ["1910 Shadowridge Dr", "Ste 101", "Vista, CA 92081"]}, "phone": "+17605991199", "display_phone": "(760) 599-1199", "distance": 9940.17410247742}, {"id": "d1WKFhg5l_LCgnMHs140hQ", "alias": "pieology-pizzeria-carlsbad", "name": "Pieology Pizzeria", "image_url": "https://s3-media2.fl.yelpcdn.com/bphoto/EqC44ep-lYF3vLMwIQNM3Q/o.jpg", "is_closed": false, "url": "https://www.yelp.com/biz/pieology-pizzeria-carlsbad?adjust_creative=oncXGL2aPIKrtJdnWeFSnA&utm_campaign=yelp_api_v3&utm_medium=api_v3_business_search&utm_source=oncXGL2aPIKrtJdnWeFSnA", "review_count": 200, "categories": [{"alias": "pizza", "title": "Pizza"}], "rating": 4.0, "coordinates": {"latitude": 33.1272292, "longitude": -117.253689}, "transactions": [], "price": "$", "location": {"address1": "2647 Gateway Rd", "address2": "Ste 101", "address3": null, "city": "Carlsbad", "zip_code": "92009", "country": "US", "state": "CA", "display_address": ["2647 Gateway Rd", "Ste 101", "Carlsbad, CA 92009"]}, "phone": "+17609308988", "display_phone": "(760) 930-8988", "distance": 12572.868188148026}, {"id": "E8JIy0Gu8RCQfzuwABw4Nw", "alias": "giannis-pizza-oceanside", "name": "Gianni's Pizza", "image_url": "https://s3-media4.fl.yelpcdn.com/bphoto/UOrAmXVEXpgvtYqLpfc84Q/o.jpg", "is_closed": false, "url": "https://www.yelp.com/biz/giannis-pizza-oceanside?adjust_creative=oncXGL2aPIKrtJdnWeFSnA&utm_campaign=yelp_api_v3&utm_medium=api_v3_business_search&utm_source=oncXGL2aPIKrtJdnWeFSnA", "review_count": 197, "categories": [{"alias": "pizza", "title": "Pizza"}], "rating": 3.0, "coordinates": {"latitude": 33.18448, "longitude": -117.29369}, "transactions": ["pickup", "delivery"], "price": "$", "location": {"address1": "3910 Vista Way", "address2": "Ste 108", "address3": "", "city": "Oceanside", "zip_code": "92056", "country": "US", "state": "CA", "display_address": ["3910 Vista Way", "Ste 108", "Oceanside, CA 92056"]}, "phone": "+17607242670", "display_phone": "(760) 724-2670", "distance": 5154.515307120133}, {"id": "rhVaTqNvOWjZfXlM_siHRg", "alias": "sublime-alehouse-san-marcos", "name": "Sublime AleHouse", "image_url": "https://s3-media1.fl.yelpcdn.com/bphoto/dzJzsNB_Fp2wcoKr-rIazw/o.jpg", "is_closed": false, "url": "https://www.yelp.com/biz/sublime-alehouse-san-marcos?adjust_creative=oncXGL2aPIKrtJdnWeFSnA&utm_campaign=yelp_api_v3&utm_medium=api_v3_business_search&utm_source=oncXGL2aPIKrtJdnWeFSnA", "review_count": 1087, "categories": [{"alias": "pizza", "title": "Pizza"}, {"alias": "burgers", "title": "Burgers"}, {"alias": "bars", "title": "Bars"}], "rating": 4.0, "coordinates": {"latitude": 33.1343623, "longitude": -117.1901704}, "transactions": ["delivery", "pickup"], "price": "$$", "location": {"address1": "1020 W San Marcos Blvd", "address2": "", "address3": "", "city": "San Marcos", "zip_code": "92078", "country": "US", "state": "CA", "display_address": ["1020 W San Marcos Blvd", "San Marcos, CA 92078"]}, "phone": "+17605109220", "display_phone": "(760) 510-9220", "distance": 15678.006275285992}, {"id": "j3-YgUDJwe8NkuQQ4mAj3Q", "alias": "little-caesars-pizza-oceanside-2", "name": "Little Caesars Pizza", "image_url": "https://s3-media1.fl.yelpcdn.com/bphoto/3mRCxuE23RClgGASDAVa2w/o.jpg", "is_closed": false, "url": "https://www.yelp.com/biz/little-caesars-pizza-oceanside-2?adjust_creative=oncXGL2aPIKrtJdnWeFSnA&utm_campaign=yelp_api_v3&utm_medium=api_v3_business_search&utm_source=oncXGL2aPIKrtJdnWeFSnA", "review_count": 29, "categories": [{"alias": "pizza", "title": "Pizza"}], "rating": 3.0, "coordinates": {"latitude": 33.2507193681155, "longitude": -117.300803511469}, "transactions": [], "price": "$", "location": {"address1": "4904 N River Rd", "address2": "", "address3": "", "city": "Oceanside", "zip_code": "92057", "country": "US", "state": "CA", "display_address": ["4904 N River Rd", "Oceanside, CA 92057"]}, "phone": "+17604393172", "display_phone": "(760) 439-3172", "distance": 3188.185859246466}, {"id": "BV4kI9JTPK48PrRJTqpDGw", "alias": "round-table-pizza-oceanside-2", "name": "Round Table Pizza", "image_url": "https://s3-media4.fl.yelpcdn.com/bphoto/CZu2Kr6bK62my_kh5RBV0A/o.jpg", "is_closed": false, "url": "https://www.yelp.com/biz/round-table-pizza-oceanside-2?adjust_creative=oncXGL2aPIKrtJdnWeFSnA&utm_campaign=yelp_api_v3&utm_medium=api_v3_business_search&utm_source=oncXGL2aPIKrtJdnWeFSnA", "review_count": 137, "categories": [{"alias": "pizza", "title": "Pizza"}, {"alias": "buffets", "title": "Buffets"}], "rating": 3.0, "coordinates": {"latitude": 33.17837, "longitude": -117.29708}, "transactions": [], "price": "$$", "location": {"address1": "3440 Marron Road", "address2": "", "address3": "", "city": "Oceanside", "zip_code": "92054", "country": "US", "state": "CA", "display_address": ["3440 Marron Road", "Oceanside, CA 92054"]}, "phone": "+17604345977", "display_phone": "(760) 434-5977", "distance": 5658.092026986421}, {"id": "hvvMzqP7t4DxJ2QYi7HdUQ", "alias": "dominos-pizza-oceanside", "name": "Domino's Pizza", "image_url": "https://s3-media2.fl.yelpcdn.com/bphoto/laWAOk7Amn40GTb0nU_wiw/o.jpg", "is_closed": false, "url": "https://www.yelp.com/biz/dominos-pizza-oceanside?adjust_creative=oncXGL2aPIKrtJdnWeFSnA&utm_campaign=yelp_api_v3&utm_medium=api_v3_business_search&utm_source=oncXGL2aPIKrtJdnWeFSnA", "review_count": 94, "categories": [{"alias": "pizza", "title": "Pizza"}], "rating": 2.5, "coordinates": {"latitude": 33.2446674, "longitude": -117.3224113}, "transactions": [], "price": "$", "location": {"address1": "650 Douglas Dr", "address2": "Ste 104", "address3": "", "city": "Oceanside", "zip_code": "92058", "country": "US", "state": "CA", "display_address": ["650 Douglas Dr", "Ste 104", "Oceanside, CA 92058"]}, "phone": "+17604390500", "display_phone": "(760) 439-0500", "distance": 2099.27178234494}, {"id": "5OTTzfZdp5ld_L5xCN3RAQ", "alias": "cucina-amore-san-marcos-5", "name": "Cucina Amore", "image_url": "https://s3-media2.fl.yelpcdn.com/bphoto/abc7nXpH2KyWcTIO6lnvmg/o.jpg", "is_closed": false, "url": "https://www.yelp.com/biz/cucina-amore-san-marcos-5?adjust_creative=oncXGL2aPIKrtJdnWeFSnA&utm_campaign=yelp_api_v3&utm_medium=api_v3_business_search&utm_source=oncXGL2aPIKrtJdnWeFSnA", "review_count": 245, "categories": [{"alias": "italian", "title": "Italian"}, {"alias": "gelato", "title": "Gelato"}, {"alias": "pizza", "title": "Pizza"}], "rating": 4.0, "coordinates": {"latitude": 33.1318662450634, "longitude": -117.205854914526}, "transactions": ["pickup", "delivery"], "price": "$$", "location": {"address1": "679 S Rancho Santa Fe Rd", "address2": "", "address3": "", "city": "San Marcos", "zip_code": "92078", "country": "US", "state": "CA", "display_address": ["679 S Rancho Santa Fe Rd", "San Marcos, CA 92078"]}, "phone": "+17603046939", "display_phone": "(760) 304-6939", "distance": 14794.780380378523}, {"id": "ePu_rvcv32Q-l-qVaq8P7w", "alias": "that-pizza-place-carlsbad", "name": "That Pizza Place", "image_url": "https://s3-media3.fl.yelpcdn.com/bphoto/hl1QriCBBF5nczNqz-IwSw/o.jpg", "is_closed": false, "url": "https://www.yelp.com/biz/that-pizza-place-carlsbad?adjust_creative=oncXGL2aPIKrtJdnWeFSnA&utm_campaign=yelp_api_v3&utm_medium=api_v3_business_search&utm_source=oncXGL2aPIKrtJdnWeFSnA", "review_count": 244, "categories": [{"alias": "pizza", "title": "Pizza"}], "rating": 3.5, "coordinates": {"latitude": 33.1759356261055, "longitude": -117.324742063477}, "transactions": [], "price": "$$", "location": {"address1": "2622 El Camino Real", "address2": "Ste B", "address3": "", "city": "Carlsbad", "zip_code": "92008", "country": "US", "state": "CA", "display_address": ["2622 El Camino Real", "Ste B", "Carlsbad, CA 92008"]}, "phone": "+17604343171", "display_phone": "(760) 434-3171", "distance": 5601.206054609311}, {"id": "8OmG2wmVObBolG-jfBF5dg", "alias": "sammys-woodfired-pizza-and-grill-san-marcos", "name": "Sammy's Woodfired Pizza and Grill", "image_url": "https://s3-media3.fl.yelpcdn.com/bphoto/sn_GH0RjjrYMVHU7-kDlHA/o.jpg", "is_closed": false, "url": "https://www.yelp.com/biz/sammys-woodfired-pizza-and-grill-san-marcos?adjust_creative=oncXGL2aPIKrtJdnWeFSnA&utm_campaign=yelp_api_v3&utm_medium=api_v3_business_search&utm_source=oncXGL2aPIKrtJdnWeFSnA", "review_count": 376, "categories": [{"alias": "pizza", "title": "Pizza"}, {"alias": "gluten_free", "title": "Gluten-Free"}, {"alias": "salad", "title": "Salad"}], "rating": 4.0, "coordinates": {"latitude": 33.1423231145245, "longitude": -117.191854865265}, "transactions": [], "price": "$$", "location": {"address1": "121 S Las Posas Rd", "address2": "Ste 104", "address3": "", "city": "San Marcos", "zip_code": "92078", "country": "US", "state": "CA", "display_address": ["121 S Las Posas Rd", "Ste 104", "San Marcos, CA 92078"]}, "phone": "+17605914222", "display_phone": "(760) 591-4222", "distance": 14993.945605219358}, {"id": "t93BSZqSbW7e6MpPXVhz2g", "alias": "primo-pizza-and-pasta-carlsbad-2", "name": "Primo Pizza & Pasta", "image_url": "https://s3-media2.fl.yelpcdn.com/bphoto/E7_2a5JKHkvutKdrriCcew/o.jpg", "is_closed": false, "url": "https://www.yelp.com/biz/primo-pizza-and-pasta-carlsbad-2?adjust_creative=oncXGL2aPIKrtJdnWeFSnA&utm_campaign=yelp_api_v3&utm_medium=api_v3_business_search&utm_source=oncXGL2aPIKrtJdnWeFSnA", "review_count": 316, "categories": [{"alias": "pizza", "title": "Pizza"}, {"alias": "italian", "title": "Italian"}, {"alias": "salad", "title": "Salad"}], "rating": 4.0, "coordinates": {"latitude": 33.10132, "longitude": -117.31131}, "transactions": ["pickup", "delivery"], "price": "$", "location": {"address1": "7110 Avenida Encinas", "address2": "Ste 103", "address3": "", "city": "Carlsbad", "zip_code": "92011", "country": "US", "state": "CA", "display_address": ["7110 Avenida Encinas", "Ste 103", "Carlsbad, CA 92011"]}, "phone": "+17604317155", "display_phone": "(760) 431-7155", "distance": 13836.506291302441}, {"id": "phEUoIcACT5PWHDbL27t2w", "alias": "pizza-hut-oceanside-3", "name": "Pizza Hut", "image_url": "https://s3-media1.fl.yelpcdn.com/bphoto/GSktTdUfxFjlU6_GPrcYsw/o.jpg", "is_closed": false, "url": "https://www.yelp.com/biz/pizza-hut-oceanside-3?adjust_creative=oncXGL2aPIKrtJdnWeFSnA&utm_campaign=yelp_api_v3&utm_medium=api_v3_business_search&utm_source=oncXGL2aPIKrtJdnWeFSnA", "review_count": 34, "categories": [{"alias": "pizza", "title": "Pizza"}, {"alias": "italian", "title": "Italian"}, {"alias": "chicken_wings", "title": "Chicken Wings"}], "rating": 2.5, "coordinates": {"latitude": 33.2555999755859, "longitude": -117.300163269043}, "transactions": [], "price": "$", "location": {"address1": "610 North Redondo Dr", "address2": "", "address3": "", "city": "Oceanside", "zip_code": "92057", "country": "US", "state": "CA", "display_address": ["610 North Redondo Dr", "Oceanside, CA 92057"]}, "phone": "+17604334433", "display_phone": "(760) 433-4433", "distance": 3681.4054189847693}, {"id": "Zs1a24vEHlu4NidTRCePKg", "alias": "oggis-sports-i-brewhouse-i-pizza-vista", "name": "Oggi's Sports I Brewhouse I Pizza", "image_url": "https://s3-media2.fl.yelpcdn.com/bphoto/VNV-6zVt6gO80C3NIZ8C4w/o.jpg", "is_closed": false, "url": "https://www.yelp.com/biz/oggis-sports-i-brewhouse-i-pizza-vista?adjust_creative=oncXGL2aPIKrtJdnWeFSnA&utm_campaign=yelp_api_v3&utm_medium=api_v3_business_search&utm_source=oncXGL2aPIKrtJdnWeFSnA", "review_count": 237, "categories": [{"alias": "breweries", "title": "Breweries"}, {"alias": "pizza", "title": "Pizza"}, {"alias": "sportsbars", "title": "Sports Bars"}], "rating": 3.5, "coordinates": {"latitude": 33.1892029, "longitude": -117.2541686}, "transactions": ["pickup", "delivery"], "price": "$$", "location": {"address1": "425 S. Melrose Drive", "address2": "", "address3": "", "city": "Vista", "zip_code": "92084", "country": "US", "state": "CA", "display_address": ["425 S. Melrose Drive", "Vista, CA 92084"]}, "phone": "+17602953500", "display_phone": "(760) 295-3500", "distance": 7226.971455543472}, {"id": "1UIPR4jayQUESdzOMMmi5Q", "alias": "papa-johns-pizza-oceanside", "name": "Papa John's Pizza", "image_url": "https://s3-media3.fl.yelpcdn.com/bphoto/HwtdJWM_70sXn_E3Xwrt2w/o.jpg", "is_closed": false, "url": "https://www.yelp.com/biz/papa-johns-pizza-oceanside?adjust_creative=oncXGL2aPIKrtJdnWeFSnA&utm_campaign=yelp_api_v3&utm_medium=api_v3_business_search&utm_source=oncXGL2aPIKrtJdnWeFSnA", "review_count": 45, "categories": [{"alias": "pizza", "title": "Pizza"}], "rating": 2.5, "coordinates": {"latitude": 33.207439, "longitude": -117.2833753}, "transactions": ["pickup", "delivery"], "price": "$$", "location": {"address1": "4225 Oceanside Blvd", "address2": "", "address3": "", "city": "Oceanside", "zip_code": "92056", "country": "US", "state": "CA", "display_address": ["4225 Oceanside Blvd", "Oceanside, CA 92056"]}, "phone": "+17608062266", "display_phone": "(760) 806-2266", "distance": 3873.750111577762}, {"id": "rpEjdPH4VsmKkms8mOgfGQ", "alias": "pizza-nova-san-marcos", "name": "Pizza Nova", "image_url": "https://s3-media4.fl.yelpcdn.com/bphoto/6smxMR4tcQdbrky_bQcLZw/o.jpg", "is_closed": false, "url": "https://www.yelp.com/biz/pizza-nova-san-marcos?adjust_creative=oncXGL2aPIKrtJdnWeFSnA&utm_campaign=yelp_api_v3&utm_medium=api_v3_business_search&utm_source=oncXGL2aPIKrtJdnWeFSnA", "review_count": 361, "categories": [{"alias": "italian", "title": "Italian"}, {"alias": "pizza", "title": "Pizza"}], "rating": 4.0, "coordinates": {"latitude": 33.1403236674437, "longitude": -117.162771789562}, "transactions": [], "price": "$$", "location": {"address1": "141 N Twin Oaks Valley Rd", "address2": "", "address3": "", "city": "San Marcos", "zip_code": "92069", "country": "US", "state": "CA", "display_address": ["141 N Twin Oaks Valley Rd", "San Marcos, CA 92069"]}, "phone": "+17607368300", "display_phone": "(760) 736-8300", "distance": 17319.80543083318}], "total": 139, "region": {"center": {"longitude": -117.31819152832031, "latitude": 33.226009439623446}}}