{"businesses": [{"id": "7g8CKU-UqEJ4bnIH2G5HCQ", "alias": "cafe-sevilla-san-diego", "name": "Cafe Sevilla", "image_url": "https://s3-media2.fl.yelpcdn.com/bphoto/NRswkgB-Ql7hXHCDBPejHw/o.jpg", "is_closed": false, "url": "https://www.yelp.com/biz/cafe-sevilla-san-diego?adjust_creative=oncXGL2aPIKrtJdnWeFSnA&utm_campaign=yelp_api_v3&utm_medium=api_v3_business_search&utm_source=oncXGL2aPIKrtJdnWeFSnA", "review_count": 2682, "categories": [{"alias": "spanish", "title": "Spanish"}, {"alias": "latin", "title": "Latin American"}, {"alias": "tapasmallplates", "title": "Tapas/Small Plates"}], "rating": 4.0, "coordinates": {"latitude": 32.708977, "longitude": -117.159964}, "transactions": ["pickup", "delivery", "restaurant_reservation"], "price": "$$", "location": {"address1": "353 5th Ave", "address2": "", "address3": "", "city": "San Diego", "zip_code": "92101", "country": "US", "state": "CA", "display_address": ["353 5th Ave", "San Diego, CA 92101"]}, "phone": "+16192335979", "display_phone": "(619) 233-5979", "distance": 59356.02528317221}, {"id": "PWdxcU5rjBIunreW8NKU2Q", "alias": "costa-brava-san-diego", "name": "Costa Brava", "image_url": "https://s3-media2.fl.yelpcdn.com/bphoto/6VXw6QIi-SVn4p4kEubr7A/o.jpg", "is_closed": false, "url": "https://www.yelp.com/biz/costa-brava-san-diego?adjust_creative=oncXGL2aPIKrtJdnWeFSnA&utm_campaign=yelp_api_v3&utm_medium=api_v3_business_search&utm_source=oncXGL2aPIKrtJdnWeFSnA", "review_count": 1476, "categories": [{"alias": "tapas", "title": "Tapas Bars"}, {"alias": "spanish", "title": "Spanish"}, {"alias": "basque", "title": "Basque"}], "rating": 4.5, "coordinates": {"latitude": 32.79978, "longitude": -117.23957}, "transactions": ["delivery", "restaurant_reservation"], "price": "$$", "location": {"address1": "1653 Garnet Ave", "address2": "", "address3": "", "city": "San Diego", "zip_code": "92109", "country": "US", "state": "CA", "display_address": ["1653 Garnet Ave", "San Diego, CA 92109"]}, "phone": "+18582731218", "display_phone": "(858) 273-1218", "distance": 47945.70196049514}, {"id": "1jxj6ooRURCfUTai1ccasg", "alias": "pueblo-costa-mesa-2", "name": "Pueblo", "image_url": "https://s3-media1.fl.yelpcdn.com/bphoto/rGJMul0v_HTH5Jgo84hJUQ/o.jpg", "is_closed": false, "url": "https://www.yelp.com/biz/pueblo-costa-mesa-2?adjust_creative=oncXGL2aPIKrtJdnWeFSnA&utm_campaign=yelp_api_v3&utm_medium=api_v3_business_search&utm_source=oncXGL2aPIKrtJdnWeFSnA", "review_count": 1252, "categories": [{"alias": "tapasmallplates", "title": "Tapas/Small Plates"}, {"alias": "spanish", "title": "Spanish"}, {"alias": "bars", "title": "Bars"}], "rating": 4.5, "coordinates": {"latitude": 33.695166, "longitude": -117.925862}, "transactions": ["restaurant_reservation"], "price": "$$", "location": {"address1": "3321 Hyland Ave", "address2": "Ste D", "address3": "", "city": "Costa Mesa", "zip_code": "92626", "country": "US", "state": "CA", "display_address": ["3321 Hyland Ave", "Ste D", "Costa Mesa, CA 92626"]}, "phone": "+17143405775", "display_phone": "(714) 340-5775", "distance": 76759.95843965698}, {"id": "3xkTa59IzkTTAkvAg2hZ8w", "alias": "bar-bodega-san-diego", "name": "Bar Bodega", "image_url": "https://s3-media1.fl.yelpcdn.com/bphoto/8J0nX5QBKgLtA_kJkTYnLQ/o.jpg", "is_closed": false, "url": "https://www.yelp.com/biz/bar-bodega-san-diego?adjust_creative=oncXGL2aPIKrtJdnWeFSnA&utm_campaign=yelp_api_v3&utm_medium=api_v3_business_search&utm_source=oncXGL2aPIKrtJdnWeFSnA", "review_count": 213, "categories": [{"alias": "tapasmallplates", "title": "Tapas/Small Plates"}, {"alias": "wine_bars", "title": "Wine Bars"}, {"alias": "spanish", "title": "Spanish"}], "rating": 4.5, "coordinates": {"latitude": 32.72452, "longitude": -117.17001}, "transactions": ["restaurant_reservation"], "price": "$$", "location": {"address1": "1980 Kettner Blvd", "address2": null, "address3": "", "city": "San Diego", "zip_code": "92101", "country": "US", "state": "CA", "display_address": ["1980 Kettner Blvd", "San Diego, CA 92101"]}, "phone": "+16195440500", "display_phone": "(619) 544-0500", "distance": 57427.734197745725}, {"id": "ufTlWnzrWSqdsy5c5RE5TQ", "alias": "chez-loma-coronado", "name": "Chez Loma", "image_url": "https://s3-media3.fl.yelpcdn.com/bphoto/aTLZVV8BDrdAZXpasGRykQ/o.jpg", "is_closed": false, "url": "https://www.yelp.com/biz/chez-loma-coronado?adjust_creative=oncXGL2aPIKrtJdnWeFSnA&utm_campaign=yelp_api_v3&utm_medium=api_v3_business_search&utm_source=oncXGL2aPIKrtJdnWeFSnA", "review_count": 321, "categories": [{"alias": "french", "title": "French"}, {"alias": "spanish", "title": "Spanish"}], "rating": 4.0, "coordinates": {"latitude": 32.6835610160565, "longitude": -117.179253101349}, "transactions": [], "price": "$$$", "location": {"address1": "1132 Loma Ave", "address2": "", "address3": "", "city": "Coronado", "zip_code": "92118", "country": "US", "state": "CA", "display_address": ["1132 Loma Ave", "Coronado, CA 92118"]}, "phone": "+16194350661", "display_phone": "(619) 435-0661", "distance": 61694.75240926823}, {"id": "1RQ-WJwH4SfKu8xtEaZqpw", "alias": "matador-paella-san-diego-2", "name": "Matador Paella", "image_url": "https://s3-media4.fl.yelpcdn.com/bphoto/USRIePYpLjnQ2rmFTOZgMg/o.jpg", "is_closed": false, "url": "https://www.yelp.com/biz/matador-paella-san-diego-2?adjust_creative=oncXGL2aPIKrtJdnWeFSnA&utm_campaign=yelp_api_v3&utm_medium=api_v3_business_search&utm_source=oncXGL2aPIKrtJdnWeFSnA", "review_count": 13, "categories": [{"alias": "catering", "title": "Caterers"}, {"alias": "tapas", "title": "Tapas Bars"}, {"alias": "spanish", "title": "Spanish"}], "rating": 5.0, "coordinates": {"latitude": 32.76155, "longitude": -117.12589}, "transactions": [], "location": {"address1": null, "address2": null, "address3": "", "city": "San Diego", "zip_code": "92116", "country": "US", "state": "CA", "display_address": ["San Diego, CA 92116"]}, "phone": "+16195647537", "display_phone": "(619) 564-7537", "distance": 54075.59848378224}, {"id": "5MkpW-dXYDEPJ2IOA1Tzrw", "alias": "tapas-restaurant-and-nightclub-mission-viejo", "name": "Tapas Restaurant and Nightclub", "image_url": "https://s3-media4.fl.yelpcdn.com/bphoto/w3VluXOI7xOPxOkQ_Aa-Aw/o.jpg", "is_closed": false, "url": "https://www.yelp.com/biz/tapas-restaurant-and-nightclub-mission-viejo?adjust_creative=oncXGL2aPIKrtJdnWeFSnA&utm_campaign=yelp_api_v3&utm_medium=api_v3_business_search&utm_source=oncXGL2aPIKrtJdnWeFSnA", "review_count": 119, "categories": [{"alias": "spanish", "title": "Spanish"}, {"alias": "tapas", "title": "Tapas Bars"}], "rating": 3.5, "coordinates": {"latitude": 33.56098, "longitude": -117.67143}, "transactions": ["restaurant_reservation"], "price": "$$", "location": {"address1": "27741 Crown Valley Pkwy", "address2": "Ste 221", "address3": null, "city": "Mission Viejo", "zip_code": "92691", "country": "US", "state": "CA", "display_address": ["27741 Crown Valley Pkwy", "Ste 221", "Mission Viejo, CA 92691"]}, "phone": "+19493670373", "display_phone": "(949) 367-0373", "distance": 49655.56108617859}, {"id": "ZwkABJ3bpYwirX_WPUSpGQ", "alias": "vaca-costa-mesa", "name": "Vaca", "image_url": "https://s3-media3.fl.yelpcdn.com/bphoto/Zac8wo7QxtY2fGF_seb0EQ/o.jpg", "is_closed": false, "url": "https://www.yelp.com/biz/vaca-costa-mesa?adjust_creative=oncXGL2aPIKrtJdnWeFSnA&utm_campaign=yelp_api_v3&utm_medium=api_v3_business_search&utm_source=oncXGL2aPIKrtJdnWeFSnA", "review_count": 938, "categories": [{"alias": "tapasmallplates", "title": "Tapas/Small Plates"}, {"alias": "spanish", "title": "Spanish"}, {"alias": "steak", "title": "Steakhouses"}], "rating": 4.0, "coordinates": {"latitude": 33.6920504459841, "longitude": -117.884018211482}, "transactions": [], "price": "$$$", "location": {"address1": "695 Town Center Dr", "address2": "Ste 170", "address3": "", "city": "Costa Mesa", "zip_code": "92626", "country": "US", "state": "CA", "display_address": ["695 Town Center Dr", "Ste 170", "Costa Mesa, CA 92626"]}, "phone": "+17144636060", "display_phone": "(714) 463-6060", "distance": 73760.7713793212}, {"id": "Z4eYmbJjF5QD8zGj3xMQTA", "alias": "pata-negra-market-san-diego", "name": "Pata Negra Market", "image_url": "https://s3-media2.fl.yelpcdn.com/bphoto/xA8pvASkFh6B0aFW3B8cSw/o.jpg", "is_closed": false, "url": "https://www.yelp.com/biz/pata-negra-market-san-diego?adjust_creative=oncXGL2aPIKrtJdnWeFSnA&utm_campaign=yelp_api_v3&utm_medium=api_v3_business_search&utm_source=oncXGL2aPIKrtJdnWeFSnA", "review_count": 43, "categories": [{"alias": "gourmet", "title": "Specialty Food"}, {"alias": "spanish", "title": "Spanish"}, {"alias": "basque", "title": "Basque"}], "rating": 4.5, "coordinates": {"latitude": 32.8000192344189, "longitude": -117.239512950182}, "transactions": [], "price": "$$", "location": {"address1": "1657 Garnet Ave", "address2": "", "address3": "", "city": "San Diego", "zip_code": "92109", "country": "US", "state": "CA", "display_address": ["1657 Garnet Ave", "San Diego, CA 92109"]}, "phone": "+18582747282", "display_phone": "(858) 274-7282", "distance": 47939.087365197964}, {"id": "PyKG6pFmG64vg1tM42zq_A", "alias": "pan-y-vino-newport-beach-2", "name": "Pan y Vino", "image_url": "https://s3-media2.fl.yelpcdn.com/bphoto/DWO1vjdwNntPzHDhtzcBOw/o.jpg", "is_closed": false, "url": "https://www.yelp.com/biz/pan-y-vino-newport-beach-2?adjust_creative=oncXGL2aPIKrtJdnWeFSnA&utm_campaign=yelp_api_v3&utm_medium=api_v3_business_search&utm_source=oncXGL2aPIKrtJdnWeFSnA", "review_count": 40, "categories": [{"alias": "tapas", "title": "Tapas Bars"}, {"alias": "spanish", "title": "Spanish"}, {"alias": "catalan", "title": "Catalan"}], "rating": 4.5, "coordinates": {"latitude": 33.6022744, "longitude": -117.8998725}, "transactions": ["delivery", "pickup"], "price": "$$", "location": {"address1": "704 E Balboa Blvd", "address2": null, "address3": "", "city": "Newport Beach", "zip_code": "92661", "country": "US", "state": "CA", "display_address": ["704 E Balboa Blvd", "Newport Beach, CA 92661"]}, "phone": "+19498735870", "display_phone": "(949) 873-5870", "distance": 68306.30253396957}, {"id": "z8LW3YrwyEZfpUhWE3Yg2g", "alias": "sunset-by-the-park-chula-vista", "name": "Sunset By the Park", "image_url": "https://s3-media2.fl.yelpcdn.com/bphoto/OyDIxLY-OOU-JySlSNeCOQ/o.jpg", "is_closed": false, "url": "https://www.yelp.com/biz/sunset-by-the-park-chula-vista?adjust_creative=oncXGL2aPIKrtJdnWeFSnA&utm_campaign=yelp_api_v3&utm_medium=api_v3_business_search&utm_source=oncXGL2aPIKrtJdnWeFSnA", "review_count": 63, "categories": [{"alias": "breakfast_brunch", "title": "Breakfast & Brunch"}, {"alias": "spanish", "title": "Spanish"}, {"alias": "newamerican", "title": "American (New)"}], "rating": 3.5, "coordinates": {"latitude": 32.6402260944237, "longitude": -117.079113163054}, "transactions": [], "price": "$", "location": {"address1": "333 3rd Ave Chula Vista", "address2": "", "address3": "", "city": "Chula Vista", "zip_code": "91910", "country": "US", "state": "CA", "display_address": ["333 3rd Ave Chula Vista", "Chula Vista, CA 91910"]}, "phone": "+16195850485", "display_phone": "(619) 585-0485", "distance": 68851.55762735262}, {"id": "dgWGOThHpxvKxgqLEwDfTw", "alias": "tapas-and-beer-rancho-santa-margarita", "name": "Tapas & Beer", "image_url": "https://s3-media3.fl.yelpcdn.com/bphoto/4yKHnMAjqvUSgKElakOLHA/o.jpg", "is_closed": false, "url": "https://www.yelp.com/biz/tapas-and-beer-rancho-santa-margarita?adjust_creative=oncXGL2aPIKrtJdnWeFSnA&utm_campaign=yelp_api_v3&utm_medium=api_v3_business_search&utm_source=oncXGL2aPIKrtJdnWeFSnA", "review_count": 277, "categories": [{"alias": "sportsbars", "title": "Sports Bars"}, {"alias": "tapas", "title": "Tapas Bars"}, {"alias": "spanish", "title": "Spanish"}], "rating": 4.0, "coordinates": {"latitude": 33.63885, "longitude": -117.59366}, "transactions": [], "price": "$$", "location": {"address1": "22307 El Paseo", "address2": "Ste C", "address3": "", "city": "Rancho Santa Margarita", "zip_code": "92688", "country": "US", "state": "CA", "display_address": ["22307 El Paseo", "Ste C", "Rancho Santa Margarita, CA 92688"]}, "phone": "+19498881896", "display_phone": "(949) 888-1896", "distance": 52507.19118788888}, {"id": "asp1GD_M3CBLzeVEEAYY9A", "alias": "casa-franco-mission-viejo", "name": "Casa Franco", "image_url": "https://s3-media1.fl.yelpcdn.com/bphoto/7rFqRmOJXkNSQ2HybAhbxw/o.jpg", "is_closed": false, "url": "https://www.yelp.com/biz/casa-franco-mission-viejo?adjust_creative=oncXGL2aPIKrtJdnWeFSnA&utm_campaign=yelp_api_v3&utm_medium=api_v3_business_search&utm_source=oncXGL2aPIKrtJdnWeFSnA", "review_count": 210, "categories": [{"alias": "mexican", "title": "Mexican"}, {"alias": "spanish", "title": "Spanish"}], "rating": 4.0, "coordinates": {"latitude": 33.60783, "longitude": -117.69003}, "transactions": [], "price": "$$", "location": {"address1": "24395 Alicia Pkwy", "address2": "Ste E3", "address3": "", "city": "Mission Viejo", "zip_code": "92691", "country": "US", "state": "CA", "display_address": ["24395 Alicia Pkwy", "Ste E3", "Mission Viejo, CA 92691"]}, "phone": "+19493809693", "display_phone": "(949) 380-9693", "distance": 54717.55071676543}, {"id": "VqhLWJy_B56VToMdLzvMBA", "alias": "felix-continental-caf\u00e9-orange-2", "name": "Felix Continental Caf\u00e9", "image_url": "https://s3-media2.fl.yelpcdn.com/bphoto/hkZyqqrQsHSI9zpJIy_Ipg/o.jpg", "is_closed": false, "url": "https://www.yelp.com/biz/felix-continental-caf%C3%A9-orange-2?adjust_creative=oncXGL2aPIKrtJdnWeFSnA&utm_campaign=yelp_api_v3&utm_medium=api_v3_business_search&utm_source=oncXGL2aPIKrtJdnWeFSnA", "review_count": 1730, "categories": [{"alias": "spanish", "title": "Spanish"}, {"alias": "cuban", "title": "Cuban"}], "rating": 4.0, "coordinates": {"latitude": 33.7874589017021, "longitude": -117.853490413923}, "transactions": ["pickup"], "price": "$$", "location": {"address1": "36 Plaza Sq", "address2": "", "address3": "", "city": "Orange", "zip_code": "92866", "country": "US", "state": "CA", "display_address": ["36 Plaza Sq", "Orange, CA 92866"]}, "phone": "+17146335842", "display_phone": "(714) 633-5842", "distance": 79754.18238603923}, {"id": "GJIfeA5DrCa9jX5gprWhzw", "alias": "barcelona-onthego-costa-mesa", "name": "Barcelona OntheGo", "image_url": "https://s3-media4.fl.yelpcdn.com/bphoto/DI7y50C8QVqrNEAfOCfxqg/o.jpg", "is_closed": false, "url": "https://www.yelp.com/biz/barcelona-onthego-costa-mesa?adjust_creative=oncXGL2aPIKrtJdnWeFSnA&utm_campaign=yelp_api_v3&utm_medium=api_v3_business_search&utm_source=oncXGL2aPIKrtJdnWeFSnA", "review_count": 322, "categories": [{"alias": "spanish", "title": "Spanish"}, {"alias": "foodtrucks", "title": "Food Trucks"}], "rating": 3.5, "coordinates": {"latitude": 33.663890838623, "longitude": -117.902366638184}, "transactions": [], "price": "$", "location": {"address1": "", "address2": "", "address3": "", "city": "Costa Mesa", "zip_code": "92606", "country": "US", "state": "CA", "display_address": ["Costa Mesa, CA 92606"]}, "phone": "+19499396798", "display_phone": "(949) 939-6798", "distance": 69740.61044277869}, {"id": "YJwjdMTUJSlNzArjdEJjwA", "alias": "carnitas-quiroga-de-zaragoza-santa-ana", "name": "Carnitas Quiroga de Zaragoza", "image_url": "https://s3-media4.fl.yelpcdn.com/bphoto/oAZmk4x8hVSgaz0lxRAPdA/o.jpg", "is_closed": false, "url": "https://www.yelp.com/biz/carnitas-quiroga-de-zaragoza-santa-ana?adjust_creative=oncXGL2aPIKrtJdnWeFSnA&utm_campaign=yelp_api_v3&utm_medium=api_v3_business_search&utm_source=oncXGL2aPIKrtJdnWeFSnA", "review_count": 3, "categories": [{"alias": "mexican", "title": "Mexican"}, {"alias": "spanish", "title": "Spanish"}], "rating": 2.5, "coordinates": {"latitude": 33.72639, "longitude": -117.88798}, "transactions": [], "location": {"address1": "1523 S Pacfic Ave", "address2": null, "address3": "", "city": "Santa Ana", "zip_code": "92704", "country": "US", "state": "CA", "display_address": ["1523 S Pacfic Ave", "Santa Ana, CA 92704"]}, "phone": "+17145618846", "display_phone": "(714) 561-8846", "distance": 76737.56658198305}, {"id": "SUkExQtMa2UkWrzhesbr8g", "alias": "pintxos-san-diego-2", "name": "Pintxos", "image_url": "https://s3-media1.fl.yelpcdn.com/bphoto/wUyxfdziHjG1VdC7VAYkvQ/o.jpg", "is_closed": false, "url": "https://www.yelp.com/biz/pintxos-san-diego-2?adjust_creative=oncXGL2aPIKrtJdnWeFSnA&utm_campaign=yelp_api_v3&utm_medium=api_v3_business_search&utm_source=oncXGL2aPIKrtJdnWeFSnA", "review_count": 2, "categories": [{"alias": "foodstands", "title": "Food Stands"}, {"alias": "spanish", "title": "Spanish"}, {"alias": "tapasmallplates", "title": "Tapas/Small Plates"}], "rating": 5.0, "coordinates": {"latitude": 32.71568, "longitude": -117.16171}, "transactions": [], "location": {"address1": "", "address2": "", "address3": "", "city": "San Diego", "zip_code": "22434", "country": "US", "state": "CA", "display_address": ["San Diego, CA 22434"]}, "phone": "+18337468967", "display_phone": "(833) 746-8967", "distance": 83609.38988321576}, {"id": "G5IXc5GZ35ox96Jheim9Aw", "alias": "andaluz-paella-catering-anaheim", "name": "Andaluz Paella Catering", "image_url": "https://s3-media4.fl.yelpcdn.com/bphoto/YCweMPre6-VEDpGNRKnAng/o.jpg", "is_closed": false, "url": "https://www.yelp.com/biz/andaluz-paella-catering-anaheim?adjust_creative=oncXGL2aPIKrtJdnWeFSnA&utm_campaign=yelp_api_v3&utm_medium=api_v3_business_search&utm_source=oncXGL2aPIKrtJdnWeFSnA", "review_count": 8, "categories": [{"alias": "catering", "title": "Caterers"}, {"alias": "spanish", "title": "Spanish"}], "rating": 5.0, "coordinates": {"latitude": 33.8378143310547, "longitude": -117.910202026367}, "transactions": [], "location": {"address1": "", "address2": null, "address3": "", "city": "Anaheim", "zip_code": "92805", "country": "US", "state": "CA", "display_address": ["Anaheim, CA 92805"]}, "phone": "+17147827102", "display_phone": "(714) 782-7102", "distance": 86353.91120591036}, {"id": "ERGZ8i7Rua5M_KPWw_GTKQ", "alias": "cafe-hidalgo-fullerton", "name": "Cafe Hidalgo", "image_url": "https://s3-media2.fl.yelpcdn.com/bphoto/y4J6TEPzn8HW-N1GqCR-9w/o.jpg", "is_closed": false, "url": "https://www.yelp.com/biz/cafe-hidalgo-fullerton?adjust_creative=oncXGL2aPIKrtJdnWeFSnA&utm_campaign=yelp_api_v3&utm_medium=api_v3_business_search&utm_source=oncXGL2aPIKrtJdnWeFSnA", "review_count": 274, "categories": [{"alias": "mexican", "title": "Mexican"}, {"alias": "venues", "title": "Venues & Event Spaces"}, {"alias": "spanish", "title": "Spanish"}], "rating": 4.0, "coordinates": {"latitude": 33.87268, "longitude": -117.9248}, "transactions": [], "price": "$$", "location": {"address1": "305 N Harbor Blvd", "address2": "", "address3": "", "city": "Fullerton", "zip_code": "92832", "country": "US", "state": "CA", "display_address": ["305 N Harbor Blvd", "Fullerton, CA 92832"]}, "phone": "+17144473202", "display_phone": "(714) 447-3202", "distance": 91263.58726189402}], "total": 19, "region": {"center": {"longitude": -117.31819152832031, "latitude": 33.226009439623446}}}