{"businesses": [{"id": "a3yfBL2Nlm6Z6-1Yzl4ncw", "alias": "din-tai-fung-san-diego-3", "name": "Din Tai Fung", "image_url": "https://s3-media2.fl.yelpcdn.com/bphoto/ZNATGHB0-khY7Q10awdKgQ/o.jpg", "is_closed": false, "url": "https://www.yelp.com/biz/din-tai-fung-san-diego-3?adjust_creative=oncXGL2aPIKrtJdnWeFSnA&utm_campaign=yelp_api_v3&utm_medium=api_v3_business_search&utm_source=oncXGL2aPIKrtJdnWeFSnA", "review_count": 304, "categories": [{"alias": "taiwanese", "title": "Taiwanese"}, {"alias": "dimsum", "title": "Dim Sum"}, {"alias": "noodles", "title": "Noodles"}], "rating": 4.5, "coordinates": {"latitude": 32.8724184, "longitude": -117.213775}, "transactions": ["restaurant_reservation"], "location": {"address1": "4301 La Jolla Village Dr", "address2": "Bldg P Unit 2000", "address3": null, "city": "San Diego", "zip_code": "92122", "country": "US", "state": "CA", "display_address": ["4301 La Jolla Village Dr", "Bldg P Unit 2000", "San Diego, CA 92122"]}, "phone": "+18583755988", "display_phone": "(858) 375-5988", "distance": 40523.16927595866}, {"id": "4aTfGy4yo2kzsrdqe882Vg", "alias": "tasty-pot-san-diego", "name": "Tasty Pot", "image_url": "https://s3-media2.fl.yelpcdn.com/bphoto/bUTpbQkNLtOZIlZ-gmrirw/o.jpg", "is_closed": false, "url": "https://www.yelp.com/biz/tasty-pot-san-diego?adjust_creative=oncXGL2aPIKrtJdnWeFSnA&utm_campaign=yelp_api_v3&utm_medium=api_v3_business_search&utm_source=oncXGL2aPIKrtJdnWeFSnA", "review_count": 241, "categories": [{"alias": "taiwanese", "title": "Taiwanese"}, {"alias": "bubbletea", "title": "Bubble Tea"}, {"alias": "hotpot", "title": "Hot Pot"}], "rating": 4.0, "coordinates": {"latitude": 32.9170554131269, "longitude": -117.123420238495}, "transactions": [], "price": "$$", "location": {"address1": "9379 Mira Mesa Blvd", "address2": "", "address3": null, "city": "San Diego", "zip_code": "92126", "country": "US", "state": "CA", "display_address": ["9379 Mira Mesa Blvd", "San Diego, CA 92126"]}, "phone": "+18584927939", "display_phone": "(858) 492-7939", "distance": 38853.320195425025}, {"id": "Bp0WR7n2hCPNG0j12WRu1w", "alias": "din-tai-fung-costa-mesa", "name": "Din Tai Fung", "image_url": "https://s3-media4.fl.yelpcdn.com/bphoto/oJxan8ysZVkKmO_XrWxtIQ/o.jpg", "is_closed": false, "url": "https://www.yelp.com/biz/din-tai-fung-costa-mesa?adjust_creative=oncXGL2aPIKrtJdnWeFSnA&utm_campaign=yelp_api_v3&utm_medium=api_v3_business_search&utm_source=oncXGL2aPIKrtJdnWeFSnA", "review_count": 3692, "categories": [{"alias": "taiwanese", "title": "Taiwanese"}, {"alias": "dimsum", "title": "Dim Sum"}], "rating": 4.0, "coordinates": {"latitude": 33.692093, "longitude": -117.887784}, "transactions": [], "price": "$$", "location": {"address1": "3333 Bristol St", "address2": "", "address3": "", "city": "Costa Mesa", "zip_code": "92626", "country": "US", "state": "CA", "display_address": ["3333 Bristol St", "Costa Mesa, CA 92626"]}, "phone": "+17145493388", "display_phone": "(714) 549-3388", "distance": 74013.0811537288}, {"id": "bH0DRZ5repXxt1UuVX2D9g", "alias": "formosa-teriyaki-murrieta-2", "name": "Formosa Teriyaki", "image_url": "https://s3-media2.fl.yelpcdn.com/bphoto/RbbC-Dj6LgS31MeCDDeIJQ/o.jpg", "is_closed": false, "url": "https://www.yelp.com/biz/formosa-teriyaki-murrieta-2?adjust_creative=oncXGL2aPIKrtJdnWeFSnA&utm_campaign=yelp_api_v3&utm_medium=api_v3_business_search&utm_source=oncXGL2aPIKrtJdnWeFSnA", "review_count": 387, "categories": [{"alias": "asianfusion", "title": "Asian Fusion"}, {"alias": "japanese", "title": "Japanese"}, {"alias": "taiwanese", "title": "Taiwanese"}], "rating": 5.0, "coordinates": {"latitude": 33.558057, "longitude": -117.178482}, "transactions": [], "price": "$", "location": {"address1": "40469 Murrieta Hot Springs Rd", "address2": "Ste G5", "address3": null, "city": "Murrieta", "zip_code": "92563", "country": "US", "state": "CA", "display_address": ["40469 Murrieta Hot Springs Rd", "Ste G5", "Murrieta, CA 92563"]}, "phone": "+19514618899", "display_phone": "(951) 461-8899", "distance": 39133.93491047802}, {"id": "DvWTs1eZEiy4asjTYbvAIg", "alias": "popcorn-chicken-san-diego-4", "name": "Popcorn Chicken", "image_url": "https://s3-media2.fl.yelpcdn.com/bphoto/zrS362XytUboHnOtq8Btgg/o.jpg", "is_closed": false, "url": "https://www.yelp.com/biz/popcorn-chicken-san-diego-4?adjust_creative=oncXGL2aPIKrtJdnWeFSnA&utm_campaign=yelp_api_v3&utm_medium=api_v3_business_search&utm_source=oncXGL2aPIKrtJdnWeFSnA", "review_count": 70, "categories": [{"alias": "taiwanese", "title": "Taiwanese"}], "rating": 3.5, "coordinates": {"latitude": 32.832135, "longitude": -117.160472}, "transactions": [], "price": "$", "location": {"address1": "7309 Clairemont Mesa Blvd", "address2": "", "address3": null, "city": "San Diego", "zip_code": "92111", "country": "US", "state": "CA", "display_address": ["7309 Clairemont Mesa Blvd", "San Diego, CA 92111"]}, "phone": "+18585695226", "display_phone": "(858) 569-5226", "distance": 46198.99665631307}, {"id": "VDmNScLHOoxcXcHRKDTHTQ", "alias": "oo-tea-san-diego", "name": "OO Tea", "image_url": "https://s3-media3.fl.yelpcdn.com/bphoto/9PRuR2LVGNPHgthqMghyTQ/o.jpg", "is_closed": false, "url": "https://www.yelp.com/biz/oo-tea-san-diego?adjust_creative=oncXGL2aPIKrtJdnWeFSnA&utm_campaign=yelp_api_v3&utm_medium=api_v3_business_search&utm_source=oncXGL2aPIKrtJdnWeFSnA", "review_count": 430, "categories": [{"alias": "coffee", "title": "Coffee & Tea"}, {"alias": "bubbletea", "title": "Bubble Tea"}, {"alias": "taiwanese", "title": "Taiwanese"}], "rating": 4.0, "coordinates": {"latitude": 32.83338, "longitude": -117.16081}, "transactions": [], "price": "$", "location": {"address1": "7330 Clairemont Mesa Blvd", "address2": "Ste A106", "address3": "", "city": "San Diego", "zip_code": "92111", "country": "US", "state": "CA", "display_address": ["7330 Clairemont Mesa Blvd", "Ste A106", "San Diego, CA 92111"]}, "phone": "+18585059535", "display_phone": "(858) 505-9535", "distance": 46040.53164445064}, {"id": "uHM0VCCVxnLIQVbwWbVI0A", "alias": "kingchops-irvine", "name": "Kingchops", "image_url": "https://s3-media2.fl.yelpcdn.com/bphoto/WiwaCTP4YyIb2aPoH-mIfA/o.jpg", "is_closed": false, "url": "https://www.yelp.com/biz/kingchops-irvine?adjust_creative=oncXGL2aPIKrtJdnWeFSnA&utm_campaign=yelp_api_v3&utm_medium=api_v3_business_search&utm_source=oncXGL2aPIKrtJdnWeFSnA", "review_count": 375, "categories": [{"alias": "taiwanese", "title": "Taiwanese"}, {"alias": "noodles", "title": "Noodles"}, {"alias": "soup", "title": "Soup"}], "rating": 4.0, "coordinates": {"latitude": 33.6810747, "longitude": -117.7788766}, "transactions": [], "price": "$", "location": {"address1": "15435 Jeffrey Rd", "address2": "Ste 117", "address3": "", "city": "Irvine", "zip_code": "92618", "country": "US", "state": "CA", "display_address": ["15435 Jeffrey Rd", "Ste 117", "Irvine, CA 92618"]}, "phone": "+19493035344", "display_phone": "(949) 303-5344", "distance": 66235.02610138549}, {"id": "LJYm6X7tLDKdBGR9VSSnWw", "alias": "l-uxweet-tustin", "name": "L'uxweet", "image_url": "https://s3-media4.fl.yelpcdn.com/bphoto/PWoy3oXNubq-LefCsnqKzA/o.jpg", "is_closed": false, "url": "https://www.yelp.com/biz/l-uxweet-tustin?adjust_creative=oncXGL2aPIKrtJdnWeFSnA&utm_campaign=yelp_api_v3&utm_medium=api_v3_business_search&utm_source=oncXGL2aPIKrtJdnWeFSnA", "review_count": 207, "categories": [{"alias": "breakfast_brunch", "title": "Breakfast & Brunch"}, {"alias": "taiwanese", "title": "Taiwanese"}, {"alias": "cafes", "title": "Cafes"}], "rating": 4.0, "coordinates": {"latitude": 33.74954, "longitude": -117.80987}, "transactions": [], "price": "$", "location": {"address1": "12932 Newport Ave", "address2": "Ste7", "address3": "", "city": "Tustin", "zip_code": "92780", "country": "US", "state": "CA", "display_address": ["12932 Newport Ave", "Ste7", "Tustin, CA 92780"]}, "phone": "+17148843108", "display_phone": "(714) 884-3108", "distance": 73928.08526345053}, {"id": "USOxb89lhDhLvJ92-pkJbQ", "alias": "tasty-pot-san-diego-4", "name": "Tasty Pot", "image_url": "https://s3-media3.fl.yelpcdn.com/bphoto/m3dXyUZnm1mLVc7GqWfO-Q/o.jpg", "is_closed": false, "url": "https://www.yelp.com/biz/tasty-pot-san-diego-4?adjust_creative=oncXGL2aPIKrtJdnWeFSnA&utm_campaign=yelp_api_v3&utm_medium=api_v3_business_search&utm_source=oncXGL2aPIKrtJdnWeFSnA", "review_count": 379, "categories": [{"alias": "taiwanese", "title": "Taiwanese"}, {"alias": "hotpot", "title": "Hot Pot"}, {"alias": "bubbletea", "title": "Bubble Tea"}], "rating": 4.0, "coordinates": {"latitude": 32.82667, "longitude": -117.15579}, "transactions": [], "price": "$$", "location": {"address1": "4698 Convoy St", "address2": "Ste 107", "address3": null, "city": "San Diego", "zip_code": "92111", "country": "US", "state": "CA", "display_address": ["4698 Convoy St", "Ste 107", "San Diego, CA 92111"]}, "phone": "+16197176671", "display_phone": "(619) 717-6671", "distance": 46916.89791433873}, {"id": "dvJ4_6ccsPx_6SSUPYn7iw", "alias": "popcorn-chicken-mission-viejo-7", "name": "Popcorn Chicken", "image_url": "https://s3-media4.fl.yelpcdn.com/bphoto/8HH70uSD_O7ZCvgFt-GS4w/o.jpg", "is_closed": false, "url": "https://www.yelp.com/biz/popcorn-chicken-mission-viejo-7?adjust_creative=oncXGL2aPIKrtJdnWeFSnA&utm_campaign=yelp_api_v3&utm_medium=api_v3_business_search&utm_source=oncXGL2aPIKrtJdnWeFSnA", "review_count": 100, "categories": [{"alias": "cafes", "title": "Cafes"}, {"alias": "taiwanese", "title": "Taiwanese"}, {"alias": "bubbletea", "title": "Bubble Tea"}], "rating": 4.0, "coordinates": {"latitude": 33.5537882410816, "longitude": -117.671436754845}, "transactions": [], "price": "$", "location": {"address1": "28221 Marguerite Pkwy", "address2": "Ste 11", "address3": null, "city": "Mission Viejo", "zip_code": "92692", "country": "US", "state": "CA", "display_address": ["28221 Marguerite Pkwy", "Ste 11", "Mission Viejo, CA 92692"]}, "phone": "+19493880334", "display_phone": "(949) 388-0334", "distance": 49030.23780637821}, {"id": "cjLAlkZm2w1nXaiiZ6gDnA", "alias": "boiling-point-irvine", "name": "Boiling Point", "image_url": "https://s3-media1.fl.yelpcdn.com/bphoto/m18l-0_hgpyj3iv13Dme4w/o.jpg", "is_closed": false, "url": "https://www.yelp.com/biz/boiling-point-irvine?adjust_creative=oncXGL2aPIKrtJdnWeFSnA&utm_campaign=yelp_api_v3&utm_medium=api_v3_business_search&utm_source=oncXGL2aPIKrtJdnWeFSnA", "review_count": 1706, "categories": [{"alias": "taiwanese", "title": "Taiwanese"}, {"alias": "hotpot", "title": "Hot Pot"}], "rating": 3.5, "coordinates": {"latitude": 33.7072942946735, "longitude": -117.78256935582}, "transactions": [], "price": "$$", "location": {"address1": "14140 Culver Dr", "address2": "Ste A", "address3": "", "city": "Irvine", "zip_code": "92604", "country": "US", "state": "CA", "display_address": ["14140 Culver Dr", "Ste A", "Irvine, CA 92604"]}, "phone": "+19497332211", "display_phone": "(949) 733-2211", "distance": 68698.3835949314}, {"id": "wNxezrFheDjxfIfMuuqOSQ", "alias": "a-and-j-restaurant-irvine", "name": "A & J Restaurant", "image_url": "https://s3-media2.fl.yelpcdn.com/bphoto/yzYTpWN-T42i3WSOnpvQ1Q/o.jpg", "is_closed": false, "url": "https://www.yelp.com/biz/a-and-j-restaurant-irvine?adjust_creative=oncXGL2aPIKrtJdnWeFSnA&utm_campaign=yelp_api_v3&utm_medium=api_v3_business_search&utm_source=oncXGL2aPIKrtJdnWeFSnA", "review_count": 1722, "categories": [{"alias": "chinese", "title": "Chinese"}, {"alias": "taiwanese", "title": "Taiwanese"}, {"alias": "noodles", "title": "Noodles"}], "rating": 4.0, "coordinates": {"latitude": 33.688076, "longitude": -117.771562}, "transactions": [], "price": "$", "location": {"address1": "14805 Jeffrey Rd", "address2": "Ste D", "address3": "", "city": "Irvine", "zip_code": "92618", "country": "US", "state": "CA", "display_address": ["14805 Jeffrey Rd", "Ste D", "Irvine, CA 92618"]}, "phone": "+19497863585", "display_phone": "(949) 786-3585", "distance": 66398.66784923764}, {"id": "qrw5gs8yUi7IIST8ivaMZg", "alias": "class-302-irvine-21", "name": "Class 302", "image_url": "https://s3-media1.fl.yelpcdn.com/bphoto/5ACZeGTuvSuls2aG4o1zBA/o.jpg", "is_closed": false, "url": "https://www.yelp.com/biz/class-302-irvine-21?adjust_creative=oncXGL2aPIKrtJdnWeFSnA&utm_campaign=yelp_api_v3&utm_medium=api_v3_business_search&utm_source=oncXGL2aPIKrtJdnWeFSnA", "review_count": 1585, "categories": [{"alias": "taiwanese", "title": "Taiwanese"}, {"alias": "bubbletea", "title": "Bubble Tea"}, {"alias": "shavedsnow", "title": "Shaved Snow"}], "rating": 3.0, "coordinates": {"latitude": 33.663662, "longitude": -117.825892}, "transactions": [], "price": "$", "location": {"address1": "18090 Culver Dr", "address2": "", "address3": "", "city": "Irvine", "zip_code": "92612", "country": "US", "state": "CA", "display_address": ["18090 Culver Dr", "Irvine, CA 92612"]}, "phone": "+19495520555", "display_phone": "(949) 552-0555", "distance": 67728.77279660561}, {"id": "lkaTI5ryBvi_6NFB9AWnaQ", "alias": "four-sea-restaurant-irvine", "name": "Four Sea Restaurant", "image_url": "https://s3-media2.fl.yelpcdn.com/bphoto/5UegchC0i6mCfmnX1Rim0g/o.jpg", "is_closed": false, "url": "https://www.yelp.com/biz/four-sea-restaurant-irvine?adjust_creative=oncXGL2aPIKrtJdnWeFSnA&utm_campaign=yelp_api_v3&utm_medium=api_v3_business_search&utm_source=oncXGL2aPIKrtJdnWeFSnA", "review_count": 337, "categories": [{"alias": "taiwanese", "title": "Taiwanese"}, {"alias": "breakfast_brunch", "title": "Breakfast & Brunch"}, {"alias": "chinese", "title": "Chinese"}], "rating": 3.5, "coordinates": {"latitude": 33.6812348985666, "longitude": -117.778315571212}, "transactions": [], "price": "$", "location": {"address1": "15435 Jeffrey Rd", "address2": "", "address3": "", "city": "Irvine", "zip_code": "92618", "country": "US", "state": "CA", "display_address": ["15435 Jeffrey Rd", "Irvine, CA 92618"]}, "phone": "+19493332704", "display_phone": "(949) 333-2704", "distance": 66215.04420514448}, {"id": "WnyBSpONYe0w1hsDUBK_Sw", "alias": "tea-station-san-diego-3", "name": "Tea Station", "image_url": "https://s3-media3.fl.yelpcdn.com/bphoto/hmnAs2ET5s1_8wlq6FWlZw/o.jpg", "is_closed": false, "url": "https://www.yelp.com/biz/tea-station-san-diego-3?adjust_creative=oncXGL2aPIKrtJdnWeFSnA&utm_campaign=yelp_api_v3&utm_medium=api_v3_business_search&utm_source=oncXGL2aPIKrtJdnWeFSnA", "review_count": 248, "categories": [{"alias": "bubbletea", "title": "Bubble Tea"}, {"alias": "taiwanese", "title": "Taiwanese"}, {"alias": "desserts", "title": "Desserts"}], "rating": 3.0, "coordinates": {"latitude": 32.7608256358017, "longitude": -117.067477075492}, "transactions": ["delivery"], "price": "$", "location": {"address1": "6061 El Cajon Blvd", "address2": "Ste D", "address3": "", "city": "San Diego", "zip_code": "92115", "country": "US", "state": "CA", "display_address": ["6061 El Cajon Blvd", "Ste D", "San Diego, CA 92115"]}, "phone": "+16195829888", "display_phone": "(619) 582-9888", "distance": 56765.37052645023}, {"id": "UUaoIeJAS0ugS47m4nIedQ", "alias": "popcorn-chicken-irvine", "name": "Popcorn Chicken", "image_url": "https://s3-media2.fl.yelpcdn.com/bphoto/XYmXnGDPhiREK_B2fJhmuQ/o.jpg", "is_closed": false, "url": "https://www.yelp.com/biz/popcorn-chicken-irvine?adjust_creative=oncXGL2aPIKrtJdnWeFSnA&utm_campaign=yelp_api_v3&utm_medium=api_v3_business_search&utm_source=oncXGL2aPIKrtJdnWeFSnA", "review_count": 470, "categories": [{"alias": "taiwanese", "title": "Taiwanese"}], "rating": 3.5, "coordinates": {"latitude": 33.6956586194911, "longitude": -117.799185749876}, "transactions": ["pickup", "delivery"], "price": "$", "location": {"address1": "15333 Culver Dr", "address2": "Ste 420", "address3": "", "city": "Irvine", "zip_code": "92604", "country": "US", "state": "CA", "display_address": ["15333 Culver Dr", "Ste 420", "Irvine, CA 92604"]}, "phone": "+19497339999", "display_phone": "(949) 733-9999", "distance": 68688.34516385413}, {"id": "rXFg_w2lFo1jEeAHrGUBMw", "alias": "chef-hung-taiwanese-beef-noodle-irvine", "name": "Chef Hung Taiwanese Beef Noodle", "image_url": "https://s3-media3.fl.yelpcdn.com/bphoto/vb3gIJvsvtI4C-BuMh7NLA/o.jpg", "is_closed": false, "url": "https://www.yelp.com/biz/chef-hung-taiwanese-beef-noodle-irvine?adjust_creative=oncXGL2aPIKrtJdnWeFSnA&utm_campaign=yelp_api_v3&utm_medium=api_v3_business_search&utm_source=oncXGL2aPIKrtJdnWeFSnA", "review_count": 771, "categories": [{"alias": "taiwanese", "title": "Taiwanese"}, {"alias": "noodles", "title": "Noodles"}], "rating": 3.0, "coordinates": {"latitude": 33.6879385946788, "longitude": -117.834008811223}, "transactions": [], "price": "$$", "location": {"address1": "2710 Alton Pkwy", "address2": "Ste 117", "address3": "", "city": "Irvine", "zip_code": "92606", "country": "US", "state": "CA", "display_address": ["2710 Alton Pkwy", "Ste 117", "Irvine, CA 92606"]}, "phone": "+19497560088", "display_phone": "(949) 756-0088", "distance": 70200.2888097904}, {"id": "hwC6uXttu87wZVifvFIYuA", "alias": "class-302-santa-ana", "name": "Class 302", "image_url": "https://s3-media1.fl.yelpcdn.com/bphoto/Wus-fdvoJ4vjhsa214nYFw/o.jpg", "is_closed": false, "url": "https://www.yelp.com/biz/class-302-santa-ana?adjust_creative=oncXGL2aPIKrtJdnWeFSnA&utm_campaign=yelp_api_v3&utm_medium=api_v3_business_search&utm_source=oncXGL2aPIKrtJdnWeFSnA", "review_count": 242, "categories": [{"alias": "taiwanese", "title": "Taiwanese"}, {"alias": "juicebars", "title": "Juice Bars & Smoothies"}, {"alias": "coffee", "title": "Coffee & Tea"}], "rating": 4.0, "coordinates": {"latitude": 33.760807, "longitude": -117.838894}, "transactions": [], "price": "$", "location": {"address1": "1945 E 17th St", "address2": "Ste 105", "address3": "", "city": "Santa Ana", "zip_code": "92705", "country": "US", "state": "CA", "display_address": ["1945 E 17th St", "Ste 105", "Santa Ana, CA 92705"]}, "phone": "+17146471598", "display_phone": "(714) 647-1598", "distance": 76619.88427442178}, {"id": "fRManLFOb5mj5rQtLyr6xA", "alias": "tasty-noodle-house-irvine", "name": "Tasty Noodle House", "image_url": "https://s3-media3.fl.yelpcdn.com/bphoto/Xkm2c7x_-eJZb3GTJ5YL9g/o.jpg", "is_closed": false, "url": "https://www.yelp.com/biz/tasty-noodle-house-irvine?adjust_creative=oncXGL2aPIKrtJdnWeFSnA&utm_campaign=yelp_api_v3&utm_medium=api_v3_business_search&utm_source=oncXGL2aPIKrtJdnWeFSnA", "review_count": 468, "categories": [{"alias": "shanghainese", "title": "Shanghainese"}, {"alias": "taiwanese", "title": "Taiwanese"}, {"alias": "noodles", "title": "Noodles"}], "rating": 3.0, "coordinates": {"latitude": 33.6959086219235, "longitude": -117.799302226459}, "transactions": ["pickup", "delivery"], "price": "$$", "location": {"address1": "15333 Culver Dr", "address2": "Ste 320", "address3": "", "city": "Irvine", "zip_code": "92604", "country": "US", "state": "CA", "display_address": ["15333 Culver Dr", "Ste 320", "Irvine, CA 92604"]}, "phone": "+19496543770", "display_phone": "(949) 654-3770", "distance": 68716.45774875492}, {"id": "aCaoVVHSPk6Nuh9sAce6Jw", "alias": "tofu-king-irvine", "name": "Tofu King", "image_url": "https://s3-media2.fl.yelpcdn.com/bphoto/WOLxaPzlD3K2NjOjwE7r_A/o.jpg", "is_closed": false, "url": "https://www.yelp.com/biz/tofu-king-irvine?adjust_creative=oncXGL2aPIKrtJdnWeFSnA&utm_campaign=yelp_api_v3&utm_medium=api_v3_business_search&utm_source=oncXGL2aPIKrtJdnWeFSnA", "review_count": 133, "categories": [{"alias": "taiwanese", "title": "Taiwanese"}], "rating": 3.5, "coordinates": {"latitude": 33.6904514983391, "longitude": -117.770275175571}, "transactions": [], "price": "$", "location": {"address1": "5394 Walnut Ave", "address2": "Ste L", "address3": "", "city": "Irvine", "zip_code": "92604", "country": "US", "state": "CA", "display_address": ["5394 Walnut Ave", "Ste L", "Irvine, CA 92604"]}, "phone": "+19496540486", "display_phone": "(949) 654-0486", "distance": 66527.58819664296}, {"id": "0KTmPSsE-sjqpxpwSdG84g", "alias": "yus-garden-irvine", "name": "Yu's Garden", "image_url": "https://s3-media2.fl.yelpcdn.com/bphoto/1K9GGjvLtygQ01n9-KLGzg/o.jpg", "is_closed": false, "url": "https://www.yelp.com/biz/yus-garden-irvine?adjust_creative=oncXGL2aPIKrtJdnWeFSnA&utm_campaign=yelp_api_v3&utm_medium=api_v3_business_search&utm_source=oncXGL2aPIKrtJdnWeFSnA", "review_count": 545, "categories": [{"alias": "taiwanese", "title": "Taiwanese"}, {"alias": "chinese", "title": "Chinese"}], "rating": 3.5, "coordinates": {"latitude": 33.6889559, "longitude": -117.7701575}, "transactions": [], "price": "$", "location": {"address1": "5408 Walnut Ave", "address2": "Ste H", "address3": "", "city": "Irvine", "zip_code": "92604", "country": "US", "state": "CA", "display_address": ["5408 Walnut Ave", "Ste H", "Irvine, CA 92604"]}, "phone": "+19496542366", "display_phone": "(949) 654-2366", "distance": 66389.41282052122}, {"id": "U9D5oCgjRLm1r4FEGDhwgA", "alias": "tapioca-express-national-city", "name": "Tapioca Express", "image_url": "https://s3-media4.fl.yelpcdn.com/bphoto/kiR5rHbzsmeIwSCBWOtXig/o.jpg", "is_closed": false, "url": "https://www.yelp.com/biz/tapioca-express-national-city?adjust_creative=oncXGL2aPIKrtJdnWeFSnA&utm_campaign=yelp_api_v3&utm_medium=api_v3_business_search&utm_source=oncXGL2aPIKrtJdnWeFSnA", "review_count": 270, "categories": [{"alias": "bubbletea", "title": "Bubble Tea"}, {"alias": "taiwanese", "title": "Taiwanese"}], "rating": 3.0, "coordinates": {"latitude": 32.67744, "longitude": -117.08194}, "transactions": [], "price": "$", "location": {"address1": "2220 E Plaza Blvd", "address2": "Ste S", "address3": "", "city": "National City", "zip_code": "91950", "country": "US", "state": "CA", "display_address": ["2220 E Plaza Blvd", "Ste S", "National City, CA 91950"]}, "phone": "+16194793648", "display_phone": "(619) 479-3648", "distance": 64869.01797954174}, {"id": "XAGFI45wtVQW-5P95ym9-A", "alias": "han-taiwanese-restaurant-irvine", "name": "Han Taiwanese Restaurant", "image_url": "https://s3-media4.fl.yelpcdn.com/bphoto/_AvCmiAOVhtt_2QbNK4nQg/o.jpg", "is_closed": false, "url": "https://www.yelp.com/biz/han-taiwanese-restaurant-irvine?adjust_creative=oncXGL2aPIKrtJdnWeFSnA&utm_campaign=yelp_api_v3&utm_medium=api_v3_business_search&utm_source=oncXGL2aPIKrtJdnWeFSnA", "review_count": 276, "categories": [{"alias": "taiwanese", "title": "Taiwanese"}, {"alias": "chinese", "title": "Chinese"}, {"alias": "asianfusion", "title": "Asian Fusion"}], "rating": 3.5, "coordinates": {"latitude": 33.6438558470004, "longitude": -117.74298235774}, "transactions": [], "price": "$$", "location": {"address1": "8691 Irvine Center Dr", "address2": "", "address3": "", "city": "Irvine", "zip_code": "92618", "country": "US", "state": "CA", "display_address": ["8691 Irvine Center Dr", "Irvine, CA 92618"]}, "phone": "+19494074996", "display_phone": "(949) 407-4996", "distance": 60930.237761489516}, {"id": "4LdfyCwZOrP3OSpyfjrtFg", "alias": "class-302-tea-cafe-irvine-3", "name": "Class 302 Tea Cafe", "image_url": "https://s3-media3.fl.yelpcdn.com/bphoto/CrR7E0y5RCvkBYjZDFY6ag/o.jpg", "is_closed": false, "url": "https://www.yelp.com/biz/class-302-tea-cafe-irvine-3?adjust_creative=oncXGL2aPIKrtJdnWeFSnA&utm_campaign=yelp_api_v3&utm_medium=api_v3_business_search&utm_source=oncXGL2aPIKrtJdnWeFSnA", "review_count": 878, "categories": [{"alias": "taiwanese", "title": "Taiwanese"}, {"alias": "cafes", "title": "Cafes"}], "rating": 3.0, "coordinates": {"latitude": 33.7277612256989, "longitude": -117.786316974672}, "transactions": [], "price": "$", "location": {"address1": "13252 Jamboree Rd", "address2": "", "address3": "", "city": "Irvine", "zip_code": "92602", "country": "US", "state": "CA", "display_address": ["13252 Jamboree Rd", "Irvine, CA 92602"]}, "phone": "+17143891177", "display_phone": "(714) 389-1177", "distance": 70695.51144643266}, {"id": "yv4sJqcQnxoC6FlLhFqGCA", "alias": "17-cafe-ramen-irvine", "name": "17 Cafe Ramen", "image_url": "https://s3-media3.fl.yelpcdn.com/bphoto/bOVP-fzKEePYCh-2-aLmug/o.jpg", "is_closed": false, "url": "https://www.yelp.com/biz/17-cafe-ramen-irvine?adjust_creative=oncXGL2aPIKrtJdnWeFSnA&utm_campaign=yelp_api_v3&utm_medium=api_v3_business_search&utm_source=oncXGL2aPIKrtJdnWeFSnA", "review_count": 245, "categories": [{"alias": "taiwanese", "title": "Taiwanese"}, {"alias": "ramen", "title": "Ramen"}], "rating": 3.5, "coordinates": {"latitude": 33.681315647101, "longitude": -117.805166430164}, "transactions": [], "price": "$", "location": {"address1": "4250 Barranca Pkwy", "address2": "Ste Q", "address3": "", "city": "Irvine", "zip_code": "92604", "country": "US", "state": "CA", "display_address": ["4250 Barranca Pkwy", "Ste Q", "Irvine, CA 92604"]}, "phone": "+19495596631", "display_phone": "(949) 559-6631", "distance": 67854.35200310865}, {"id": "K0vQu9r2MW5uKEPvbsFUnw", "alias": "i-tea-cafe-irvine", "name": "I-Tea Cafe", "image_url": "https://s3-media2.fl.yelpcdn.com/bphoto/xj9-q-RivQVW4zL6pollJg/o.jpg", "is_closed": false, "url": "https://www.yelp.com/biz/i-tea-cafe-irvine?adjust_creative=oncXGL2aPIKrtJdnWeFSnA&utm_campaign=yelp_api_v3&utm_medium=api_v3_business_search&utm_source=oncXGL2aPIKrtJdnWeFSnA", "review_count": 313, "categories": [{"alias": "taiwanese", "title": "Taiwanese"}, {"alias": "coffee", "title": "Coffee & Tea"}, {"alias": "bubbletea", "title": "Bubble Tea"}], "rating": 3.5, "coordinates": {"latitude": 33.680789, "longitude": -117.779035}, "transactions": [], "price": "$", "location": {"address1": "15435 Jeffrey Rd", "address2": "Ste 110", "address3": "", "city": "Irvine", "zip_code": "92618", "country": "US", "state": "CA", "display_address": ["15435 Jeffrey Rd", "Ste 110", "Irvine, CA 92618"]}, "phone": "+19495514832", "display_phone": "(949) 551-4832", "distance": 66220.29192051766}, {"id": "pkgH7TFOALwxFWN92RhGNw", "alias": "j-j-bakery-irvine-2", "name": "J.J. Bakery", "image_url": "https://s3-media3.fl.yelpcdn.com/bphoto/2kSDt2QJmq58O3csSMhDAg/o.jpg", "is_closed": false, "url": "https://www.yelp.com/biz/j-j-bakery-irvine-2?adjust_creative=oncXGL2aPIKrtJdnWeFSnA&utm_campaign=yelp_api_v3&utm_medium=api_v3_business_search&utm_source=oncXGL2aPIKrtJdnWeFSnA", "review_count": 305, "categories": [{"alias": "bakeries", "title": "Bakeries"}, {"alias": "taiwanese", "title": "Taiwanese"}], "rating": 3.0, "coordinates": {"latitude": 33.6956414414845, "longitude": -117.798353507935}, "transactions": [], "price": "$", "location": {"address1": "15333 Culver Dr", "address2": "Ste 660", "address3": "", "city": "Irvine", "zip_code": "92606", "country": "US", "state": "CA", "display_address": ["15333 Culver Dr", "Ste 660", "Irvine, CA 92606"]}, "phone": "+19496531678", "display_phone": "(949) 653-1678", "distance": 68636.76950444006}, {"id": "j2OKasSOePzf11Y-pm0o0w", "alias": "first-sandwich-irvine", "name": "First Sandwich", "image_url": "https://s3-media1.fl.yelpcdn.com/bphoto/j9XZ3riPmCPTNCjvWX1EXA/o.jpg", "is_closed": false, "url": "https://www.yelp.com/biz/first-sandwich-irvine?adjust_creative=oncXGL2aPIKrtJdnWeFSnA&utm_campaign=yelp_api_v3&utm_medium=api_v3_business_search&utm_source=oncXGL2aPIKrtJdnWeFSnA", "review_count": 80, "categories": [{"alias": "sandwiches", "title": "Sandwiches"}, {"alias": "taiwanese", "title": "Taiwanese"}, {"alias": "chinese", "title": "Chinese"}], "rating": 4.0, "coordinates": {"latitude": 33.68187, "longitude": -117.84354}, "transactions": [], "price": "$", "location": {"address1": "2540 Main St", "address2": "", "address3": "", "city": "Irvine", "zip_code": "92614", "country": "US", "state": "CA", "display_address": ["2540 Main St", "Irvine, CA 92614"]}, "phone": "+19498630245", "display_phone": "(949) 863-0245", "distance": 70301.0775729342}, {"id": "95EO0b9QN_fxElBIR1lUUw", "alias": "dings-garden-irvine", "name": "Ding's Garden", "image_url": "https://s3-media2.fl.yelpcdn.com/bphoto/5kSpYKx2Y6AdJJL0Oa3oYQ/o.jpg", "is_closed": false, "url": "https://www.yelp.com/biz/dings-garden-irvine?adjust_creative=oncXGL2aPIKrtJdnWeFSnA&utm_campaign=yelp_api_v3&utm_medium=api_v3_business_search&utm_source=oncXGL2aPIKrtJdnWeFSnA", "review_count": 51, "categories": [{"alias": "taiwanese", "title": "Taiwanese"}, {"alias": "cafes", "title": "Cafes"}], "rating": 2.5, "coordinates": {"latitude": 33.6487679, "longitude": -117.8315947}, "transactions": [], "price": "$", "location": {"address1": "4535 Campus Dr", "address2": "", "address3": null, "city": "Irvine", "zip_code": "92612", "country": "US", "state": "CA", "display_address": ["4535 Campus Dr", "Irvine, CA 92612"]}, "phone": "+19493870827", "display_phone": "(949) 387-0827", "distance": 67041.18869923103}, {"id": "1Sc_ogCfg-t7VeKvcbgODg", "alias": "asian-gourmet-kitchen-irvine", "name": "Asian Gourmet Kitchen", "image_url": "https://s3-media2.fl.yelpcdn.com/bphoto/PIIXWFwDi4MinKrSVIRwPQ/o.jpg", "is_closed": false, "url": "https://www.yelp.com/biz/asian-gourmet-kitchen-irvine?adjust_creative=oncXGL2aPIKrtJdnWeFSnA&utm_campaign=yelp_api_v3&utm_medium=api_v3_business_search&utm_source=oncXGL2aPIKrtJdnWeFSnA", "review_count": 10, "categories": [{"alias": "taiwanese", "title": "Taiwanese"}, {"alias": "dimsum", "title": "Dim Sum"}], "rating": 3.5, "coordinates": {"latitude": 33.69626, "longitude": -117.79899}, "transactions": [], "location": {"address1": "15333 Culver Dr", "address2": "Ste 800", "address3": "99 Ranch Market", "city": "Irvine", "zip_code": "92604", "country": "US", "state": "CA", "display_address": ["15333 Culver Dr", "Ste 800", "99 Ranch Market", "Irvine, CA 92604"]}, "phone": "", "display_phone": "", "distance": 68690.85678256663}, {"id": "ovsO357MFsnf4MoNKI_t9w", "alias": "hometown-restaurant-irvine-3", "name": "HomeTown Restaurant", "image_url": "https://s3-media1.fl.yelpcdn.com/bphoto/Wsk_491TIDSDv0NNjk0W7g/o.jpg", "is_closed": false, "url": "https://www.yelp.com/biz/hometown-restaurant-irvine-3?adjust_creative=oncXGL2aPIKrtJdnWeFSnA&utm_campaign=yelp_api_v3&utm_medium=api_v3_business_search&utm_source=oncXGL2aPIKrtJdnWeFSnA", "review_count": 87, "categories": [{"alias": "chinese", "title": "Chinese"}, {"alias": "delis", "title": "Delis"}, {"alias": "taiwanese", "title": "Taiwanese"}], "rating": 3.5, "coordinates": {"latitude": 33.6901608159476, "longitude": -117.770701646805}, "transactions": [], "price": "$$", "location": {"address1": "5394 Walnut Ave", "address2": "Ste C", "address3": "", "city": "Irvine", "zip_code": "92604", "country": "US", "state": "CA", "display_address": ["5394 Walnut Ave", "Ste C", "Irvine, CA 92604"]}, "phone": "+19496516128", "display_phone": "(949) 651-6128", "distance": 66527.50170703925}, {"id": "LOV6W4fJPWHxHJ_7LCTMbg", "alias": "champion-food-fountain-valley", "name": "Champion Food", "image_url": "https://s3-media2.fl.yelpcdn.com/bphoto/Z5SVKj0o3Iu8gSvsl7HuuQ/o.jpg", "is_closed": false, "url": "https://www.yelp.com/biz/champion-food-fountain-valley?adjust_creative=oncXGL2aPIKrtJdnWeFSnA&utm_campaign=yelp_api_v3&utm_medium=api_v3_business_search&utm_source=oncXGL2aPIKrtJdnWeFSnA", "review_count": 196, "categories": [{"alias": "coffee", "title": "Coffee & Tea"}, {"alias": "taiwanese", "title": "Taiwanese"}, {"alias": "breakfast_brunch", "title": "Breakfast & Brunch"}], "rating": 3.5, "coordinates": {"latitude": 33.714752, "longitude": -117.971252}, "transactions": [], "price": "$", "location": {"address1": "17090 Magnolia St", "address2": "", "address3": "", "city": "Fountain Valley", "zip_code": "92708", "country": "US", "state": "CA", "display_address": ["17090 Magnolia St", "Fountain Valley, CA 92708"]}, "phone": "+17148410398", "display_phone": "(714) 841-0398", "distance": 81301.4308884751}, {"id": "Ef2-73_Ru3dqEorNzwzk9g", "alias": "tapioca-express-san-diego-3", "name": "Tapioca Express", "image_url": "https://s3-media4.fl.yelpcdn.com/bphoto/8HRrX1kZpxUKQEmEo42R_g/o.jpg", "is_closed": false, "url": "https://www.yelp.com/biz/tapioca-express-san-diego-3?adjust_creative=oncXGL2aPIKrtJdnWeFSnA&utm_campaign=yelp_api_v3&utm_medium=api_v3_business_search&utm_source=oncXGL2aPIKrtJdnWeFSnA", "review_count": 113, "categories": [{"alias": "bubbletea", "title": "Bubble Tea"}, {"alias": "coffee", "title": "Coffee & Tea"}, {"alias": "taiwanese", "title": "Taiwanese"}], "rating": 3.5, "coordinates": {"latitude": 32.584625, "longitude": -117.039162}, "transactions": [], "price": "$", "location": {"address1": "4370 Palm Ave", "address2": "Ste Q", "address3": "", "city": "San Diego", "zip_code": "92154", "country": "US", "state": "CA", "display_address": ["4370 Palm Ave", "Ste Q", "San Diego, CA 92154"]}, "phone": "+16194285508", "display_phone": "(619) 428-5508", "distance": 75910.40704643185}, {"id": "yiRvCFIaNSMeFHu2Tsq5Ug", "alias": "tapioca-express-chula-vista-2", "name": "Tapioca Express", "image_url": "https://s3-media3.fl.yelpcdn.com/bphoto/MKP2psOz5AVSv5iOCN1w4g/o.jpg", "is_closed": false, "url": "https://www.yelp.com/biz/tapioca-express-chula-vista-2?adjust_creative=oncXGL2aPIKrtJdnWeFSnA&utm_campaign=yelp_api_v3&utm_medium=api_v3_business_search&utm_source=oncXGL2aPIKrtJdnWeFSnA", "review_count": 166, "categories": [{"alias": "coffee", "title": "Coffee & Tea"}, {"alias": "juicebars", "title": "Juice Bars & Smoothies"}, {"alias": "taiwanese", "title": "Taiwanese"}], "rating": 3.0, "coordinates": {"latitude": 32.62878, "longitude": -116.96525}, "transactions": [], "price": "$", "location": {"address1": "1480 Eastlake Pkwy", "address2": "Ste 903", "address3": "", "city": "Chula Vista", "zip_code": "91913", "country": "US", "state": "CA", "display_address": ["1480 Eastlake Pkwy", "Ste 903", "Chula Vista, CA 91913"]}, "phone": "+16194218988", "display_phone": "(619) 421-8988", "distance": 74151.08459808223}, {"id": "9HmrlkVt9r6TP3emZ6gT3g", "alias": "guppy-house-anaheim", "name": "Guppy House", "image_url": "https://s3-media1.fl.yelpcdn.com/bphoto/7HOejZ3_hBO2SJUQ_jzw4g/o.jpg", "is_closed": false, "url": "https://www.yelp.com/biz/guppy-house-anaheim?adjust_creative=oncXGL2aPIKrtJdnWeFSnA&utm_campaign=yelp_api_v3&utm_medium=api_v3_business_search&utm_source=oncXGL2aPIKrtJdnWeFSnA", "review_count": 701, "categories": [{"alias": "coffee", "title": "Coffee & Tea"}, {"alias": "taiwanese", "title": "Taiwanese"}, {"alias": "bubbletea", "title": "Bubble Tea"}], "rating": 3.0, "coordinates": {"latitude": 33.8585265, "longitude": -117.7911808}, "transactions": ["pickup", "delivery"], "price": "$$", "location": {"address1": "5642 E La Palma Ave", "address2": "Ste 107", "address3": "", "city": "Anaheim", "zip_code": "92807", "country": "US", "state": "CA", "display_address": ["5642 E La Palma Ave", "Ste 107", "Anaheim, CA 92807"]}, "phone": "+17146951958", "display_phone": "(714) 695-1958", "distance": 82874.69758046979}, {"id": "clx5ZKNbqNSGZ5B-11Ya0A", "alias": "tapioca-express-chula-vista-4", "name": "Tapioca Express", "image_url": "https://s3-media4.fl.yelpcdn.com/bphoto/OhnBJnepYsOhpKIcCnpQJQ/o.jpg", "is_closed": false, "url": "https://www.yelp.com/biz/tapioca-express-chula-vista-4?adjust_creative=oncXGL2aPIKrtJdnWeFSnA&utm_campaign=yelp_api_v3&utm_medium=api_v3_business_search&utm_source=oncXGL2aPIKrtJdnWeFSnA", "review_count": 32, "categories": [{"alias": "bubbletea", "title": "Bubble Tea"}, {"alias": "coffee", "title": "Coffee & Tea"}, {"alias": "taiwanese", "title": "Taiwanese"}], "rating": 3.5, "coordinates": {"latitude": 32.60512, "longitude": -117.04011}, "transactions": [], "price": "$", "location": {"address1": "285 E Orange Ave", "address2": "", "address3": "", "city": "Chula Vista", "zip_code": "91911", "country": "US", "state": "CA", "display_address": ["285 E Orange Ave", "Chula Vista, CA 91911"]}, "phone": "+16194222046", "display_phone": "(619) 422-2046", "distance": 73721.79146160989}, {"id": "Pnqxzv3vhzu6xR6h0zcOTw", "alias": "blackball-garden-grove-garden-grove", "name": "Blackball Garden Grove", "image_url": "https://s3-media4.fl.yelpcdn.com/bphoto/glhZBTXA-Hw2NOLAFZ9HfQ/o.jpg", "is_closed": false, "url": "https://www.yelp.com/biz/blackball-garden-grove-garden-grove?adjust_creative=oncXGL2aPIKrtJdnWeFSnA&utm_campaign=yelp_api_v3&utm_medium=api_v3_business_search&utm_source=oncXGL2aPIKrtJdnWeFSnA", "review_count": 342, "categories": [{"alias": "desserts", "title": "Desserts"}, {"alias": "taiwanese", "title": "Taiwanese"}], "rating": 3.5, "coordinates": {"latitude": 33.7604472, "longitude": -117.9547251}, "transactions": [], "price": "$", "location": {"address1": "13908 Brookhurst St", "address2": "Ste A", "address3": "", "city": "Garden Grove", "zip_code": "92843", "country": "US", "state": "CA", "display_address": ["13908 Brookhurst St", "Ste A", "Garden Grove, CA 92843"]}, "phone": "+17148676129", "display_phone": "(714) 867-6129", "distance": 83686.0103125836}, {"id": "GfZZOUz73LYuxScDpLlC4A", "alias": "t4-tea-for-u-westminster", "name": "T4 - Tea For U", "image_url": "https://s3-media1.fl.yelpcdn.com/bphoto/jqJGmjLWMT0LcYofMv85Qw/o.jpg", "is_closed": false, "url": "https://www.yelp.com/biz/t4-tea-for-u-westminster?adjust_creative=oncXGL2aPIKrtJdnWeFSnA&utm_campaign=yelp_api_v3&utm_medium=api_v3_business_search&utm_source=oncXGL2aPIKrtJdnWeFSnA", "review_count": 213, "categories": [{"alias": "taiwanese", "title": "Taiwanese"}, {"alias": "bubbletea", "title": "Bubble Tea"}, {"alias": "coffee", "title": "Coffee & Tea"}], "rating": 3.5, "coordinates": {"latitude": 33.7446682423411, "longitude": -117.962700406349}, "transactions": [], "price": "$", "location": {"address1": "9500 Bolsa Ave", "address2": "Ste A", "address3": null, "city": "Westminster", "zip_code": "92683", "country": "US", "state": "CA", "display_address": ["9500 Bolsa Ave", "Ste A", "Westminster, CA 92683"]}, "phone": "+17144862312", "display_phone": "(714) 486-2312", "distance": 83058.00575231612}, {"id": "xxY0HpOkuO604QVZed5lyg", "alias": "boiling-point-garden-grove", "name": "Boiling Point", "image_url": "https://s3-media3.fl.yelpcdn.com/bphoto/-crca5EElwlVqdBxVD5mdw/o.jpg", "is_closed": false, "url": "https://www.yelp.com/biz/boiling-point-garden-grove?adjust_creative=oncXGL2aPIKrtJdnWeFSnA&utm_campaign=yelp_api_v3&utm_medium=api_v3_business_search&utm_source=oncXGL2aPIKrtJdnWeFSnA", "review_count": 813, "categories": [{"alias": "taiwanese", "title": "Taiwanese"}, {"alias": "hotpot", "title": "Hot Pot"}], "rating": 3.0, "coordinates": {"latitude": 33.761296, "longitude": -117.953334}, "transactions": [], "price": "$$", "location": {"address1": "13876 Brookhurst St", "address2": "", "address3": "", "city": "Garden Grove", "zip_code": "92843", "country": "US", "state": "CA", "display_address": ["13876 Brookhurst St", "Garden Grove, CA 92843"]}, "phone": "+17146363238", "display_phone": "(714) 636-3238", "distance": 83735.06580256193}, {"id": "3oec11LBO43AYmWYO971Nw", "alias": "miss-6-tea-fullerton", "name": "Miss 6 tea", "image_url": "https://s3-media1.fl.yelpcdn.com/bphoto/MeWBkewLGoVIlkwiXCN1Fg/o.jpg", "is_closed": false, "url": "https://www.yelp.com/biz/miss-6-tea-fullerton?adjust_creative=oncXGL2aPIKrtJdnWeFSnA&utm_campaign=yelp_api_v3&utm_medium=api_v3_business_search&utm_source=oncXGL2aPIKrtJdnWeFSnA", "review_count": 32, "categories": [{"alias": "taiwanese", "title": "Taiwanese"}, {"alias": "bubbletea", "title": "Bubble Tea"}, {"alias": "hotdogs", "title": "Fast Food"}], "rating": 3.5, "coordinates": {"latitude": 33.8704681647122, "longitude": -117.919925674796}, "transactions": [], "location": {"address1": "229 E Commonwealth Ave", "address2": "Ste E", "address3": null, "city": "Fullerton", "zip_code": "92832", "country": "US", "state": "CA", "display_address": ["229 E Commonwealth Ave", "Ste E", "Fullerton, CA 92832"]}, "phone": "+17148693353", "display_phone": "(714) 869-3353", "distance": 90800.63143856246}, {"id": "n_U7Zk-EQhuBisy_mp31bw", "alias": "the-old-boys-fullerton-11", "name": "The Old Boys", "image_url": "https://s3-media2.fl.yelpcdn.com/bphoto/muc9ce8hhX3DX9--Cxqa2g/o.jpg", "is_closed": false, "url": "https://www.yelp.com/biz/the-old-boys-fullerton-11?adjust_creative=oncXGL2aPIKrtJdnWeFSnA&utm_campaign=yelp_api_v3&utm_medium=api_v3_business_search&utm_source=oncXGL2aPIKrtJdnWeFSnA", "review_count": 53, "categories": [{"alias": "taiwanese", "title": "Taiwanese"}, {"alias": "chinese", "title": "Chinese"}], "rating": 4.0, "coordinates": {"latitude": 33.8736867, "longitude": -117.8897449}, "transactions": ["pickup", "delivery"], "price": "$", "location": {"address1": "333 N State College Blvd", "address2": "", "address3": null, "city": "Fullerton", "zip_code": "92831", "country": "US", "state": "CA", "display_address": ["333 N State College Blvd", "Fullerton, CA 92831"]}, "phone": "+17145193751", "display_phone": "(714) 519-3751", "distance": 89380.6384238407}, {"id": "Cs9vp-3z8EUSir2646jSwQ", "alias": "blazin-hotpot-and-boba-tea-anaheim-2", "name": "Blazin Hotpot & Boba Tea", "image_url": "https://s3-media3.fl.yelpcdn.com/bphoto/4JawSPDNtMwfBok5K9C45w/o.jpg", "is_closed": false, "url": "https://www.yelp.com/biz/blazin-hotpot-and-boba-tea-anaheim-2?adjust_creative=oncXGL2aPIKrtJdnWeFSnA&utm_campaign=yelp_api_v3&utm_medium=api_v3_business_search&utm_source=oncXGL2aPIKrtJdnWeFSnA", "review_count": 454, "categories": [{"alias": "hotpot", "title": "Hot Pot"}, {"alias": "asianfusion", "title": "Asian Fusion"}, {"alias": "taiwanese", "title": "Taiwanese"}], "rating": 4.0, "coordinates": {"latitude": 33.8175989960817, "longitude": -117.990760272667}, "transactions": ["pickup", "delivery"], "price": "$$", "location": {"address1": "2937 W Ball Rd", "address2": null, "address3": "", "city": "Anaheim", "zip_code": "92804", "country": "US", "state": "CA", "display_address": ["2937 W Ball Rd", "Anaheim, CA 92804"]}, "phone": "+17148862686", "display_phone": "(714) 886-2686", "distance": 90632.9645865239}, {"id": "ohBxvrsJXIGDkely828c2g", "alias": "taste-tea-cafe-artesia", "name": "Taste Tea Cafe", "image_url": "https://s3-media4.fl.yelpcdn.com/bphoto/_5oawiqN8HfoDVJ9FazYZg/o.jpg", "is_closed": false, "url": "https://www.yelp.com/biz/taste-tea-cafe-artesia?adjust_creative=oncXGL2aPIKrtJdnWeFSnA&utm_campaign=yelp_api_v3&utm_medium=api_v3_business_search&utm_source=oncXGL2aPIKrtJdnWeFSnA", "review_count": 481, "categories": [{"alias": "taiwanese", "title": "Taiwanese"}, {"alias": "cafes", "title": "Cafes"}, {"alias": "bubbletea", "title": "Bubble Tea"}], "rating": 4.5, "coordinates": {"latitude": 33.8597555291258, "longitude": -118.071864865901}, "transactions": [], "price": "$", "location": {"address1": "18858 Norwalk Blvd", "address2": "", "address3": null, "city": "Artesia", "zip_code": "90701", "country": "US", "state": "CA", "display_address": ["18858 Norwalk Blvd", "Artesia, CA 90701"]}, "phone": "+15628650654", "display_phone": "(562) 865-0654", "distance": 99220.13689540283}, {"id": "kf_BCK3zYFgshoL-4p-zWQ", "alias": "formosan-restaurant-artesia", "name": "Formosan Restaurant", "image_url": "https://s3-media1.fl.yelpcdn.com/bphoto/E3G0du0Xai_9xmsiuguqeg/o.jpg", "is_closed": false, "url": "https://www.yelp.com/biz/formosan-restaurant-artesia?adjust_creative=oncXGL2aPIKrtJdnWeFSnA&utm_campaign=yelp_api_v3&utm_medium=api_v3_business_search&utm_source=oncXGL2aPIKrtJdnWeFSnA", "review_count": 205, "categories": [{"alias": "taiwanese", "title": "Taiwanese"}, {"alias": "shavedsnow", "title": "Shaved Snow"}], "rating": 3.5, "coordinates": {"latitude": 33.85998, "longitude": -118.07172}, "transactions": [], "price": "$", "location": {"address1": "18846 Norwalk Blvd", "address2": null, "address3": "", "city": "Artesia", "zip_code": "90701", "country": "US", "state": "CA", "display_address": ["18846 Norwalk Blvd", "Artesia, CA 90701"]}, "phone": "+15629240366", "display_phone": "(562) 924-0366", "distance": 99202.0153369855}, {"id": "K-s8QXsavQUk2CeHykPP6A", "alias": "boiling-point-artesia", "name": "Boiling Point", "image_url": "https://s3-media3.fl.yelpcdn.com/bphoto/YYpYpIYj9w9SPvZ23qzsyg/o.jpg", "is_closed": false, "url": "https://www.yelp.com/biz/boiling-point-artesia?adjust_creative=oncXGL2aPIKrtJdnWeFSnA&utm_campaign=yelp_api_v3&utm_medium=api_v3_business_search&utm_source=oncXGL2aPIKrtJdnWeFSnA", "review_count": 560, "categories": [{"alias": "taiwanese", "title": "Taiwanese"}, {"alias": "hotpot", "title": "Hot Pot"}], "rating": 4.0, "coordinates": {"latitude": 33.8675272444343, "longitude": -118.082660796455}, "transactions": [], "price": "$$", "location": {"address1": "18001 Pioneer Blvd", "address2": "Ste C", "address3": "", "city": "Artesia", "zip_code": "90701", "country": "US", "state": "CA", "display_address": ["18001 Pioneer Blvd", "Ste C", "Artesia, CA 90701"]}, "phone": "+15628658926", "display_phone": "(562) 865-8926", "distance": 100536.03069011864}, {"id": "ClWQWONvfoxFiKaYxP85FQ", "alias": "canaan-restaurant-artesia", "name": "Canaan Restaurant", "image_url": "https://s3-media3.fl.yelpcdn.com/bphoto/aon-IXuvOp5b7zGvE7ufkg/o.jpg", "is_closed": false, "url": "https://www.yelp.com/biz/canaan-restaurant-artesia?adjust_creative=oncXGL2aPIKrtJdnWeFSnA&utm_campaign=yelp_api_v3&utm_medium=api_v3_business_search&utm_source=oncXGL2aPIKrtJdnWeFSnA", "review_count": 465, "categories": [{"alias": "taiwanese", "title": "Taiwanese"}, {"alias": "chinese", "title": "Chinese"}], "rating": 4.0, "coordinates": {"latitude": 33.857237, "longitude": -118.086013}, "transactions": [], "price": "$$", "location": {"address1": "11610 South St", "address2": "", "address3": "", "city": "Artesia", "zip_code": "90701", "country": "US", "state": "CA", "display_address": ["11610 South St", "Artesia, CA 90701"]}, "phone": "+15628098369", "display_phone": "(562) 809-8369", "distance": 99951.38975139832}, {"id": "bOCojwxv9F8430uti0-t_Q", "alias": "blue-bay-cafe-artesia", "name": "Blue Bay Cafe", "image_url": "https://s3-media2.fl.yelpcdn.com/bphoto/hQqYgunJ70a0Evgcmiedrw/o.jpg", "is_closed": false, "url": "https://www.yelp.com/biz/blue-bay-cafe-artesia?adjust_creative=oncXGL2aPIKrtJdnWeFSnA&utm_campaign=yelp_api_v3&utm_medium=api_v3_business_search&utm_source=oncXGL2aPIKrtJdnWeFSnA", "review_count": 73, "categories": [{"alias": "taiwanese", "title": "Taiwanese"}, {"alias": "coffee", "title": "Coffee & Tea"}, {"alias": "noodles", "title": "Noodles"}], "rating": 3.5, "coordinates": {"latitude": 33.86912, "longitude": -118.08152}, "transactions": [], "price": "$", "location": {"address1": "17806 S. Pioneer Blvd", "address2": "Ste 103A", "address3": null, "city": "Artesia", "zip_code": "90701", "country": "US", "state": "CA", "display_address": ["17806 S. Pioneer Blvd", "Ste 103A", "Artesia, CA 90701"]}, "phone": "+15628659901", "display_phone": "(562) 865-9901", "distance": 99794.57374451567}, {"id": "WYk_D2ZY6ZVpPYjhsXnsmw", "alias": "tasty-noodle-house-cerritos", "name": "Tasty Noodle House", "image_url": "https://s3-media3.fl.yelpcdn.com/bphoto/LY3KT-bTyG1ASKuwpi7S9g/o.jpg", "is_closed": false, "url": "https://www.yelp.com/biz/tasty-noodle-house-cerritos?adjust_creative=oncXGL2aPIKrtJdnWeFSnA&utm_campaign=yelp_api_v3&utm_medium=api_v3_business_search&utm_source=oncXGL2aPIKrtJdnWeFSnA", "review_count": 446, "categories": [{"alias": "taiwanese", "title": "Taiwanese"}, {"alias": "shanghainese", "title": "Shanghainese"}, {"alias": "noodles", "title": "Noodles"}], "rating": 3.5, "coordinates": {"latitude": 33.8572769610288, "longitude": -118.092858418822}, "transactions": ["pickup", "delivery"], "price": "$$", "location": {"address1": "11316 S St", "address2": "", "address3": "", "city": "Cerritos", "zip_code": "90703", "country": "US", "state": "CA", "display_address": ["11316 S St", "Cerritos, CA 90703"]}, "phone": "+15628091333", "display_phone": "(562) 809-1333", "distance": 100407.14274129455}, {"id": "TKHM3EEXTuDUHN0OkAGCPQ", "alias": "class-302-cerritos", "name": "Class 302", "image_url": "https://s3-media2.fl.yelpcdn.com/bphoto/SqeW_AMlZ60W-PeYY3TF6w/o.jpg", "is_closed": false, "url": "https://www.yelp.com/biz/class-302-cerritos?adjust_creative=oncXGL2aPIKrtJdnWeFSnA&utm_campaign=yelp_api_v3&utm_medium=api_v3_business_search&utm_source=oncXGL2aPIKrtJdnWeFSnA", "review_count": 816, "categories": [{"alias": "taiwanese", "title": "Taiwanese"}, {"alias": "desserts", "title": "Desserts"}, {"alias": "bubbletea", "title": "Bubble Tea"}], "rating": 3.0, "coordinates": {"latitude": 33.8578874983889, "longitude": -118.089321247311}, "transactions": [], "price": "$", "location": {"address1": "11446 South St", "address2": "", "address3": "", "city": "Cerritos", "zip_code": "90703", "country": "US", "state": "CA", "display_address": ["11446 South St", "Cerritos, CA 90703"]}, "phone": "+15629241315", "display_phone": "(562) 924-1315", "distance": 100220.40732683417}, {"id": "2RoI0C-zuhTEsmbHlnWWSQ", "alias": "quest-yes-food-artesia", "name": "Quest Yes Food", "image_url": "https://s3-media2.fl.yelpcdn.com/bphoto/e7KGF_ZAfF4Qq3cNR6wLDg/o.jpg", "is_closed": false, "url": "https://www.yelp.com/biz/quest-yes-food-artesia?adjust_creative=oncXGL2aPIKrtJdnWeFSnA&utm_campaign=yelp_api_v3&utm_medium=api_v3_business_search&utm_source=oncXGL2aPIKrtJdnWeFSnA", "review_count": 27, "categories": [{"alias": "taiwanese", "title": "Taiwanese"}, {"alias": "chinese", "title": "Chinese"}, {"alias": "soup", "title": "Soup"}], "rating": 4.0, "coordinates": {"latitude": 33.87269, "longitude": -118.07742}, "transactions": [], "price": "$$", "location": {"address1": "11976 Artesia Blvd", "address2": "Ste B", "address3": null, "city": "Artesia", "zip_code": "90701", "country": "US", "state": "CA", "display_address": ["11976 Artesia Blvd", "Ste B", "Artesia, CA 90701"]}, "phone": "+15622460217", "display_phone": "(562) 246-0217", "distance": 100586.79548586825}], "total": 51, "region": {"center": {"longitude": -117.31819152832031, "latitude": 33.226009439623446}}}