{"businesses": [{"id": "HTHCPCLeQnOhszY_5PV_XA", "alias": "pho-bowl-and-grill-oceanside", "name": "Pho Bowl & Grill", "image_url": "https://s3-media3.fl.yelpcdn.com/bphoto/enNoxkk0TBtlQLicDpSYbQ/o.jpg", "is_closed": false, "url": "https://www.yelp.com/biz/pho-bowl-and-grill-oceanside?adjust_creative=oncXGL2aPIKrtJdnWeFSnA&utm_campaign=yelp_api_v3&utm_medium=api_v3_business_search&utm_source=oncXGL2aPIKrtJdnWeFSnA", "review_count": 20, "categories": [{"alias": "vietnamese", "title": "Vietnamese"}, {"alias": "vegetarian", "title": "Vegetarian"}], "rating": 4.0, "coordinates": {"latitude": 33.1997799, "longitude": -117.37539}, "transactions": [], "location": {"address1": "1006 Mission Ave", "address2": "Ste C", "address3": "", "city": "Oceanside", "zip_code": "92054", "country": "US", "state": "CA", "display_address": ["1006 Mission Ave", "Ste C", "Oceanside, CA 92054"]}, "phone": "+17604532999", "display_phone": "(760) 453-2999", "distance": 1349.2549039953026}, {"id": "7m_Vve98CiTJqrqVe7Nu0A", "alias": "pho-oceanside-oceanside", "name": "Pho Oceanside", "image_url": "https://s3-media2.fl.yelpcdn.com/bphoto/d4Rl0ULDmmHYrx6iOCMJsw/o.jpg", "is_closed": false, "url": "https://www.yelp.com/biz/pho-oceanside-oceanside?adjust_creative=oncXGL2aPIKrtJdnWeFSnA&utm_campaign=yelp_api_v3&utm_medium=api_v3_business_search&utm_source=oncXGL2aPIKrtJdnWeFSnA", "review_count": 507, "categories": [{"alias": "vietnamese", "title": "Vietnamese"}], "rating": 4.0, "coordinates": {"latitude": 33.1843375867943, "longitude": -117.369014641}, "transactions": [], "price": "$", "location": {"address1": "518 Oceanside Blvd", "address2": "Ste 107-110", "address3": "", "city": "Oceanside", "zip_code": "92054", "country": "US", "state": "CA", "display_address": ["518 Oceanside Blvd", "Ste 107-110", "Oceanside, CA 92054"]}, "phone": "+17607542828", "display_phone": "(760) 754-2828", "distance": 1234.524930715153}, {"id": "7hY5OuVIkJQMoYPdIN-frQ", "alias": "pho-house-oceanside", "name": "Pho House", "image_url": "https://s3-media3.fl.yelpcdn.com/bphoto/RWrkTtxHz0eIGpBtbrgvhg/o.jpg", "is_closed": false, "url": "https://www.yelp.com/biz/pho-house-oceanside?adjust_creative=oncXGL2aPIKrtJdnWeFSnA&utm_campaign=yelp_api_v3&utm_medium=api_v3_business_search&utm_source=oncXGL2aPIKrtJdnWeFSnA", "review_count": 405, "categories": [{"alias": "vietnamese", "title": "Vietnamese"}], "rating": 4.0, "coordinates": {"latitude": 33.22436, "longitude": -117.33183}, "transactions": [], "price": "$", "location": {"address1": "3753 MIssion Ave", "address2": "Ste 120", "address3": "", "city": "Oceanside", "zip_code": "92058", "country": "US", "state": "CA", "display_address": ["3753 MIssion Ave", "Ste 120", "Oceanside, CA 92058"]}, "phone": "+17607549999", "display_phone": "(760) 754-9999", "distance": 4429.854104754857}, {"id": "PmKT6_qos-hcis5IL89X3A", "alias": "pho-kitchen-oceanside-2", "name": "Pho Kitchen", "image_url": "https://s3-media1.fl.yelpcdn.com/bphoto/t5N0Gv3slh2J038yTRFjKw/o.jpg", "is_closed": false, "url": "https://www.yelp.com/biz/pho-kitchen-oceanside-2?adjust_creative=oncXGL2aPIKrtJdnWeFSnA&utm_campaign=yelp_api_v3&utm_medium=api_v3_business_search&utm_source=oncXGL2aPIKrtJdnWeFSnA", "review_count": 330, "categories": [{"alias": "vietnamese", "title": "Vietnamese"}], "rating": 4.5, "coordinates": {"latitude": 33.2058763612272, "longitude": -117.28825673461}, "transactions": [], "price": "$", "location": {"address1": "4121 Oceanside Blvd", "address2": "", "address3": "", "city": "Oceanside", "zip_code": "92056", "country": "US", "state": "CA", "display_address": ["4121 Oceanside Blvd", "Oceanside, CA 92056"]}, "phone": "+17602955445", "display_phone": "(760) 295-5445", "distance": 7059.299100868342}, {"id": "2Mwu0pGf7MXCJPHz4SsAAQ", "alias": "nd-banh-mi-oceanside-2", "name": "ND Banh Mi", "image_url": "https://s3-media2.fl.yelpcdn.com/bphoto/iW10cNe9Qgq-iRSM1mAojA/o.jpg", "is_closed": false, "url": "https://www.yelp.com/biz/nd-banh-mi-oceanside-2?adjust_creative=oncXGL2aPIKrtJdnWeFSnA&utm_campaign=yelp_api_v3&utm_medium=api_v3_business_search&utm_source=oncXGL2aPIKrtJdnWeFSnA", "review_count": 278, "categories": [{"alias": "bubbletea", "title": "Bubble Tea"}, {"alias": "bakeries", "title": "Bakeries"}, {"alias": "vietnamese", "title": "Vietnamese"}], "rating": 4.5, "coordinates": {"latitude": 33.2078605151782, "longitude": -117.286571636796}, "transactions": [], "price": "$", "location": {"address1": "4160 Oceanside Blvd", "address2": "Ste 169", "address3": "", "city": "Oceanside", "zip_code": "92056", "country": "US", "state": "CA", "display_address": ["4160 Oceanside Blvd", "Ste 169", "Oceanside, CA 92056"]}, "phone": "+17607264650", "display_phone": "(760) 726-4650", "distance": 7256.474698759336}, {"id": "YA9ZXK3bKU5ouA7tLRpAnQ", "alias": "yummy-pho-oceanside", "name": "Yummy Pho", "image_url": "https://s3-media2.fl.yelpcdn.com/bphoto/JJbawnSa63JOABZjeRiiHQ/o.jpg", "is_closed": false, "url": "https://www.yelp.com/biz/yummy-pho-oceanside?adjust_creative=oncXGL2aPIKrtJdnWeFSnA&utm_campaign=yelp_api_v3&utm_medium=api_v3_business_search&utm_source=oncXGL2aPIKrtJdnWeFSnA", "review_count": 302, "categories": [{"alias": "vietnamese", "title": "Vietnamese"}], "rating": 4.0, "coordinates": {"latitude": 33.207439, "longitude": -117.2833753}, "transactions": [], "price": "$", "location": {"address1": "4225 Oceanside Blvd", "address2": "Ste W", "address3": "", "city": "Oceanside", "zip_code": "92056", "country": "US", "state": "CA", "display_address": ["4225 Oceanside Blvd", "Ste W", "Oceanside, CA 92056"]}, "phone": "+17606311800", "display_phone": "(760) 631-1800", "distance": 7511.78320649235}, {"id": "-JYENhetvaP0bS0-4LmIyQ", "alias": "i-love-pho-oceanside", "name": "I Love Pho", "image_url": "https://s3-media2.fl.yelpcdn.com/bphoto/ZEUqiBxsdbNyMNTeCVoBiA/o.jpg", "is_closed": false, "url": "https://www.yelp.com/biz/i-love-pho-oceanside?adjust_creative=oncXGL2aPIKrtJdnWeFSnA&utm_campaign=yelp_api_v3&utm_medium=api_v3_business_search&utm_source=oncXGL2aPIKrtJdnWeFSnA", "review_count": 326, "categories": [{"alias": "vietnamese", "title": "Vietnamese"}], "rating": 3.5, "coordinates": {"latitude": 33.181416, "longitude": -117.293098}, "transactions": [], "price": "$", "location": {"address1": "3809 Plaza Dr", "address2": "", "address3": "", "city": "Oceanside", "zip_code": "92056", "country": "US", "state": "CA", "display_address": ["3809 Plaza Dr", "Oceanside, CA 92056"]}, "phone": "+17606308889", "display_phone": "(760) 630-8889", "distance": 6643.14823099142}, {"id": "t6u3bXS9Vj8TmVTur6OblQ", "alias": "mr-pho-oceanside", "name": "Mr Pho", "image_url": "https://s3-media4.fl.yelpcdn.com/bphoto/PWB5tw5yqJapoI5HCUFAKw/o.jpg", "is_closed": false, "url": "https://www.yelp.com/biz/mr-pho-oceanside?adjust_creative=oncXGL2aPIKrtJdnWeFSnA&utm_campaign=yelp_api_v3&utm_medium=api_v3_business_search&utm_source=oncXGL2aPIKrtJdnWeFSnA", "review_count": 286, "categories": [{"alias": "vietnamese", "title": "Vietnamese"}], "rating": 4.0, "coordinates": {"latitude": 33.2167206, "longitude": -117.2717285}, "transactions": [], "price": "$", "location": {"address1": "4750 Oceanside Blvd", "address2": "", "address3": "", "city": "Oceanside", "zip_code": "92056", "country": "US", "state": "CA", "display_address": ["4750 Oceanside Blvd", "Oceanside, CA 92056"]}, "phone": "+17609401306", "display_phone": "(760) 940-1306", "distance": 8818.422944697328}], "total": 8}