{"businesses": [{"id": "NQ4QOOTbYW9MfseqwRFZcQ", "alias": "2051-cafe-carlsbad", "name": "2051 Cafe", "image_url": "https://s3-media3.fl.yelpcdn.com/bphoto/2FSNyrghNITP3L21VkbrPw/o.jpg", "is_closed": false, "url": "https://www.yelp.com/biz/2051-cafe-carlsbad?adjust_creative=oncXGL2aPIKrtJdnWeFSnA&utm_campaign=yelp_api_v3&utm_medium=api_v3_business_search&utm_source=oncXGL2aPIKrtJdnWeFSnA", "review_count": 82, "categories": [{"alias": "cafes", "title": "Cafes"}, {"alias": "delis", "title": "Delis"}, {"alias": "italian", "title": "Italian"}], "rating": 5.0, "coordinates": {"latitude": 33.1224971661327, "longitude": -117.276416666667}, "transactions": [], "price": "$$", "location": {"address1": "2051 Palomar Airport Rd", "address2": "Ste 175", "address3": null, "city": "Carlsbad", "zip_code": "92011", "country": "US", "state": "CA", "display_address": ["2051 Palomar Airport Rd", "Ste 175", "Carlsbad, CA 92011"]}, "phone": "+17608142831", "display_phone": "(760) 814-2831", "distance": 1142.1452775691298}, {"id": "AYtf2IjgszPhwHmlnMAHgQ", "alias": "the-story-caffe-carlsbad", "name": "The Story Caffe", "image_url": "https://s3-media2.fl.yelpcdn.com/bphoto/MBT_9OXWuFHasK-eVmLXQQ/o.jpg", "is_closed": false, "url": "https://www.yelp.com/biz/the-story-caffe-carlsbad?adjust_creative=oncXGL2aPIKrtJdnWeFSnA&utm_campaign=yelp_api_v3&utm_medium=api_v3_business_search&utm_source=oncXGL2aPIKrtJdnWeFSnA", "review_count": 86, "categories": [{"alias": "cafes", "title": "Cafes"}], "rating": 4.5, "coordinates": {"latitude": 33.1110311787428, "longitude": -117.294607936909}, "transactions": [], "price": "$", "location": {"address1": "1350 Poinsettia Ln", "address2": null, "address3": "", "city": "Carlsbad", "zip_code": "92011", "country": "US", "state": "CA", "display_address": ["1350 Poinsettia Ln", "Carlsbad, CA 92011"]}, "phone": "+17609290029", "display_phone": "(760) 929-0029", "distance": 1337.6602331551962}, {"id": "CqqM_b4xiHwGsSWJcgQ8OQ", "alias": "french-corner-at-the-island-carlsbad", "name": "French Corner at The Island", "image_url": "https://s3-media1.fl.yelpcdn.com/bphoto/wehjPoCSC957RoXUniesdQ/o.jpg", "is_closed": false, "url": "https://www.yelp.com/biz/french-corner-at-the-island-carlsbad?adjust_creative=oncXGL2aPIKrtJdnWeFSnA&utm_campaign=yelp_api_v3&utm_medium=api_v3_business_search&utm_source=oncXGL2aPIKrtJdnWeFSnA", "review_count": 31, "categories": [{"alias": "french", "title": "French"}, {"alias": "creperies", "title": "Creperies"}, {"alias": "cafes", "title": "Cafes"}], "rating": 4.5, "coordinates": {"latitude": 33.1360951, "longitude": -117.2874636}, "transactions": [], "price": "$", "location": {"address1": "5808 Van Allen Way", "address2": "Ste 110", "address3": "", "city": "Carlsbad", "zip_code": "92008", "country": "US", "state": "CA", "display_address": ["5808 Van Allen Way", "Ste 110", "Carlsbad, CA 92008"]}, "phone": "+17605852037", "display_phone": "(760) 585-2037", "distance": 1537.864946458923}, {"id": "gJzoi-QJ9d1LZGoaTpBRFQ", "alias": "board-and-brew-carlsbad-bressi-ranch-carlsbad", "name": "Board & Brew - Carlsbad Bressi Ranch", "image_url": "https://s3-media3.fl.yelpcdn.com/bphoto/mEivmuguEI3u-F7HMDuYBw/o.jpg", "is_closed": false, "url": "https://www.yelp.com/biz/board-and-brew-carlsbad-bressi-ranch-carlsbad?adjust_creative=oncXGL2aPIKrtJdnWeFSnA&utm_campaign=yelp_api_v3&utm_medium=api_v3_business_search&utm_source=oncXGL2aPIKrtJdnWeFSnA", "review_count": 508, "categories": [{"alias": "sandwiches", "title": "Sandwiches"}, {"alias": "beerbar", "title": "Beer Bar"}, {"alias": "cafes", "title": "Cafes"}], "rating": 4.0, "coordinates": {"latitude": 33.1274036, "longitude": -117.2526507}, "transactions": ["pickup"], "price": "$", "location": {"address1": "2681 Gateway Rd", "address2": "Ste 103", "address3": "", "city": "Carlsbad", "zip_code": "92009", "country": "US", "state": "CA", "display_address": ["2681 Gateway Rd", "Ste 103", "Carlsbad, CA 92009"]}, "phone": "+17609292739", "display_phone": "(760) 929-2739", "distance": 3407.5855074889405}, {"id": "OHSQwsNx1MQXZib8tF138w", "alias": "california-bistro-at-park-hyatt-aviara-carlsbad", "name": "California Bistro At Park Hyatt Aviara", "image_url": "https://s3-media3.fl.yelpcdn.com/bphoto/A_RxdNWzYMzjFmloiFKV6A/o.jpg", "is_closed": false, "url": "https://www.yelp.com/biz/california-bistro-at-park-hyatt-aviara-carlsbad?adjust_creative=oncXGL2aPIKrtJdnWeFSnA&utm_campaign=yelp_api_v3&utm_medium=api_v3_business_search&utm_source=oncXGL2aPIKrtJdnWeFSnA", "review_count": 70, "categories": [{"alias": "cafes", "title": "Cafes"}], "rating": 3.5, "coordinates": {"latitude": 33.0991573708083, "longitude": -117.285778130688}, "transactions": [], "price": "$$$", "location": {"address1": "7100 Aviara Resort Dr", "address2": "", "address3": "", "city": "Carlsbad", "zip_code": "92011", "country": "US", "state": "CA", "display_address": ["7100 Aviara Resort Dr", "Carlsbad, CA 92011"]}, "phone": "+17606036868", "display_phone": "(760) 603-6868", "distance": 2552.330847142707}, {"id": "0EXN7oiwDkWFUO-ELvlRUw", "alias": "connies-vista", "name": "Connie's", "image_url": "https://s3-media2.fl.yelpcdn.com/bphoto/aAoh4qPVYIpVXFj5OoQq9w/o.jpg", "is_closed": false, "url": "https://www.yelp.com/biz/connies-vista?adjust_creative=oncXGL2aPIKrtJdnWeFSnA&utm_campaign=yelp_api_v3&utm_medium=api_v3_business_search&utm_source=oncXGL2aPIKrtJdnWeFSnA", "review_count": 320, "categories": [{"alias": "cafes", "title": "Cafes"}, {"alias": "tradamerican", "title": "American (Traditional)"}, {"alias": "breakfast_brunch", "title": "Breakfast & Brunch"}], "rating": 4.5, "coordinates": {"latitude": 33.1652801243252, "longitude": -117.245181798935}, "transactions": [], "price": "$", "location": {"address1": "1688 S Melrose Dr", "address2": "Ste 206", "address3": "", "city": "Vista", "zip_code": "92081", "country": "US", "state": "CA", "display_address": ["1688 S Melrose Dr", "Ste 206", "Vista, CA 92081"]}, "phone": "+17605971700", "display_phone": "(760) 597-1700", "distance": 6290.37442725996}, {"id": "Edv644a30618d89v_ZkCJw", "alias": "copa-vida-carlsbad", "name": "Copa Vida", "image_url": "https://s3-media2.fl.yelpcdn.com/bphoto/73C1KIHxjlR3HYO-gffooA/o.jpg", "is_closed": false, "url": "https://www.yelp.com/biz/copa-vida-carlsbad?adjust_creative=oncXGL2aPIKrtJdnWeFSnA&utm_campaign=yelp_api_v3&utm_medium=api_v3_business_search&utm_source=oncXGL2aPIKrtJdnWeFSnA", "review_count": 14, "categories": [{"alias": "coffee", "title": "Coffee & Tea"}, {"alias": "cafes", "title": "Cafes"}], "rating": 4.5, "coordinates": {"latitude": 33.1268348693848, "longitude": -117.326843261719}, "transactions": [], "price": "$$", "location": {"address1": "5600 Avenida Encinas", "address2": null, "address3": "", "city": "Carlsbad", "zip_code": "92008", "country": "US", "state": "CA", "display_address": ["5600 Avenida Encinas", "Carlsbad, CA 92008"]}, "phone": "+17608142330", "display_phone": "(760) 814-2330", "distance": 3567.482039280373}, {"id": "-ZJVaXutyni9O9dou0sJTA", "alias": "campus-cafe-carlsbad", "name": "Campus Cafe", "image_url": "https://s3-media1.fl.yelpcdn.com/bphoto/cyjsjGYNkARnS83MdlvveA/o.jpg", "is_closed": false, "url": "https://www.yelp.com/biz/campus-cafe-carlsbad?adjust_creative=oncXGL2aPIKrtJdnWeFSnA&utm_campaign=yelp_api_v3&utm_medium=api_v3_business_search&utm_source=oncXGL2aPIKrtJdnWeFSnA", "review_count": 121, "categories": [{"alias": "delis", "title": "Delis"}, {"alias": "cafes", "title": "Cafes"}, {"alias": "sandwiches", "title": "Sandwiches"}], "rating": 4.5, "coordinates": {"latitude": 33.131802, "longitude": -117.270076}, "transactions": [], "price": "$", "location": {"address1": "5966 La Place Ct", "address2": "Ste 150", "address3": "", "city": "Carlsbad", "zip_code": "92008", "country": "US", "state": "CA", "display_address": ["5966 La Place Ct", "Ste 150", "Carlsbad, CA 92008"]}, "phone": "+17604319210", "display_phone": "(760) 431-9210", "distance": 2046.6411863271271}, {"id": "DxNhIGu1WuzX9RT4487bsg", "alias": "the-broken-yolk-cafe-carlsbad-2", "name": "The Broken Yolk Cafe", "image_url": "https://s3-media2.fl.yelpcdn.com/bphoto/vsH4Qd66kYAaQrqeDhwRRA/o.jpg", "is_closed": false, "url": "https://www.yelp.com/biz/the-broken-yolk-cafe-carlsbad-2?adjust_creative=oncXGL2aPIKrtJdnWeFSnA&utm_campaign=yelp_api_v3&utm_medium=api_v3_business_search&utm_source=oncXGL2aPIKrtJdnWeFSnA", "review_count": 524, "categories": [{"alias": "breakfast_brunch", "title": "Breakfast & Brunch"}, {"alias": "cafes", "title": "Cafes"}, {"alias": "tradamerican", "title": "American (Traditional)"}], "rating": 3.5, "coordinates": {"latitude": 33.0866318, "longitude": -117.2686025}, "transactions": [], "price": "$$", "location": {"address1": "7670 El Camino Real", "address2": "", "address3": "", "city": "Carlsbad", "zip_code": "92009", "country": "US", "state": "CA", "display_address": ["7670 El Camino Real", "Carlsbad, CA 92009"]}, "phone": "+17609438182", "display_phone": "(760) 943-8182", "distance": 4466.140661676678}, {"id": "MOa-GahoHWbhn5NzHWRSQg", "alias": "ocean-journey-cafe-carlsbad", "name": "Ocean Journey Cafe", "image_url": "https://s3-media1.fl.yelpcdn.com/bphoto/BB0F4bA_UDN-WZDEoigxQw/o.jpg", "is_closed": false, "url": "https://www.yelp.com/biz/ocean-journey-cafe-carlsbad?adjust_creative=oncXGL2aPIKrtJdnWeFSnA&utm_campaign=yelp_api_v3&utm_medium=api_v3_business_search&utm_source=oncXGL2aPIKrtJdnWeFSnA", "review_count": 19, "categories": [{"alias": "cafes", "title": "Cafes"}], "rating": 4.0, "coordinates": {"latitude": 33.1258674741098, "longitude": -117.312374134831}, "transactions": [], "price": "$$", "location": {"address1": "1 Legoland Dr", "address2": "", "address3": "", "city": "Carlsbad", "zip_code": "92008", "country": "US", "state": "CA", "display_address": ["1 Legoland Dr", "Carlsbad, CA 92008"]}, "phone": "+17609185346", "display_phone": "(760) 918-5346", "distance": 2249.6805591962834}, {"id": "Ljo8uT-wbvBzrH0PlKHQgA", "alias": "spa-cafe-carlsbad", "name": "Spa Cafe", "image_url": "https://s3-media2.fl.yelpcdn.com/bphoto/fNTK6OE-QUwyLctE_GtNog/o.jpg", "is_closed": false, "url": "https://www.yelp.com/biz/spa-cafe-carlsbad?adjust_creative=oncXGL2aPIKrtJdnWeFSnA&utm_campaign=yelp_api_v3&utm_medium=api_v3_business_search&utm_source=oncXGL2aPIKrtJdnWeFSnA", "review_count": 7, "categories": [{"alias": "cafes", "title": "Cafes"}, {"alias": "salad", "title": "Salad"}], "rating": 4.5, "coordinates": {"latitude": 33.0920044, "longitude": -117.2663418}, "transactions": [], "price": "$$", "location": {"address1": "2100 Costa Del Mar Rd", "address2": "", "address3": "Omni La Costa Resort & Spa", "city": "Carlsbad", "zip_code": "92009", "country": "US", "state": "CA", "display_address": ["2100 Costa Del Mar Rd", "Omni La Costa Resort & Spa", "Carlsbad, CA 92009"]}, "phone": "+17604389111", "display_phone": "(760) 438-9111", "distance": 3928.8319136802006}, {"id": "5mOrOqisecnAyjsnj0ASKw", "alias": "cafe-muse-carlsbad", "name": "Cafe Muse", "image_url": "", "is_closed": false, "url": "https://www.yelp.com/biz/cafe-muse-carlsbad?adjust_creative=oncXGL2aPIKrtJdnWeFSnA&utm_campaign=yelp_api_v3&utm_medium=api_v3_business_search&utm_source=oncXGL2aPIKrtJdnWeFSnA", "review_count": 1, "categories": [{"alias": "cafes", "title": "Cafes"}], "rating": 1.0, "coordinates": {"latitude": 33.1062126, "longitude": -117.2697906}, "transactions": [], "location": {"address1": "1775 Dove Ln", "address2": "", "address3": "Plaza Paseo Real", "city": "Carlsbad", "zip_code": "92011", "country": "US", "state": "CA", "display_address": ["1775 Dove Ln", "Plaza Paseo Real", "Carlsbad, CA 92011"]}, "phone": "+17608930280", "display_phone": "(760) 893-0280", "distance": 2540.7232612915113}], "total": 12, "region": {"center": {"longitude": -117.28866577148438, "latitude": 33.12198326621279}}}