{"businesses": [{"id": "NQ4QOOTbYW9MfseqwRFZcQ", "alias": "2051-cafe-carlsbad", "name": "2051 Cafe", "image_url": "https://s3-media3.fl.yelpcdn.com/bphoto/2FSNyrghNITP3L21VkbrPw/o.jpg", "is_closed": false, "url": "https://www.yelp.com/biz/2051-cafe-carlsbad?adjust_creative=oncXGL2aPIKrtJdnWeFSnA&utm_campaign=yelp_api_v3&utm_medium=api_v3_business_search&utm_source=oncXGL2aPIKrtJdnWeFSnA", "review_count": 82, "categories": [{"alias": "cafes", "title": "Cafes"}, {"alias": "delis", "title": "Delis"}, {"alias": "italian", "title": "Italian"}], "rating": 5.0, "coordinates": {"latitude": 33.1224971661327, "longitude": -117.276416666667}, "transactions": [], "price": "$$", "location": {"address1": "2051 Palomar Airport Rd", "address2": "Ste 175", "address3": null, "city": "Carlsbad", "zip_code": "92011", "country": "US", "state": "CA", "display_address": ["2051 Palomar Airport Rd", "Ste 175", "Carlsbad, CA 92011"]}, "phone": "+17608142831", "display_phone": "(760) 814-2831", "distance": 1142.1452775691298}, {"id": "X9o5yDQvuMicYH50Lrvr8g", "alias": "tip-top-meats-and-european-delicatessen-carlsbad", "name": "Tip Top Meats & European Delicatessen", "image_url": "https://s3-media3.fl.yelpcdn.com/bphoto/w0tz89Qs5mwmXSGy_IYrjg/o.jpg", "is_closed": false, "url": "https://www.yelp.com/biz/tip-top-meats-and-european-delicatessen-carlsbad?adjust_creative=oncXGL2aPIKrtJdnWeFSnA&utm_campaign=yelp_api_v3&utm_medium=api_v3_business_search&utm_source=oncXGL2aPIKrtJdnWeFSnA", "review_count": 1514, "categories": [{"alias": "meats", "title": "Meat Shops"}, {"alias": "delis", "title": "Delis"}], "rating": 4.0, "coordinates": {"latitude": 33.1197299, "longitude": -117.31853}, "transactions": [], "price": "$", "location": {"address1": "6118 Paseo Del Norte", "address2": "", "address3": "", "city": "Carlsbad", "zip_code": "92011", "country": "US", "state": "CA", "display_address": ["6118 Paseo Del Norte", "Carlsbad, CA 92011"]}, "phone": "+17604382620", "display_phone": "(760) 438-2620", "distance": 2792.680162090649}, {"id": "lPFKybOVx2gRLClTzIujdg", "alias": "bologna-gourmet-carlsbad", "name": "Bologna Gourmet", "image_url": "https://s3-media3.fl.yelpcdn.com/bphoto/MdIdPh2bo_Dme675CPztRw/o.jpg", "is_closed": false, "url": "https://www.yelp.com/biz/bologna-gourmet-carlsbad?adjust_creative=oncXGL2aPIKrtJdnWeFSnA&utm_campaign=yelp_api_v3&utm_medium=api_v3_business_search&utm_source=oncXGL2aPIKrtJdnWeFSnA", "review_count": 149, "categories": [{"alias": "delis", "title": "Delis"}, {"alias": "italian", "title": "Italian"}, {"alias": "pastashops", "title": "Pasta Shops"}], "rating": 4.5, "coordinates": {"latitude": 33.12392, "longitude": -117.27351}, "transactions": ["pickup"], "price": "$", "location": {"address1": "6150 Yarrow Dr", "address2": null, "address3": "", "city": "Carlsbad", "zip_code": "92011", "country": "US", "state": "CA", "display_address": ["6150 Yarrow Dr", "Carlsbad, CA 92011"]}, "phone": "+17609290877", "display_phone": "(760) 929-0877", "distance": 1419.5784245734824}, {"id": "T7clD90oNlDnp9qlvziAOw", "alias": "on-a-roll-carlsbad", "name": "On A Roll", "image_url": "https://s3-media2.fl.yelpcdn.com/bphoto/hfliA0C0D5yL6SCzJG4wUA/o.jpg", "is_closed": false, "url": "https://www.yelp.com/biz/on-a-roll-carlsbad?adjust_creative=oncXGL2aPIKrtJdnWeFSnA&utm_campaign=yelp_api_v3&utm_medium=api_v3_business_search&utm_source=oncXGL2aPIKrtJdnWeFSnA", "review_count": 78, "categories": [{"alias": "sandwiches", "title": "Sandwiches"}, {"alias": "delis", "title": "Delis"}], "rating": 4.5, "coordinates": {"latitude": 33.131852, "longitude": -117.253401}, "transactions": [], "price": "$", "location": {"address1": "2794 Loker Ave W", "address2": "Ste 110", "address3": "", "city": "Carlsbad", "zip_code": "92008", "country": "US", "state": "CA", "display_address": ["2794 Loker Ave W", "Ste 110", "Carlsbad, CA 92008"]}, "phone": "+17604318148", "display_phone": "(760) 431-8148", "distance": 3462.4007917889094}, {"id": "-ZJVaXutyni9O9dou0sJTA", "alias": "campus-cafe-carlsbad", "name": "Campus Cafe", "image_url": "https://s3-media1.fl.yelpcdn.com/bphoto/cyjsjGYNkARnS83MdlvveA/o.jpg", "is_closed": false, "url": "https://www.yelp.com/biz/campus-cafe-carlsbad?adjust_creative=oncXGL2aPIKrtJdnWeFSnA&utm_campaign=yelp_api_v3&utm_medium=api_v3_business_search&utm_source=oncXGL2aPIKrtJdnWeFSnA", "review_count": 121, "categories": [{"alias": "delis", "title": "Delis"}, {"alias": "cafes", "title": "Cafes"}, {"alias": "sandwiches", "title": "Sandwiches"}], "rating": 4.5, "coordinates": {"latitude": 33.131802, "longitude": -117.270076}, "transactions": [], "price": "$", "location": {"address1": "5966 La Place Ct", "address2": "Ste 150", "address3": "", "city": "Carlsbad", "zip_code": "92008", "country": "US", "state": "CA", "display_address": ["5966 La Place Ct", "Ste 150", "Carlsbad, CA 92008"]}, "phone": "+17604319210", "display_phone": "(760) 431-9210", "distance": 2046.6411863271271}, {"id": "vNiijPbS2EX77YXgdwdMDA", "alias": "garden-state-bagels-carlsbad-5", "name": "Garden State Bagels", "image_url": "https://s3-media1.fl.yelpcdn.com/bphoto/-l5C6qen71OpD3jU9rpkyQ/o.jpg", "is_closed": false, "url": "https://www.yelp.com/biz/garden-state-bagels-carlsbad-5?adjust_creative=oncXGL2aPIKrtJdnWeFSnA&utm_campaign=yelp_api_v3&utm_medium=api_v3_business_search&utm_source=oncXGL2aPIKrtJdnWeFSnA", "review_count": 2, "categories": [{"alias": "bagels", "title": "Bagels"}, {"alias": "sandwiches", "title": "Sandwiches"}, {"alias": "delis", "title": "Delis"}], "rating": 5.0, "coordinates": {"latitude": 33.12129, "longitude": -117.31881}, "transactions": [], "location": {"address1": "6020 Paseo Del Norte", "address2": "", "address3": null, "city": "Carlsbad", "zip_code": "92011", "country": "US", "state": "CA", "display_address": ["6020 Paseo Del Norte", "Carlsbad, CA 92011"]}, "phone": "+17604761000", "display_phone": "(760) 476-1000", "distance": 2800.093643894069}, {"id": "QoJO1cPX-SiQZBuI7NtzBg", "alias": "judys-deli-carlsbad", "name": "Judy's Deli", "image_url": "https://s3-media1.fl.yelpcdn.com/bphoto/0LG0xZjWEJwIsXG2o5J6Mg/o.jpg", "is_closed": false, "url": "https://www.yelp.com/biz/judys-deli-carlsbad?adjust_creative=oncXGL2aPIKrtJdnWeFSnA&utm_campaign=yelp_api_v3&utm_medium=api_v3_business_search&utm_source=oncXGL2aPIKrtJdnWeFSnA", "review_count": 42, "categories": [{"alias": "delis", "title": "Delis"}], "rating": 4.5, "coordinates": {"latitude": 33.1183369553985, "longitude": -117.278504349074}, "transactions": [], "price": "$", "location": {"address1": "2035 Corte Del Nogal", "address2": "", "address3": "", "city": "Carlsbad", "zip_code": "92009", "country": "US", "state": "CA", "display_address": ["2035 Corte Del Nogal", "Carlsbad, CA 92009"]}, "phone": "+17604317108", "display_phone": "(760) 431-7108", "distance": 1029.519311911742}, {"id": "ifX08kFZ4I2madZUxzf1sA", "alias": "off-the-vine-gardens-deli-and-catering-carlsbad", "name": "Off the Vine Gardens Deli & Catering", "image_url": "https://s3-media3.fl.yelpcdn.com/bphoto/OfutisH7Zfj2KuAgqnRS-w/o.jpg", "is_closed": false, "url": "https://www.yelp.com/biz/off-the-vine-gardens-deli-and-catering-carlsbad?adjust_creative=oncXGL2aPIKrtJdnWeFSnA&utm_campaign=yelp_api_v3&utm_medium=api_v3_business_search&utm_source=oncXGL2aPIKrtJdnWeFSnA", "review_count": 41, "categories": [{"alias": "delis", "title": "Delis"}], "rating": 4.5, "coordinates": {"latitude": 33.1203511, "longitude": -117.2678072}, "transactions": [], "price": "$", "location": {"address1": "2382 Camino Vida Roble", "address2": "", "address3": "", "city": "Carlsbad", "zip_code": "92011", "country": "US", "state": "CA", "display_address": ["2382 Camino Vida Roble", "Carlsbad, CA 92011"]}, "phone": "+17604387701", "display_phone": "(760) 438-7701", "distance": 1950.9670032499732}, {"id": "zbgK2W9N6akeTIsjVXPjXg", "alias": "gelsons-market-carlsbad", "name": "Gelson's Market", "image_url": "https://s3-media1.fl.yelpcdn.com/bphoto/vtZXWaYbDjXh9bslEWSuvA/o.jpg", "is_closed": false, "url": "https://www.yelp.com/biz/gelsons-market-carlsbad?adjust_creative=oncXGL2aPIKrtJdnWeFSnA&utm_campaign=yelp_api_v3&utm_medium=api_v3_business_search&utm_source=oncXGL2aPIKrtJdnWeFSnA", "review_count": 113, "categories": [{"alias": "delis", "title": "Delis"}, {"alias": "grocery", "title": "Grocery"}, {"alias": "wine_bars", "title": "Wine Bars"}], "rating": 3.5, "coordinates": {"latitude": 33.08707, "longitude": -117.26757}, "transactions": [], "price": "$$", "location": {"address1": "7660 El Camino Real", "address2": "", "address3": "", "city": "Carlsbad", "zip_code": "92009", "country": "US", "state": "CA", "display_address": ["7660 El Camino Real", "Carlsbad, CA 92009"]}, "phone": "+17606327511", "display_phone": "(760) 632-7511", "distance": 4343.7061705097385}, {"id": "5a01fuDf95DlUVxMZ0ahJA", "alias": "la-place-deli-carlsbad", "name": "La Place Deli", "image_url": "https://s3-media2.fl.yelpcdn.com/bphoto/3QhPlugX6JSDtvhIQpoelg/o.jpg", "is_closed": false, "url": "https://www.yelp.com/biz/la-place-deli-carlsbad?adjust_creative=oncXGL2aPIKrtJdnWeFSnA&utm_campaign=yelp_api_v3&utm_medium=api_v3_business_search&utm_source=oncXGL2aPIKrtJdnWeFSnA", "review_count": 43, "categories": [{"alias": "delis", "title": "Delis"}], "rating": 4.5, "coordinates": {"latitude": 33.1325855, "longitude": -117.2720141}, "transactions": [], "price": "$", "location": {"address1": "5950 La Place Ct", "address2": "Ste 150", "address3": "", "city": "Carlsbad", "zip_code": "92008", "country": "US", "state": "CA", "display_address": ["5950 La Place Ct", "Ste 150", "Carlsbad, CA 92008"]}, "phone": "+17604310584", "display_phone": "(760) 431-0584", "distance": 2004.706568789347}, {"id": "hESQ-5TwOu2fX-CgOjWWag", "alias": "jersey-mikes-subs-carlsbad-4", "name": "Jersey Mike's Subs", "image_url": "https://s3-media4.fl.yelpcdn.com/bphoto/dzWdjIwH4ALDZ9d2OBQpSQ/o.jpg", "is_closed": false, "url": "https://www.yelp.com/biz/jersey-mikes-subs-carlsbad-4?adjust_creative=oncXGL2aPIKrtJdnWeFSnA&utm_campaign=yelp_api_v3&utm_medium=api_v3_business_search&utm_source=oncXGL2aPIKrtJdnWeFSnA", "review_count": 86, "categories": [{"alias": "sandwiches", "title": "Sandwiches"}, {"alias": "hotdogs", "title": "Fast Food"}, {"alias": "delis", "title": "Delis"}], "rating": 3.5, "coordinates": {"latitude": 33.127271, "longitude": -117.269688}, "transactions": [], "price": "$", "location": {"address1": "2521 Palomar Airport Rd", "address2": "Ste 6-104", "address3": "", "city": "Carlsbad", "zip_code": "92011", "country": "US", "state": "CA", "display_address": ["2521 Palomar Airport Rd", "Ste 6-104", "Carlsbad, CA 92011"]}, "phone": "+17604317600", "display_phone": "(760) 431-7600", "distance": 1862.5244345927129}, {"id": "ICzXLXsx5L1VAoCm3su0ow", "alias": "boba-hut-and-deli-vista", "name": "Boba Hut And Deli", "image_url": "https://s3-media2.fl.yelpcdn.com/bphoto/s6QShhZJQhWb5ZxauxUI9A/o.jpg", "is_closed": false, "url": "https://www.yelp.com/biz/boba-hut-and-deli-vista?adjust_creative=oncXGL2aPIKrtJdnWeFSnA&utm_campaign=yelp_api_v3&utm_medium=api_v3_business_search&utm_source=oncXGL2aPIKrtJdnWeFSnA", "review_count": 115, "categories": [{"alias": "juicebars", "title": "Juice Bars & Smoothies"}, {"alias": "bubbletea", "title": "Bubble Tea"}, {"alias": "delis", "title": "Delis"}], "rating": 4.0, "coordinates": {"latitude": 33.16585, "longitude": -117.24543}, "transactions": [], "price": "$", "location": {"address1": "1680 S Melrose Dr", "address2": "Ste 101", "address3": "", "city": "Vista", "zip_code": "92081", "country": "US", "state": "CA", "display_address": ["1680 S Melrose Dr", "Ste 101", "Vista, CA 92081"]}, "phone": "+17602245848", "display_phone": "(760) 224-5848", "distance": 6316.799173752901}, {"id": "MHO_ugU11W8ZJ26wi93fTA", "alias": "stater-bros-markets-carlsbad-2", "name": "Stater Bros. Markets", "image_url": "https://s3-media2.fl.yelpcdn.com/bphoto/q14g-qeruIdFGEZ19KUxTQ/o.jpg", "is_closed": false, "url": "https://www.yelp.com/biz/stater-bros-markets-carlsbad-2?adjust_creative=oncXGL2aPIKrtJdnWeFSnA&utm_campaign=yelp_api_v3&utm_medium=api_v3_business_search&utm_source=oncXGL2aPIKrtJdnWeFSnA", "review_count": 94, "categories": [{"alias": "grocery", "title": "Grocery"}, {"alias": "butcher", "title": "Butcher"}, {"alias": "delis", "title": "Delis"}], "rating": 3.0, "coordinates": {"latitude": 33.126631, "longitude": -117.251903}, "transactions": [], "price": "$$", "location": {"address1": "2687 Gateway Rd", "address2": "", "address3": "", "city": "Carlsbad", "zip_code": "92009", "country": "US", "state": "CA", "display_address": ["2687 Gateway Rd", "Carlsbad, CA 92009"]}, "phone": "+17609297900", "display_phone": "(760) 929-7900", "distance": 3462.291595306757}, {"id": "RCIu2HPPtxbpbhELaYZlLw", "alias": "togo-s-sandwiches-carlsbad", "name": "Togo\u2019s Sandwiches", "image_url": "https://s3-media1.fl.yelpcdn.com/bphoto/mriE2sxWTQNn9BIpBYLK7A/o.jpg", "is_closed": false, "url": "https://www.yelp.com/biz/togo-s-sandwiches-carlsbad?adjust_creative=oncXGL2aPIKrtJdnWeFSnA&utm_campaign=yelp_api_v3&utm_medium=api_v3_business_search&utm_source=oncXGL2aPIKrtJdnWeFSnA", "review_count": 52, "categories": [{"alias": "sandwiches", "title": "Sandwiches"}, {"alias": "delis", "title": "Delis"}, {"alias": "hotdogs", "title": "Fast Food"}], "rating": 3.5, "coordinates": {"latitude": 33.1048346, "longitude": -117.2671761}, "transactions": ["pickup", "delivery"], "price": "$", "location": {"address1": "6943 El Camino Real", "address2": "Ste F-105", "address3": "", "city": "Carlsbad", "zip_code": "92009", "country": "US", "state": "CA", "display_address": ["6943 El Camino Real", "Ste F-105", "Carlsbad, CA 92009"]}, "phone": "+17604315010", "display_phone": "(760) 431-5010", "distance": 2730.698304301265}, {"id": "5MfunkTmm9lCZz0rJkGvEw", "alias": "pickles-cafe-deli-carlsbad", "name": "Pickle's Cafe Deli", "image_url": "https://s3-media3.fl.yelpcdn.com/bphoto/-Sflq0u_FySVk9Hor1y4DA/o.jpg", "is_closed": false, "url": "https://www.yelp.com/biz/pickles-cafe-deli-carlsbad?adjust_creative=oncXGL2aPIKrtJdnWeFSnA&utm_campaign=yelp_api_v3&utm_medium=api_v3_business_search&utm_source=oncXGL2aPIKrtJdnWeFSnA", "review_count": 47, "categories": [{"alias": "delis", "title": "Delis"}], "rating": 3.0, "coordinates": {"latitude": 33.1391731649637, "longitude": -117.274861782789}, "transactions": [], "price": "$", "location": {"address1": "5670 El Camino Real", "address2": "", "address3": "", "city": "Carlsbad", "zip_code": "92008", "country": "US", "state": "CA", "display_address": ["5670 El Camino Real", "Carlsbad, CA 92008"]}, "phone": "+17604311333", "display_phone": "(760) 431-1333", "distance": 2319.487852555088}, {"id": "NrCxekWK0ZwqXmLna6fVkw", "alias": "garden-restaurant-carlsbad", "name": "Garden Restaurant", "image_url": "https://s3-media3.fl.yelpcdn.com/bphoto/l1psZTO4whhWZayR4AUESA/o.jpg", "is_closed": false, "url": "https://www.yelp.com/biz/garden-restaurant-carlsbad?adjust_creative=oncXGL2aPIKrtJdnWeFSnA&utm_campaign=yelp_api_v3&utm_medium=api_v3_business_search&utm_source=oncXGL2aPIKrtJdnWeFSnA", "review_count": 24, "categories": [{"alias": "delis", "title": "Delis"}, {"alias": "salad", "title": "Salad"}, {"alias": "sandwiches", "title": "Sandwiches"}], "rating": 3.0, "coordinates": {"latitude": 33.1262168884277, "longitude": -117.311088562012}, "transactions": [], "price": "$$", "location": {"address1": "1 Legoland Dr", "address2": "", "address3": "", "city": "Carlsbad", "zip_code": "92008", "country": "US", "state": "CA", "display_address": ["1 Legoland Dr", "Carlsbad, CA 92008"]}, "phone": "+17609185346", "display_phone": "(760) 918-5346", "distance": 2217.2436582321247}], "total": 16, "region": {"center": {"longitude": -117.28866577148438, "latitude": 33.12198326621279}}}