{"businesses": [{"id": "G4tCExEOux5t1zfyDLjxcA", "alias": "pure-burger-carlsbad", "name": "Pure Burger", "image_url": "https://s3-media4.fl.yelpcdn.com/bphoto/v0Ht-pC-UFPzuYA-Pi4z5Q/o.jpg", "is_closed": false, "url": "https://www.yelp.com/biz/pure-burger-carlsbad?adjust_creative=oncXGL2aPIKrtJdnWeFSnA&utm_campaign=yelp_api_v3&utm_medium=api_v3_business_search&utm_source=oncXGL2aPIKrtJdnWeFSnA", "review_count": 767, "categories": [{"alias": "burgers", "title": "Burgers"}, {"alias": "hotdogs", "title": "Fast Food"}, {"alias": "newamerican", "title": "American (New)"}], "rating": 4.0, "coordinates": {"latitude": 33.1268903, "longitude": -117.2541476}, "transactions": ["delivery", "pickup"], "price": "$$", "location": {"address1": "2641 Gateway Rd", "address2": null, "address3": "", "city": "Carlsbad", "zip_code": "92009", "country": "US", "state": "CA", "display_address": ["2641 Gateway Rd", "Carlsbad, CA 92009"]}, "phone": "+17606835101", "display_phone": "(760) 683-5101", "distance": 3260.4526357658924}, {"id": "nRKvaT9vmo_XwTRw6QK16Q", "alias": "surf-brothers-teriyaki-carlsbad", "name": "Surf Brothers Teriyaki", "image_url": "https://s3-media4.fl.yelpcdn.com/bphoto/Qw6in2aB9moeBBHhMa4LYQ/o.jpg", "is_closed": false, "url": "https://www.yelp.com/biz/surf-brothers-teriyaki-carlsbad?adjust_creative=oncXGL2aPIKrtJdnWeFSnA&utm_campaign=yelp_api_v3&utm_medium=api_v3_business_search&utm_source=oncXGL2aPIKrtJdnWeFSnA", "review_count": 251, "categories": [{"alias": "hawaiian", "title": "Hawaiian"}, {"alias": "bbq", "title": "Barbeque"}, {"alias": "hotdogs", "title": "Fast Food"}], "rating": 4.0, "coordinates": {"latitude": 33.13106, "longitude": -117.260566}, "transactions": [], "price": "$", "location": {"address1": "2708 Loker Ave W", "address2": "Ste 103", "address3": "", "city": "Carlsbad", "zip_code": "92010", "country": "US", "state": "CA", "display_address": ["2708 Loker Ave W", "Ste 103", "Carlsbad, CA 92010"]}, "phone": "+17604597973", "display_phone": "(760) 459-7973", "distance": 2804.601645486323}, {"id": "eTiQGScV5TbUfFeH4etwMQ", "alias": "blaze-fast-fired-pizza-carlsbad", "name": "Blaze Fast-Fire'd Pizza", "image_url": "https://s3-media4.fl.yelpcdn.com/bphoto/RdiWPOGfcK5C4bmnuL0MvA/o.jpg", "is_closed": false, "url": "https://www.yelp.com/biz/blaze-fast-fired-pizza-carlsbad?adjust_creative=oncXGL2aPIKrtJdnWeFSnA&utm_campaign=yelp_api_v3&utm_medium=api_v3_business_search&utm_source=oncXGL2aPIKrtJdnWeFSnA", "review_count": 682, "categories": [{"alias": "pizza", "title": "Pizza"}, {"alias": "salad", "title": "Salad"}, {"alias": "hotdogs", "title": "Fast Food"}], "rating": 4.5, "coordinates": {"latitude": 33.1250977336068, "longitude": -117.320182059245}, "transactions": [], "price": "$", "location": {"address1": "5620 Paseo Del Norte", "address2": "", "address3": "", "city": "Carlsbad", "zip_code": "92008", "country": "US", "state": "CA", "display_address": ["5620 Paseo Del Norte", "Carlsbad, CA 92008"]}, "phone": "+17608945029", "display_phone": "(760) 894-5029", "distance": 2955.315742368081}, {"id": "JUF1NuIshtihwYKf_PvVqA", "alias": "naan-n-curry-carlsbad", "name": "Naan N Curry", "image_url": "https://s3-media3.fl.yelpcdn.com/bphoto/6bgU7WKFUFxNbJ3A71R17g/o.jpg", "is_closed": false, "url": "https://www.yelp.com/biz/naan-n-curry-carlsbad?adjust_creative=oncXGL2aPIKrtJdnWeFSnA&utm_campaign=yelp_api_v3&utm_medium=api_v3_business_search&utm_source=oncXGL2aPIKrtJdnWeFSnA", "review_count": 154, "categories": [{"alias": "indpak", "title": "Indian"}, {"alias": "hotdogs", "title": "Fast Food"}], "rating": 4.0, "coordinates": {"latitude": 33.13105, "longitude": -117.26056}, "transactions": ["delivery", "pickup"], "price": "$$", "location": {"address1": "2708 Loker Ave W", "address2": "Ste 104", "address3": "", "city": "Carlsbad", "zip_code": "92010", "country": "US", "state": "CA", "display_address": ["2708 Loker Ave W", "Ste 104", "Carlsbad, CA 92010"]}, "phone": "+17608142996", "display_phone": "(760) 814-2996", "distance": 2808.216653884248}, {"id": "j8vPTZfjUwBZIKHgyFXP9A", "alias": "in-n-out-burger-carlsbad", "name": "In-N-Out Burger", "image_url": "https://s3-media2.fl.yelpcdn.com/bphoto/EGpILzQjNRdYBPbvLeKing/o.jpg", "is_closed": false, "url": "https://www.yelp.com/biz/in-n-out-burger-carlsbad?adjust_creative=oncXGL2aPIKrtJdnWeFSnA&utm_campaign=yelp_api_v3&utm_medium=api_v3_business_search&utm_source=oncXGL2aPIKrtJdnWeFSnA", "review_count": 377, "categories": [{"alias": "hotdogs", "title": "Fast Food"}, {"alias": "burgers", "title": "Burgers"}], "rating": 4.5, "coordinates": {"latitude": 33.12501, "longitude": -117.32458}, "transactions": [], "price": "$", "location": {"address1": "5950 Avenida Encinas", "address2": "", "address3": "", "city": "Carlsbad", "zip_code": "92008", "country": "US", "state": "CA", "display_address": ["5950 Avenida Encinas", "Carlsbad, CA 92008"]}, "phone": "+18007861000", "display_phone": "(800) 786-1000", "distance": 3372.3373293470113}, {"id": "KNzcCh1NBDWFaU9SwKQhKw", "alias": "sourdough-and-co-carlsbad-2", "name": "Sourdough & Co", "image_url": "https://s3-media2.fl.yelpcdn.com/bphoto/IYAo_TE38oqSGCSS06Lasg/o.jpg", "is_closed": false, "url": "https://www.yelp.com/biz/sourdough-and-co-carlsbad-2?adjust_creative=oncXGL2aPIKrtJdnWeFSnA&utm_campaign=yelp_api_v3&utm_medium=api_v3_business_search&utm_source=oncXGL2aPIKrtJdnWeFSnA", "review_count": 50, "categories": [{"alias": "hotdogs", "title": "Fast Food"}, {"alias": "sandwiches", "title": "Sandwiches"}, {"alias": "salad", "title": "Salad"}], "rating": 5.0, "coordinates": {"latitude": 33.1355195, "longitude": -117.2877662}, "transactions": [], "location": {"address1": "5814 Van Allen Way", "address2": "Ste 155", "address3": "", "city": "Carlsbad", "zip_code": "92008", "country": "US", "state": "CA", "display_address": ["5814 Van Allen Way", "Ste 155", "Carlsbad, CA 92008"]}, "phone": "+17608142488", "display_phone": "(760) 814-2488", "distance": 1412.1961200041674}, {"id": "8b2hjebFENFjY4X71cQpwg", "alias": "leap-coffee-carlsbad-3", "name": "Leap Coffee", "image_url": "https://s3-media1.fl.yelpcdn.com/bphoto/bET-Yao-fDUxJ4HBI7gEYw/o.jpg", "is_closed": false, "url": "https://www.yelp.com/biz/leap-coffee-carlsbad-3?adjust_creative=oncXGL2aPIKrtJdnWeFSnA&utm_campaign=yelp_api_v3&utm_medium=api_v3_business_search&utm_source=oncXGL2aPIKrtJdnWeFSnA", "review_count": 189, "categories": [{"alias": "coffee", "title": "Coffee & Tea"}, {"alias": "hotdogs", "title": "Fast Food"}, {"alias": "sandwiches", "title": "Sandwiches"}], "rating": 4.5, "coordinates": {"latitude": 33.140489, "longitude": -117.273316}, "transactions": ["pickup"], "price": "$", "location": {"address1": "5611 Palmer Way", "address2": "Ste D", "address3": null, "city": "Carlsbad", "zip_code": "92010", "country": "US", "state": "CA", "display_address": ["5611 Palmer Way", "Ste D", "Carlsbad, CA 92010"]}, "phone": "+17604486167", "display_phone": "(760) 448-6167", "distance": 2505.4464951345462}, {"id": "jVauXmpg_DhEogkHzYUaMA", "alias": "los-primos-mexican-food-carlsbad", "name": "Los Primos Mexican Food", "image_url": "https://s3-media1.fl.yelpcdn.com/bphoto/Ge2dUeHK97o6WQGdG_6dng/o.jpg", "is_closed": false, "url": "https://www.yelp.com/biz/los-primos-mexican-food-carlsbad?adjust_creative=oncXGL2aPIKrtJdnWeFSnA&utm_campaign=yelp_api_v3&utm_medium=api_v3_business_search&utm_source=oncXGL2aPIKrtJdnWeFSnA", "review_count": 190, "categories": [{"alias": "mexican", "title": "Mexican"}, {"alias": "hotdogs", "title": "Fast Food"}], "rating": 3.0, "coordinates": {"latitude": 33.1310615539551, "longitude": -117.260566711426}, "transactions": ["delivery", "pickup"], "price": "$", "location": {"address1": "2708 Loker Ave W", "address2": "", "address3": "", "city": "Carlsbad", "zip_code": "92010", "country": "US", "state": "CA", "display_address": ["2708 Loker Ave W", "Carlsbad, CA 92010"]}, "phone": "+17604310202", "display_phone": "(760) 431-0202", "distance": 2808.216653884248}, {"id": "hZcTzpbOuJEMyi7NL0kVMQ", "alias": "chipotle-mexican-grill-carlsbad", "name": "Chipotle Mexican Grill", "image_url": "https://s3-media1.fl.yelpcdn.com/bphoto/BYIWE8Nz4MgGXHtJlbZS9g/o.jpg", "is_closed": false, "url": "https://www.yelp.com/biz/chipotle-mexican-grill-carlsbad?adjust_creative=oncXGL2aPIKrtJdnWeFSnA&utm_campaign=yelp_api_v3&utm_medium=api_v3_business_search&utm_source=oncXGL2aPIKrtJdnWeFSnA", "review_count": 107, "categories": [{"alias": "mexican", "title": "Mexican"}, {"alias": "hotdogs", "title": "Fast Food"}], "rating": 3.0, "coordinates": {"latitude": 33.1280757874121, "longitude": -117.270430164746}, "transactions": [], "price": "$", "location": {"address1": "2505 Palomar Airport Rd", "address2": "Bldg 4, Ste 100", "address3": "", "city": "Carlsbad", "zip_code": "92011", "country": "US", "state": "CA", "display_address": ["2505 Palomar Airport Rd", "Bldg 4, Ste 100", "Carlsbad, CA 92011"]}, "phone": "+17606073220", "display_phone": "(760) 607-3220", "distance": 1828.3059666043273}, {"id": "8IqTWWlFDsKMAwVAL6yfxQ", "alias": "five-guys-carlsbad-2", "name": "Five Guys", "image_url": "https://s3-media2.fl.yelpcdn.com/bphoto/t1X-rfkMDELPI1FuRIsFzw/o.jpg", "is_closed": false, "url": "https://www.yelp.com/biz/five-guys-carlsbad-2?adjust_creative=oncXGL2aPIKrtJdnWeFSnA&utm_campaign=yelp_api_v3&utm_medium=api_v3_business_search&utm_source=oncXGL2aPIKrtJdnWeFSnA", "review_count": 80, "categories": [{"alias": "burgers", "title": "Burgers"}, {"alias": "hotdogs", "title": "Fast Food"}, {"alias": "sandwiches", "title": "Sandwiches"}], "rating": 3.0, "coordinates": {"latitude": 33.127761, "longitude": -117.269366}, "transactions": [], "price": "$$", "location": {"address1": "2519 Palomar Airport Rd", "address2": "Ste 100", "address3": "", "city": "Carlsbad", "zip_code": "92011", "country": "US", "state": "CA", "display_address": ["2519 Palomar Airport Rd", "Ste 100", "Carlsbad, CA 92011"]}, "phone": "+17606033295", "display_phone": "(760) 603-3295", "distance": 1908.639730957092}, {"id": "hESQ-5TwOu2fX-CgOjWWag", "alias": "jersey-mikes-subs-carlsbad-4", "name": "Jersey Mike's Subs", "image_url": "https://s3-media4.fl.yelpcdn.com/bphoto/dzWdjIwH4ALDZ9d2OBQpSQ/o.jpg", "is_closed": false, "url": "https://www.yelp.com/biz/jersey-mikes-subs-carlsbad-4?adjust_creative=oncXGL2aPIKrtJdnWeFSnA&utm_campaign=yelp_api_v3&utm_medium=api_v3_business_search&utm_source=oncXGL2aPIKrtJdnWeFSnA", "review_count": 86, "categories": [{"alias": "sandwiches", "title": "Sandwiches"}, {"alias": "hotdogs", "title": "Fast Food"}, {"alias": "delis", "title": "Delis"}], "rating": 3.5, "coordinates": {"latitude": 33.127271, "longitude": -117.269688}, "transactions": [], "price": "$", "location": {"address1": "2521 Palomar Airport Rd", "address2": "Ste 6-104", "address3": "", "city": "Carlsbad", "zip_code": "92011", "country": "US", "state": "CA", "display_address": ["2521 Palomar Airport Rd", "Ste 6-104", "Carlsbad, CA 92011"]}, "phone": "+17604317600", "display_phone": "(760) 431-7600", "distance": 1862.5244345927129}, {"id": "3epmj3epb3vlDCXLNFa-mA", "alias": "el-pollo-loco-carlsbad-2", "name": "El Pollo Loco", "image_url": "https://s3-media2.fl.yelpcdn.com/bphoto/3y3wnme1fL3bc-TbI7-eNA/o.jpg", "is_closed": false, "url": "https://www.yelp.com/biz/el-pollo-loco-carlsbad-2?adjust_creative=oncXGL2aPIKrtJdnWeFSnA&utm_campaign=yelp_api_v3&utm_medium=api_v3_business_search&utm_source=oncXGL2aPIKrtJdnWeFSnA", "review_count": 51, "categories": [{"alias": "hotdogs", "title": "Fast Food"}, {"alias": "mexican", "title": "Mexican"}], "rating": 2.5, "coordinates": {"latitude": 33.1008338928223, "longitude": -117.312072753906}, "transactions": [], "price": "$", "location": {"address1": "7120 Avenida Encinas", "address2": "Ste 104", "address3": "", "city": "Carlsbad", "zip_code": "92011", "country": "US", "state": "CA", "display_address": ["7120 Avenida Encinas", "Ste 104", "Carlsbad, CA 92011"]}, "phone": "+17604310770", "display_phone": "(760) 431-0770", "distance": 3203.2117730040763}, {"id": "RCIu2HPPtxbpbhELaYZlLw", "alias": "togo-s-sandwiches-carlsbad", "name": "Togo\u2019s Sandwiches", "image_url": "https://s3-media1.fl.yelpcdn.com/bphoto/mriE2sxWTQNn9BIpBYLK7A/o.jpg", "is_closed": false, "url": "https://www.yelp.com/biz/togo-s-sandwiches-carlsbad?adjust_creative=oncXGL2aPIKrtJdnWeFSnA&utm_campaign=yelp_api_v3&utm_medium=api_v3_business_search&utm_source=oncXGL2aPIKrtJdnWeFSnA", "review_count": 52, "categories": [{"alias": "sandwiches", "title": "Sandwiches"}, {"alias": "delis", "title": "Delis"}, {"alias": "hotdogs", "title": "Fast Food"}], "rating": 3.5, "coordinates": {"latitude": 33.1048346, "longitude": -117.2671761}, "transactions": ["delivery", "pickup"], "price": "$", "location": {"address1": "6943 El Camino Real", "address2": "Ste F-105", "address3": "", "city": "Carlsbad", "zip_code": "92009", "country": "US", "state": "CA", "display_address": ["6943 El Camino Real", "Ste F-105", "Carlsbad, CA 92009"]}, "phone": "+17604315010", "display_phone": "(760) 431-5010", "distance": 2730.698304301265}, {"id": "YvUXMzn9vGyrtk29YNB0lw", "alias": "panda-express-carlsbad", "name": "Panda Express", "image_url": "https://s3-media2.fl.yelpcdn.com/bphoto/k0ndYAA2R6dft9Um9Q_W9g/o.jpg", "is_closed": false, "url": "https://www.yelp.com/biz/panda-express-carlsbad?adjust_creative=oncXGL2aPIKrtJdnWeFSnA&utm_campaign=yelp_api_v3&utm_medium=api_v3_business_search&utm_source=oncXGL2aPIKrtJdnWeFSnA", "review_count": 27, "categories": [{"alias": "chinese", "title": "Chinese"}, {"alias": "hotdogs", "title": "Fast Food"}], "rating": 3.0, "coordinates": {"latitude": 33.1034164428711, "longitude": -117.268577575684}, "transactions": [], "price": "$", "location": {"address1": "6951 El Camino Real", "address2": "", "address3": "", "city": "Carlsbad", "zip_code": "92009", "country": "US", "state": "CA", "display_address": ["6951 El Camino Real", "Carlsbad, CA 92009"]}, "phone": "+17604311061", "display_phone": "(760) 431-1061", "distance": 2774.2886343415544}, {"id": "RGe0OnD9WgHzDVqjVf31Og", "alias": "mcdonalds-carlsbad-3", "name": "McDonald's", "image_url": "https://s3-media4.fl.yelpcdn.com/bphoto/C9F_4zCQzOUegHxKnMLTPg/o.jpg", "is_closed": false, "url": "https://www.yelp.com/biz/mcdonalds-carlsbad-3?adjust_creative=oncXGL2aPIKrtJdnWeFSnA&utm_campaign=yelp_api_v3&utm_medium=api_v3_business_search&utm_source=oncXGL2aPIKrtJdnWeFSnA", "review_count": 110, "categories": [{"alias": "burgers", "title": "Burgers"}, {"alias": "hotdogs", "title": "Fast Food"}, {"alias": "coffee", "title": "Coffee & Tea"}], "rating": 2.0, "coordinates": {"latitude": 33.1226277408201, "longitude": -117.324233878444}, "transactions": [], "price": "$", "location": {"address1": "5990 Avenida Encinas", "address2": "", "address3": "", "city": "Carlsbad", "zip_code": "92008", "country": "US", "state": "CA", "display_address": ["5990 Avenida Encinas", "Carlsbad, CA 92008"]}, "phone": "+17609319311", "display_phone": "(760) 931-9311", "distance": 3313.10204114934}, {"id": "254I8RezKN4fgS3sXd_DBg", "alias": "robertos-mexican-food-leucadia-encinitas-2", "name": "Roberto's Mexican Food - Leucadia", "image_url": "https://s3-media3.fl.yelpcdn.com/bphoto/Zdq8xDKWTEuPP1jliVgLrg/o.jpg", "is_closed": false, "url": "https://www.yelp.com/biz/robertos-mexican-food-leucadia-encinitas-2?adjust_creative=oncXGL2aPIKrtJdnWeFSnA&utm_campaign=yelp_api_v3&utm_medium=api_v3_business_search&utm_source=oncXGL2aPIKrtJdnWeFSnA", "review_count": 150, "categories": [{"alias": "mexican", "title": "Mexican"}, {"alias": "hotdogs", "title": "Fast Food"}], "rating": 3.5, "coordinates": {"latitude": 33.08062, "longitude": -117.30811}, "transactions": [], "price": "$", "location": {"address1": "1900 N Coast Hwy 101", "address2": "", "address3": "", "city": "Encinitas", "zip_code": "92024", "country": "US", "state": "CA", "display_address": ["1900 N Coast Hwy 101", "Encinitas, CA 92024"]}, "phone": "+17602301593", "display_phone": "(760) 230-1593", "distance": 4947.51819500308}, {"id": "H6okoTNYFxiVAbHmJl9QaQ", "alias": "taco-bell-carlsbad-2", "name": "Taco Bell", "image_url": "https://s3-media2.fl.yelpcdn.com/bphoto/TYW2NGqc_JdFoDNX5AaGlQ/o.jpg", "is_closed": false, "url": "https://www.yelp.com/biz/taco-bell-carlsbad-2?adjust_creative=oncXGL2aPIKrtJdnWeFSnA&utm_campaign=yelp_api_v3&utm_medium=api_v3_business_search&utm_source=oncXGL2aPIKrtJdnWeFSnA", "review_count": 74, "categories": [{"alias": "hotdogs", "title": "Fast Food"}], "rating": 2.0, "coordinates": {"latitude": 33.1211, "longitude": -117.319693230093}, "transactions": ["delivery"], "price": "$", "location": {"address1": "6017 Paseo Del Norte", "address2": "", "address3": "", "city": "Carlsbad", "zip_code": "92011", "country": "US", "state": "CA", "display_address": ["6017 Paseo Del Norte", "Carlsbad, CA 92011"]}, "phone": "+17609317880", "display_phone": "(760) 931-7880", "distance": 2891.166874255368}, {"id": "W66-XOaXVSM98nGLe1qUTA", "alias": "burger-stop-carlsbad", "name": "Burger Stop", "image_url": "https://s3-media1.fl.yelpcdn.com/bphoto/M4Bi2eyelIP9YQuwD7a3JA/o.jpg", "is_closed": false, "url": "https://www.yelp.com/biz/burger-stop-carlsbad?adjust_creative=oncXGL2aPIKrtJdnWeFSnA&utm_campaign=yelp_api_v3&utm_medium=api_v3_business_search&utm_source=oncXGL2aPIKrtJdnWeFSnA", "review_count": 10, "categories": [{"alias": "tradamerican", "title": "American (Traditional)"}, {"alias": "burgers", "title": "Burgers"}, {"alias": "hotdogs", "title": "Fast Food"}], "rating": 3.5, "coordinates": {"latitude": 33.1261547194601, "longitude": -117.31204247022}, "transactions": [], "price": "$$", "location": {"address1": "1 Legoland Dr", "address2": "", "address3": "", "city": "Carlsbad", "zip_code": "92008", "country": "US", "state": "CA", "display_address": ["1 Legoland Dr", "Carlsbad, CA 92008"]}, "phone": "+17609185346", "display_phone": "(760) 918-5346", "distance": 2225.809657128754}, {"id": "b1oik1z7AUZ943ctnLHkMA", "alias": "panda-express-carlsbad-4", "name": "Panda Express", "image_url": "https://s3-media4.fl.yelpcdn.com/bphoto/gxwZBeWZXRwRQ5KI9tDbDg/o.jpg", "is_closed": false, "url": "https://www.yelp.com/biz/panda-express-carlsbad-4?adjust_creative=oncXGL2aPIKrtJdnWeFSnA&utm_campaign=yelp_api_v3&utm_medium=api_v3_business_search&utm_source=oncXGL2aPIKrtJdnWeFSnA", "review_count": 85, "categories": [{"alias": "hotdogs", "title": "Fast Food"}, {"alias": "chinese", "title": "Chinese"}], "rating": 2.5, "coordinates": {"latitude": 33.1254723, "longitude": -117.3222824}, "transactions": [], "price": "$", "location": {"address1": "5630 Paseo Del Norte", "address2": "Ste 141", "address3": "Carlsbad Premium Outlets Mall", "city": "Carlsbad", "zip_code": "92008", "country": "US", "state": "CA", "display_address": ["5630 Paseo Del Norte", "Ste 141", "Carlsbad Premium Outlets Mall", "Carlsbad, CA 92008"]}, "phone": "+17606038830", "display_phone": "(760) 603-8830", "distance": 3065.567001813849}, {"id": "dQUD1BDATKI1KfHosjDFXw", "alias": "jack-in-the-box-carlsbad", "name": "Jack In the Box", "image_url": "https://s3-media4.fl.yelpcdn.com/bphoto/7A8og9zP6yC-jJ3mMrz--w/o.jpg", "is_closed": false, "url": "https://www.yelp.com/biz/jack-in-the-box-carlsbad?adjust_creative=oncXGL2aPIKrtJdnWeFSnA&utm_campaign=yelp_api_v3&utm_medium=api_v3_business_search&utm_source=oncXGL2aPIKrtJdnWeFSnA", "review_count": 31, "categories": [{"alias": "burgers", "title": "Burgers"}, {"alias": "hotdogs", "title": "Fast Food"}], "rating": 3.0, "coordinates": {"latitude": 33.10174, "longitude": -117.31252}, "transactions": ["delivery"], "price": "$", "location": {"address1": "7050 Avenida Encinas", "address2": "", "address3": "", "city": "Carlsbad", "zip_code": "92009", "country": "US", "state": "CA", "display_address": ["7050 Avenida Encinas", "Carlsbad, CA 92009"]}, "phone": "+17604381461", "display_phone": "(760) 438-1461", "distance": 3155.4965749545895}, {"id": "2ZpLOLv6dwiX0M5TK_Q4VA", "alias": "subway-carlsbad-9", "name": "Subway", "image_url": "https://s3-media2.fl.yelpcdn.com/bphoto/Kb5PcdGCsBzZINLw-GEirQ/o.jpg", "is_closed": false, "url": "https://www.yelp.com/biz/subway-carlsbad-9?adjust_creative=oncXGL2aPIKrtJdnWeFSnA&utm_campaign=yelp_api_v3&utm_medium=api_v3_business_search&utm_source=oncXGL2aPIKrtJdnWeFSnA", "review_count": 10, "categories": [{"alias": "sandwiches", "title": "Sandwiches"}, {"alias": "hotdogs", "title": "Fast Food"}], "rating": 4.0, "coordinates": {"latitude": 33.1035957957119, "longitude": -117.265947998988}, "transactions": ["delivery", "pickup"], "price": "$", "location": {"address1": "6994 El Camino Real", "address2": "Ste 100", "address3": "", "city": "Carlsbad", "zip_code": "92009", "country": "US", "state": "CA", "display_address": ["6994 El Camino Real", "Ste 100", "Carlsbad, CA 92009"]}, "phone": "+17605790016", "display_phone": "(760) 579-0016", "distance": 2942.3089138672917}, {"id": "Fe7s65jfsdmLjrPZdQ96Yw", "alias": "subway-carlsbad-3", "name": "Subway", "image_url": "https://s3-media4.fl.yelpcdn.com/bphoto/nd09WhpZ0gTpe4A5VenrkQ/o.jpg", "is_closed": false, "url": "https://www.yelp.com/biz/subway-carlsbad-3?adjust_creative=oncXGL2aPIKrtJdnWeFSnA&utm_campaign=yelp_api_v3&utm_medium=api_v3_business_search&utm_source=oncXGL2aPIKrtJdnWeFSnA", "review_count": 48, "categories": [{"alias": "sandwiches", "title": "Sandwiches"}, {"alias": "hotdogs", "title": "Fast Food"}], "rating": 3.0, "coordinates": {"latitude": 33.12129, "longitude": -117.31881}, "transactions": ["delivery", "pickup"], "price": "$", "location": {"address1": "6020 Paseo Del Norte", "address2": "Ste D", "address3": "", "city": "Carlsbad", "zip_code": "92009", "country": "US", "state": "CA", "display_address": ["6020 Paseo Del Norte", "Ste D", "Carlsbad, CA 92009"]}, "phone": "+17604319134", "display_phone": "(760) 431-9134", "distance": 2800.076302922822}, {"id": "IZZEjqLkq3A8Wg4ZiCcS5w", "alias": "carls-jr-carlsbad-3", "name": "Carl's Jr", "image_url": "https://s3-media2.fl.yelpcdn.com/bphoto/kM3-ZeuiTnIAtHXrRf_ALg/o.jpg", "is_closed": false, "url": "https://www.yelp.com/biz/carls-jr-carlsbad-3?adjust_creative=oncXGL2aPIKrtJdnWeFSnA&utm_campaign=yelp_api_v3&utm_medium=api_v3_business_search&utm_source=oncXGL2aPIKrtJdnWeFSnA", "review_count": 52, "categories": [{"alias": "hotdogs", "title": "Fast Food"}, {"alias": "burgers", "title": "Burgers"}], "rating": 2.0, "coordinates": {"latitude": 33.1216430664062, "longitude": -117.317687988281}, "transactions": [], "price": "$", "location": {"address1": "925 Palomar Airport Rd", "address2": "", "address3": "", "city": "Carlsbad", "zip_code": "92009", "country": "US", "state": "CA", "display_address": ["925 Palomar Airport Rd", "Carlsbad, CA 92009"]}, "phone": "+17604381132", "display_phone": "(760) 438-1132", "distance": 2765.105263351088}, {"id": "8uzZgaS91PnWmVRlcC7XNw", "alias": "subway-carlsbad-2", "name": "Subway", "image_url": "https://s3-media2.fl.yelpcdn.com/bphoto/lTH6kuk3j8QY6vtjLNMzRg/o.jpg", "is_closed": false, "url": "https://www.yelp.com/biz/subway-carlsbad-2?adjust_creative=oncXGL2aPIKrtJdnWeFSnA&utm_campaign=yelp_api_v3&utm_medium=api_v3_business_search&utm_source=oncXGL2aPIKrtJdnWeFSnA", "review_count": 37, "categories": [{"alias": "sandwiches", "title": "Sandwiches"}, {"alias": "hotdogs", "title": "Fast Food"}], "rating": 2.5, "coordinates": {"latitude": 33.130909, "longitude": -117.260495}, "transactions": ["delivery", "pickup"], "price": "$", "location": {"address1": "2708 Loker Ave W", "address2": "Ste 101, Bldg B", "address3": "", "city": "Carlsbad", "zip_code": "92010", "country": "US", "state": "CA", "display_address": ["2708 Loker Ave W", "Ste 101, Bldg B", "Carlsbad, CA 92010"]}, "phone": "+17604315279", "display_phone": "(760) 431-5279", "distance": 2804.7881665639325}, {"id": "nW4dlm1kYr1AcK5pxpt24g", "alias": "panda-wok-vista-4", "name": "Panda Wok", "image_url": "https://s3-media2.fl.yelpcdn.com/bphoto/KoZOCJzmAJMUwuanTM5Gqg/o.jpg", "is_closed": false, "url": "https://www.yelp.com/biz/panda-wok-vista-4?adjust_creative=oncXGL2aPIKrtJdnWeFSnA&utm_campaign=yelp_api_v3&utm_medium=api_v3_business_search&utm_source=oncXGL2aPIKrtJdnWeFSnA", "review_count": 49, "categories": [{"alias": "hotdogs", "title": "Fast Food"}, {"alias": "chinese", "title": "Chinese"}], "rating": 3.0, "coordinates": {"latitude": 33.1659035, "longitude": -117.2467837}, "transactions": ["delivery", "pickup"], "price": "$", "location": {"address1": "1611 S Melrose Dr", "address2": "Ste O", "address3": null, "city": "Vista", "zip_code": "92081", "country": "US", "state": "CA", "display_address": ["1611 S Melrose Dr", "Ste O", "Vista, CA 92081"]}, "phone": "+14422045700", "display_phone": "(442) 204-5700", "distance": 6152.815681669951}, {"id": "LWitvltGW2qis21k-92KpA", "alias": "subway-carlsbad-10", "name": "Subway", "image_url": "https://s3-media1.fl.yelpcdn.com/bphoto/AIGJu-E_UvbdPbA2Td1ZCw/o.jpg", "is_closed": false, "url": "https://www.yelp.com/biz/subway-carlsbad-10?adjust_creative=oncXGL2aPIKrtJdnWeFSnA&utm_campaign=yelp_api_v3&utm_medium=api_v3_business_search&utm_source=oncXGL2aPIKrtJdnWeFSnA", "review_count": 26, "categories": [{"alias": "sandwiches", "title": "Sandwiches"}, {"alias": "hotdogs", "title": "Fast Food"}], "rating": 2.0, "coordinates": {"latitude": 33.101257, "longitude": -117.311394}, "transactions": [], "price": "$", "location": {"address1": "7110 Avenida Encinas", "address2": "Ste 100", "address3": "", "city": "Carlsbad", "zip_code": "92011", "country": "US", "state": "CA", "display_address": ["7110 Avenida Encinas", "Ste 100", "Carlsbad, CA 92011"]}, "phone": "+17604769907", "display_phone": "(760) 476-9907", "distance": 3130.3270912612547}, {"id": "ReK4Q8IaXAPSoWqv79NfDg", "alias": "subway-vista-6", "name": "Subway", "image_url": "https://s3-media1.fl.yelpcdn.com/bphoto/Thb_QZqLYP5Ux_BX8k0rAw/o.jpg", "is_closed": false, "url": "https://www.yelp.com/biz/subway-vista-6?adjust_creative=oncXGL2aPIKrtJdnWeFSnA&utm_campaign=yelp_api_v3&utm_medium=api_v3_business_search&utm_source=oncXGL2aPIKrtJdnWeFSnA", "review_count": 24, "categories": [{"alias": "sandwiches", "title": "Sandwiches"}, {"alias": "hotdogs", "title": "Fast Food"}], "rating": 3.0, "coordinates": {"latitude": 33.165311, "longitude": -117.2463694}, "transactions": ["delivery", "pickup"], "price": "$", "location": {"address1": "1651 S Melrose Dr", "address2": "Ste B", "address3": "", "city": "Vista", "zip_code": "92081", "country": "US", "state": "CA", "display_address": ["1651 S Melrose Dr", "Ste B", "Vista, CA 92081"]}, "phone": "+17605979906", "display_phone": "(760) 597-9906", "distance": 6163.247019390779}, {"id": "-KSlaNFJ0bfsb7Vq4qKliQ", "alias": "subway-vista-15", "name": "Subway", "image_url": "", "is_closed": false, "url": "https://www.yelp.com/biz/subway-vista-15?adjust_creative=oncXGL2aPIKrtJdnWeFSnA&utm_campaign=yelp_api_v3&utm_medium=api_v3_business_search&utm_source=oncXGL2aPIKrtJdnWeFSnA", "review_count": 7, "categories": [{"alias": "sandwiches", "title": "Sandwiches"}, {"alias": "hotdogs", "title": "Fast Food"}], "rating": 1.0, "coordinates": {"latitude": 33.1653099, "longitude": -117.2463684}, "transactions": [], "location": {"address1": "1651 S Melrose Dr", "address2": "", "address3": "", "city": "Vista", "zip_code": "92081", "country": "US", "state": "CA", "display_address": ["1651 S Melrose Dr", "Vista, CA 92081"]}, "phone": "+17607275154", "display_phone": "(760) 727-5154", "distance": 6163.247019390779}], "total": 28, "region": {"center": {"longitude": -117.28866577148438, "latitude": 33.12198326621279}}}