{"businesses": [{"id": "d7BWosg1jl0TSI325fFMAw", "alias": "7-mile-kitchen-carlsbad", "name": "7 Mile Kitchen", "image_url": "https://s3-media2.fl.yelpcdn.com/bphoto/-MrjKPdeIX99iMbyxBIVPw/o.jpg", "is_closed": false, "url": "https://www.yelp.com/biz/7-mile-kitchen-carlsbad?adjust_creative=oncXGL2aPIKrtJdnWeFSnA&utm_campaign=yelp_api_v3&utm_medium=api_v3_business_search&utm_source=oncXGL2aPIKrtJdnWeFSnA", "review_count": 84, "categories": [{"alias": "newamerican", "title": "American (New)"}, {"alias": "pizza", "title": "Pizza"}, {"alias": "burgers", "title": "Burgers"}], "rating": 3.5, "coordinates": {"latitude": 33.1327473, "longitude": -117.3118966}, "transactions": [], "price": "$$", "location": {"address1": "5420 Grand Pacific Dr", "address2": null, "address3": "", "city": "Carlsbad", "zip_code": "92008", "country": "US", "state": "CA", "display_address": ["5420 Grand Pacific Dr", "Carlsbad, CA 92008"]}, "phone": "+17608272514", "display_phone": "(760) 827-2514", "distance": 2472.31626291649}, {"id": "eTiQGScV5TbUfFeH4etwMQ", "alias": "blaze-fast-fired-pizza-carlsbad", "name": "Blaze Fast-Fire'd Pizza", "image_url": "https://s3-media4.fl.yelpcdn.com/bphoto/RdiWPOGfcK5C4bmnuL0MvA/o.jpg", "is_closed": false, "url": "https://www.yelp.com/biz/blaze-fast-fired-pizza-carlsbad?adjust_creative=oncXGL2aPIKrtJdnWeFSnA&utm_campaign=yelp_api_v3&utm_medium=api_v3_business_search&utm_source=oncXGL2aPIKrtJdnWeFSnA", "review_count": 682, "categories": [{"alias": "pizza", "title": "Pizza"}, {"alias": "salad", "title": "Salad"}, {"alias": "hotdogs", "title": "Fast Food"}], "rating": 4.5, "coordinates": {"latitude": 33.1250977336068, "longitude": -117.320182059245}, "transactions": [], "price": "$", "location": {"address1": "5620 Paseo Del Norte", "address2": "", "address3": "", "city": "Carlsbad", "zip_code": "92008", "country": "US", "state": "CA", "display_address": ["5620 Paseo Del Norte", "Carlsbad, CA 92008"]}, "phone": "+17608945029", "display_phone": "(760) 894-5029", "distance": 2955.315742368081}, {"id": "t93BSZqSbW7e6MpPXVhz2g", "alias": "primo-pizza-and-pasta-carlsbad-2", "name": "Primo Pizza & Pasta", "image_url": "https://s3-media2.fl.yelpcdn.com/bphoto/E7_2a5JKHkvutKdrriCcew/o.jpg", "is_closed": false, "url": "https://www.yelp.com/biz/primo-pizza-and-pasta-carlsbad-2?adjust_creative=oncXGL2aPIKrtJdnWeFSnA&utm_campaign=yelp_api_v3&utm_medium=api_v3_business_search&utm_source=oncXGL2aPIKrtJdnWeFSnA", "review_count": 316, "categories": [{"alias": "pizza", "title": "Pizza"}, {"alias": "italian", "title": "Italian"}, {"alias": "salad", "title": "Salad"}], "rating": 4.0, "coordinates": {"latitude": 33.10132, "longitude": -117.31131}, "transactions": ["delivery", "pickup"], "price": "$", "location": {"address1": "7110 Avenida Encinas", "address2": "Ste 103", "address3": "", "city": "Carlsbad", "zip_code": "92011", "country": "US", "state": "CA", "display_address": ["7110 Avenida Encinas", "Ste 103", "Carlsbad, CA 92011"]}, "phone": "+17604317155", "display_phone": "(760) 431-7155", "distance": 3074.515587889647}, {"id": "Pk1RB_ymVaY1ZK4XcskvYQ", "alias": "bjs-restaurant-and-brewhouse-carlsbad-2", "name": "BJ's Restaurant & Brewhouse", "image_url": "https://s3-media2.fl.yelpcdn.com/bphoto/bpLbi_sIatXNr6NLy87DLg/o.jpg", "is_closed": false, "url": "https://www.yelp.com/biz/bjs-restaurant-and-brewhouse-carlsbad-2?adjust_creative=oncXGL2aPIKrtJdnWeFSnA&utm_campaign=yelp_api_v3&utm_medium=api_v3_business_search&utm_source=oncXGL2aPIKrtJdnWeFSnA", "review_count": 847, "categories": [{"alias": "breweries", "title": "Breweries"}, {"alias": "newamerican", "title": "American (New)"}, {"alias": "pizza", "title": "Pizza"}], "rating": 3.0, "coordinates": {"latitude": 33.127135, "longitude": -117.324024}, "transactions": ["delivery"], "price": "$$", "location": {"address1": "5613 Paseo Del Norte", "address2": "", "address3": "", "city": "Carlsbad", "zip_code": "92008", "country": "US", "state": "CA", "display_address": ["5613 Paseo Del Norte", "Carlsbad, CA 92008"]}, "phone": "+17605794440", "display_phone": "(760) 579-4440", "distance": 3342.1561143164577}, {"id": "eWIgR7DeS7BnKbFtIp-m4w", "alias": "pizza-port-bressi-ranch-carlsbad", "name": "Pizza Port Bressi Ranch", "image_url": "https://s3-media2.fl.yelpcdn.com/bphoto/I4DZ4hgRvvei0oqrTyvsXQ/o.jpg", "is_closed": false, "url": "https://www.yelp.com/biz/pizza-port-bressi-ranch-carlsbad?adjust_creative=oncXGL2aPIKrtJdnWeFSnA&utm_campaign=yelp_api_v3&utm_medium=api_v3_business_search&utm_source=oncXGL2aPIKrtJdnWeFSnA", "review_count": 517, "categories": [{"alias": "pizza", "title": "Pizza"}, {"alias": "pubs", "title": "Pubs"}], "rating": 3.5, "coordinates": {"latitude": 33.1283833252746, "longitude": -117.25021150388}, "transactions": ["pickup"], "price": "$$", "location": {"address1": "2730 Gateway Rd", "address2": null, "address3": "", "city": "Carlsbad", "zip_code": "92009", "country": "US", "state": "CA", "display_address": ["2730 Gateway Rd", "Carlsbad, CA 92009"]}, "phone": "+17607071655", "display_phone": "(760) 707-1655", "distance": 3651.016146488111}, {"id": "d1WKFhg5l_LCgnMHs140hQ", "alias": "pieology-pizzeria-carlsbad", "name": "Pieology Pizzeria", "image_url": "https://s3-media2.fl.yelpcdn.com/bphoto/EqC44ep-lYF3vLMwIQNM3Q/o.jpg", "is_closed": false, "url": "https://www.yelp.com/biz/pieology-pizzeria-carlsbad?adjust_creative=oncXGL2aPIKrtJdnWeFSnA&utm_campaign=yelp_api_v3&utm_medium=api_v3_business_search&utm_source=oncXGL2aPIKrtJdnWeFSnA", "review_count": 200, "categories": [{"alias": "pizza", "title": "Pizza"}], "rating": 4.0, "coordinates": {"latitude": 33.1272292, "longitude": -117.253689}, "transactions": [], "price": "$", "location": {"address1": "2647 Gateway Rd", "address2": "Ste 101", "address3": null, "city": "Carlsbad", "zip_code": "92009", "country": "US", "state": "CA", "display_address": ["2647 Gateway Rd", "Ste 101", "Carlsbad, CA 92009"]}, "phone": "+17609308988", "display_phone": "(760) 930-8988", "distance": 3288.6286346275983}, {"id": "PSR6JnOP5r87fuwjyiY4gA", "alias": "criscito-pizza-carlsbad", "name": "Criscito Pizza", "image_url": "https://s3-media2.fl.yelpcdn.com/bphoto/C_ZZ08EGtYZJUyqX3DZzdA/o.jpg", "is_closed": false, "url": "https://www.yelp.com/biz/criscito-pizza-carlsbad?adjust_creative=oncXGL2aPIKrtJdnWeFSnA&utm_campaign=yelp_api_v3&utm_medium=api_v3_business_search&utm_source=oncXGL2aPIKrtJdnWeFSnA", "review_count": 81, "categories": [{"alias": "pizza", "title": "Pizza"}, {"alias": "foodtrucks", "title": "Food Trucks"}], "rating": 4.5, "coordinates": {"latitude": 33.148057, "longitude": -117.305483}, "transactions": [], "price": "$$", "location": {"address1": "", "address2": "", "address3": "", "city": "Carlsbad", "zip_code": "92008", "country": "US", "state": "CA", "display_address": ["Carlsbad, CA 92008"]}, "phone": "+17603319638", "display_phone": "(760) 331-9638", "distance": 3655.902635888155}, {"id": "B2opzGJ5QPVo4Sx3W5giWw", "alias": "carlsbad-pizza-by-the-slice-carlsbad-2", "name": "Carlsbad Pizza by the Slice", "image_url": "https://s3-media1.fl.yelpcdn.com/bphoto/G5yKlnEPLn5IP8shqPFZ6g/o.jpg", "is_closed": false, "url": "https://www.yelp.com/biz/carlsbad-pizza-by-the-slice-carlsbad-2?adjust_creative=oncXGL2aPIKrtJdnWeFSnA&utm_campaign=yelp_api_v3&utm_medium=api_v3_business_search&utm_source=oncXGL2aPIKrtJdnWeFSnA", "review_count": 84, "categories": [{"alias": "pizza", "title": "Pizza"}, {"alias": "chicken_wings", "title": "Chicken Wings"}], "rating": 4.0, "coordinates": {"latitude": 33.1358124, "longitude": -117.2878189}, "transactions": ["delivery", "pickup"], "price": "$", "location": {"address1": "5812 Van Allen Way", "address2": "Ste 130", "address3": "", "city": "Carlsbad", "zip_code": "92008", "country": "US", "state": "CA", "display_address": ["5812 Van Allen Way", "Ste 130", "Carlsbad, CA 92008"]}, "phone": "+17604318704", "display_phone": "(760) 431-8704", "distance": 1539.7485958405143}, {"id": "QkeyoOXj1V7I7_gkWsOhOg", "alias": "red-oven-artisanal-pizza-carlsbad-4", "name": "Red Oven Artisanal Pizza", "image_url": "https://s3-media2.fl.yelpcdn.com/bphoto/NObu10C3JQoIrM8wvJ13xw/o.jpg", "is_closed": false, "url": "https://www.yelp.com/biz/red-oven-artisanal-pizza-carlsbad-4?adjust_creative=oncXGL2aPIKrtJdnWeFSnA&utm_campaign=yelp_api_v3&utm_medium=api_v3_business_search&utm_source=oncXGL2aPIKrtJdnWeFSnA", "review_count": 165, "categories": [{"alias": "pizza", "title": "Pizza"}, {"alias": "catering", "title": "Caterers"}, {"alias": "foodtrucks", "title": "Food Trucks"}], "rating": 4.5, "coordinates": {"latitude": 33.0892333984375, "longitude": -117.254249572754}, "transactions": [], "price": "$$", "location": {"address1": "", "address2": "", "address3": "", "city": "Carlsbad", "zip_code": "92009", "country": "US", "state": "CA", "display_address": ["Carlsbad, CA 92009"]}, "phone": "+17608141688", "display_phone": "(760) 814-1688", "distance": 4657.950928045217}, {"id": "c4JMxplh7LSKotJWZTXMEg", "alias": "allens-new-york-pizza-carlsbad", "name": "Allen's New York Pizza", "image_url": "https://s3-media2.fl.yelpcdn.com/bphoto/J3Y5R-ljCiB6QTo_b6_MBg/o.jpg", "is_closed": false, "url": "https://www.yelp.com/biz/allens-new-york-pizza-carlsbad?adjust_creative=oncXGL2aPIKrtJdnWeFSnA&utm_campaign=yelp_api_v3&utm_medium=api_v3_business_search&utm_source=oncXGL2aPIKrtJdnWeFSnA", "review_count": 224, "categories": [{"alias": "pizza", "title": "Pizza"}, {"alias": "italian", "title": "Italian"}], "rating": 3.5, "coordinates": {"latitude": 33.1042566703733, "longitude": -117.268763358981}, "transactions": ["delivery", "pickup"], "price": "$", "location": {"address1": "6943 El Camino Real", "address2": "", "address3": "", "city": "Carlsbad", "zip_code": "92009", "country": "US", "state": "CA", "display_address": ["6943 El Camino Real", "Carlsbad, CA 92009"]}, "phone": "+17609189999", "display_phone": "(760) 918-9999", "distance": 2705.7732482093925}, {"id": "iaV-0DI3Mky4WO0uhydohQ", "alias": "grand-slam-pizza-vista", "name": "Grand Slam Pizza", "image_url": "https://s3-media2.fl.yelpcdn.com/bphoto/4H1vJ2M3_tXyylSJFK1bWQ/o.jpg", "is_closed": false, "url": "https://www.yelp.com/biz/grand-slam-pizza-vista?adjust_creative=oncXGL2aPIKrtJdnWeFSnA&utm_campaign=yelp_api_v3&utm_medium=api_v3_business_search&utm_source=oncXGL2aPIKrtJdnWeFSnA", "review_count": 81, "categories": [{"alias": "pizza", "title": "Pizza"}, {"alias": "sportsbars", "title": "Sports Bars"}, {"alias": "italian", "title": "Italian"}], "rating": 5.0, "coordinates": {"latitude": 33.15787, "longitude": -117.24943}, "transactions": ["delivery", "pickup"], "location": {"address1": "1910 Shadowridge Dr", "address2": "Ste 101", "address3": null, "city": "Vista", "zip_code": "92081", "country": "US", "state": "CA", "display_address": ["1910 Shadowridge Dr", "Ste 101", "Vista, CA 92081"]}, "phone": "+17605991199", "display_phone": "(760) 599-1199", "distance": 5438.526001734605}, {"id": "FRQ6rb-uvF5CGO_KhNXt0A", "alias": "flippin-pizza-la-costa", "name": "Flippin' Pizza", "image_url": "https://s3-media2.fl.yelpcdn.com/bphoto/4l7W4UG2XcxuxhA8WUy1DQ/o.jpg", "is_closed": false, "url": "https://www.yelp.com/biz/flippin-pizza-la-costa?adjust_creative=oncXGL2aPIKrtJdnWeFSnA&utm_campaign=yelp_api_v3&utm_medium=api_v3_business_search&utm_source=oncXGL2aPIKrtJdnWeFSnA", "review_count": 179, "categories": [{"alias": "pizza", "title": "Pizza"}], "rating": 3.5, "coordinates": {"latitude": 33.0858811396586, "longitude": -117.266553096787}, "transactions": ["delivery"], "price": "$", "location": {"address1": "7662 El Camino Real", "address2": "", "address3": "", "city": "La Costa", "zip_code": "92009", "country": "US", "state": "CA", "display_address": ["7662 El Camino Real", "La Costa, CA 92009"]}, "phone": "+17604367499", "display_phone": "(760) 436-7499", "distance": 4511.9322429586855}, {"id": "E3HZhCH3w_zEOmcaHmlvBg", "alias": "dominos-pizza-carlsbad-4", "name": "Domino's Pizza", "image_url": "https://s3-media2.fl.yelpcdn.com/bphoto/Q5mLrFV3X9J2y7ly2jwu_A/o.jpg", "is_closed": false, "url": "https://www.yelp.com/biz/dominos-pizza-carlsbad-4?adjust_creative=oncXGL2aPIKrtJdnWeFSnA&utm_campaign=yelp_api_v3&utm_medium=api_v3_business_search&utm_source=oncXGL2aPIKrtJdnWeFSnA", "review_count": 61, "categories": [{"alias": "pizza", "title": "Pizza"}], "rating": 3.0, "coordinates": {"latitude": 33.10401, "longitude": -117.26627}, "transactions": [], "price": "$", "location": {"address1": "6986 El Camino Real", "address2": "Ste A", "address3": "", "city": "Carlsbad", "zip_code": "92009", "country": "US", "state": "CA", "display_address": ["6986 El Camino Real", "Ste A", "Carlsbad, CA 92009"]}, "phone": "+17604383033", "display_phone": "(760) 438-3033", "distance": 2852.1474771930466}, {"id": "iDqjGpLfBOUNBD0bZUPHTA", "alias": "pizza-hut-carlsbad-4", "name": "Pizza Hut", "image_url": "https://s3-media2.fl.yelpcdn.com/bphoto/rMVZqWULh1ri3noZ5FjIAw/o.jpg", "is_closed": false, "url": "https://www.yelp.com/biz/pizza-hut-carlsbad-4?adjust_creative=oncXGL2aPIKrtJdnWeFSnA&utm_campaign=yelp_api_v3&utm_medium=api_v3_business_search&utm_source=oncXGL2aPIKrtJdnWeFSnA", "review_count": 34, "categories": [{"alias": "pizza", "title": "Pizza"}, {"alias": "italian", "title": "Italian"}, {"alias": "chicken_wings", "title": "Chicken Wings"}], "rating": 4.0, "coordinates": {"latitude": 33.0825253, "longitude": -117.266711}, "transactions": [], "price": "$", "location": {"address1": "7750 El Camino Real", "address2": "Ste E", "address3": "", "city": "Carlsbad", "zip_code": "92009", "country": "US", "state": "CA", "display_address": ["7750 El Camino Real", "Ste E", "Carlsbad, CA 92009"]}, "phone": "+17609444222", "display_phone": "(760) 944-4222", "distance": 4840.712920106332}, {"id": "RfPLMtsNjSt4766lMWmDlQ", "alias": "marketplace-carlsbad-3", "name": "Marketplace", "image_url": "https://s3-media3.fl.yelpcdn.com/bphoto/vZSzC2QGOT5XUUqtmd2hZA/o.jpg", "is_closed": false, "url": "https://www.yelp.com/biz/marketplace-carlsbad-3?adjust_creative=oncXGL2aPIKrtJdnWeFSnA&utm_campaign=yelp_api_v3&utm_medium=api_v3_business_search&utm_source=oncXGL2aPIKrtJdnWeFSnA", "review_count": 6, "categories": [{"alias": "sandwiches", "title": "Sandwiches"}, {"alias": "icecream", "title": "Ice Cream & Frozen Yogurt"}, {"alias": "pizza", "title": "Pizza"}], "rating": 3.0, "coordinates": {"latitude": 33.091748, "longitude": -117.268002}, "transactions": [], "price": "$$$", "location": {"address1": "2100 Costa Del Mar Rd", "address2": "", "address3": "Omni La Costa Resort & Spa", "city": "Carlsbad", "zip_code": "92009", "country": "US", "state": "CA", "display_address": ["2100 Costa Del Mar Rd", "Omni La Costa Resort & Spa", "Carlsbad, CA 92009"]}, "phone": "+17604389111", "display_phone": "(760) 438-9111", "distance": 3873.9468560786754}, {"id": "IZDZkWKA5510Z0eP1povyQ", "alias": "little-caesars-pizza-vista-2", "name": "Little Caesars Pizza", "image_url": "https://s3-media2.fl.yelpcdn.com/bphoto/qMrcL40Fd__tkPLxP-byvQ/o.jpg", "is_closed": false, "url": "https://www.yelp.com/biz/little-caesars-pizza-vista-2?adjust_creative=oncXGL2aPIKrtJdnWeFSnA&utm_campaign=yelp_api_v3&utm_medium=api_v3_business_search&utm_source=oncXGL2aPIKrtJdnWeFSnA", "review_count": 14, "categories": [{"alias": "pizza", "title": "Pizza"}], "rating": 3.5, "coordinates": {"latitude": 33.1659660339355, "longitude": -117.245429992676}, "transactions": [], "price": "$$", "location": {"address1": "1680 S Melrose Dr", "address2": "Ste 101A", "address3": "", "city": "Vista", "zip_code": "92081", "country": "US", "state": "CA", "display_address": ["1680 S Melrose Dr", "Ste 101A", "Vista, CA 92081"]}, "phone": "+17604777300", "display_phone": "(760) 477-7300", "distance": 6316.6972178659225}, {"id": "iA11mSljVxipWc8qvOkP0g", "alias": "pizza-mania-carlsbad", "name": "Pizza Mania", "image_url": "https://s3-media3.fl.yelpcdn.com/bphoto/VYOz7Km30EuKlmOqsE-WuA/o.jpg", "is_closed": false, "url": "https://www.yelp.com/biz/pizza-mania-carlsbad?adjust_creative=oncXGL2aPIKrtJdnWeFSnA&utm_campaign=yelp_api_v3&utm_medium=api_v3_business_search&utm_source=oncXGL2aPIKrtJdnWeFSnA", "review_count": 9, "categories": [{"alias": "pizza", "title": "Pizza"}], "rating": 3.0, "coordinates": {"latitude": 33.1262054, "longitude": -117.3116059}, "transactions": [], "price": "$", "location": {"address1": "1 Legoland Dr", "address2": "", "address3": "", "city": "Carlsbad", "zip_code": "92008", "country": "US", "state": "CA", "display_address": ["1 Legoland Dr", "Carlsbad, CA 92008"]}, "phone": "+17609185346", "display_phone": "(760) 918-5346", "distance": 2187.2653631838757}, {"id": "Am4Pii-ZkFzZPRN72jaj4A", "alias": "two-brothers-from-italy-pizza-vista-2", "name": "Two Brothers From Italy Pizza", "image_url": "https://s3-media3.fl.yelpcdn.com/bphoto/OXCNA49IjWsQQL9RUWKt3g/o.jpg", "is_closed": false, "url": "https://www.yelp.com/biz/two-brothers-from-italy-pizza-vista-2?adjust_creative=oncXGL2aPIKrtJdnWeFSnA&utm_campaign=yelp_api_v3&utm_medium=api_v3_business_search&utm_source=oncXGL2aPIKrtJdnWeFSnA", "review_count": 121, "categories": [{"alias": "pizza", "title": "Pizza"}, {"alias": "sandwiches", "title": "Sandwiches"}, {"alias": "italian", "title": "Italian"}], "rating": 3.5, "coordinates": {"latitude": 33.164862415013, "longitude": -117.246593484953}, "transactions": ["pickup"], "price": "$$", "location": {"address1": "1651 S Melrose Dr", "address2": "", "address3": "", "city": "Vista", "zip_code": "92081", "country": "US", "state": "CA", "display_address": ["1651 S Melrose Dr", "Vista, CA 92081"]}, "phone": "+17605990088", "display_phone": "(760) 599-0088", "distance": 6170.645644705498}], "total": 18, "region": {"center": {"longitude": -117.28866577148438, "latitude": 33.12198326621279}}}