{"businesses": [{"id": "9AJfO9Y3ObUZjqDS6LNW1g", "alias": "board-and-brew-carlsbad-village-carlsbad", "name": "Board & Brew - Carlsbad Village", "image_url": "https://s3-media1.fl.yelpcdn.com/bphoto/81gjco-FbCgGmrrvjTfyCg/o.jpg", "is_closed": false, "url": "https://www.yelp.com/biz/board-and-brew-carlsbad-village-carlsbad?adjust_creative=oncXGL2aPIKrtJdnWeFSnA&utm_campaign=yelp_api_v3&utm_medium=api_v3_business_search&utm_source=oncXGL2aPIKrtJdnWeFSnA", "review_count": 709, "categories": [{"alias": "sandwiches", "title": "Sandwiches"}, {"alias": "beerbar", "title": "Beer Bar"}, {"alias": "cafes", "title": "Cafes"}], "rating": 4.5, "coordinates": {"latitude": 33.1566912, "longitude": -117.3502563}, "transactions": [], "price": "$", "location": {"address1": "201 Oak Ave", "address2": null, "address3": "", "city": "Carlsbad", "zip_code": "92008", "country": "US", "state": "CA", "display_address": ["201 Oak Ave", "Carlsbad, CA 92008"]}, "phone": "+17604344466", "display_phone": "(760) 434-4466", "distance": 2877.4568843845236}, {"id": "JZ4bqdJALxX3Gj3vrRdcjQ", "alias": "naked-cafe-carlsbad", "name": "Naked Cafe", "image_url": "https://s3-media1.fl.yelpcdn.com/bphoto/Q_ZskFqIjztV09OqABGeKA/o.jpg", "is_closed": false, "url": "https://www.yelp.com/biz/naked-cafe-carlsbad?adjust_creative=oncXGL2aPIKrtJdnWeFSnA&utm_campaign=yelp_api_v3&utm_medium=api_v3_business_search&utm_source=oncXGL2aPIKrtJdnWeFSnA", "review_count": 571, "categories": [{"alias": "gluten_free", "title": "Gluten-Free"}, {"alias": "cafes", "title": "Cafes"}], "rating": 4.0, "coordinates": {"latitude": 33.159171, "longitude": -117.350148}, "transactions": [], "price": "$$", "location": {"address1": "300 Carlsbad Village Dr", "address2": "Ste 107A", "address3": "", "city": "Carlsbad", "zip_code": "92008", "country": "US", "state": "CA", "display_address": ["300 Carlsbad Village Dr", "Ste 107A", "Carlsbad, CA 92008"]}, "phone": "+17607207866", "display_phone": "(760) 720-7866", "distance": 2946.2603783011546}, {"id": "CqqM_b4xiHwGsSWJcgQ8OQ", "alias": "french-corner-at-the-island-carlsbad", "name": "French Corner at The Island", "image_url": "https://s3-media1.fl.yelpcdn.com/bphoto/wehjPoCSC957RoXUniesdQ/o.jpg", "is_closed": false, "url": "https://www.yelp.com/biz/french-corner-at-the-island-carlsbad?adjust_creative=oncXGL2aPIKrtJdnWeFSnA&utm_campaign=yelp_api_v3&utm_medium=api_v3_business_search&utm_source=oncXGL2aPIKrtJdnWeFSnA", "review_count": 31, "categories": [{"alias": "french", "title": "French"}, {"alias": "creperies", "title": "Creperies"}, {"alias": "cafes", "title": "Cafes"}], "rating": 4.5, "coordinates": {"latitude": 33.1360951, "longitude": -117.2874636}, "transactions": [], "price": "$", "location": {"address1": "5808 Van Allen Way", "address2": "Ste 110", "address3": "", "city": "Carlsbad", "zip_code": "92008", "country": "US", "state": "CA", "display_address": ["5808 Van Allen Way", "Ste 110", "Carlsbad, CA 92008"]}, "phone": "+17605852037", "display_phone": "(760) 585-2037", "distance": 3522.3662687097467}, {"id": "Edv644a30618d89v_ZkCJw", "alias": "copa-vida-carlsbad", "name": "Copa Vida", "image_url": "https://s3-media2.fl.yelpcdn.com/bphoto/73C1KIHxjlR3HYO-gffooA/o.jpg", "is_closed": false, "url": "https://www.yelp.com/biz/copa-vida-carlsbad?adjust_creative=oncXGL2aPIKrtJdnWeFSnA&utm_campaign=yelp_api_v3&utm_medium=api_v3_business_search&utm_source=oncXGL2aPIKrtJdnWeFSnA", "review_count": 14, "categories": [{"alias": "coffee", "title": "Coffee & Tea"}, {"alias": "cafes", "title": "Cafes"}], "rating": 4.5, "coordinates": {"latitude": 33.1268348693848, "longitude": -117.326843261719}, "transactions": [], "price": "$$", "location": {"address1": "5600 Avenida Encinas", "address2": null, "address3": "", "city": "Carlsbad", "zip_code": "92008", "country": "US", "state": "CA", "display_address": ["5600 Avenida Encinas", "Carlsbad, CA 92008"]}, "phone": "+17608142330", "display_phone": "(760) 814-2330", "distance": 2717.5100674313157}, {"id": "LX5IesxWlR8BMGVuGw84iA", "alias": "swamis-caf\u00e9-carlsbad-carlsbad", "name": "Swami's Caf\u00e9 Carlsbad", "image_url": "https://s3-media4.fl.yelpcdn.com/bphoto/fiV3V6ueIzlf8dedh1Z7ZA/o.jpg", "is_closed": false, "url": "https://www.yelp.com/biz/swamis-caf%C3%A9-carlsbad-carlsbad?adjust_creative=oncXGL2aPIKrtJdnWeFSnA&utm_campaign=yelp_api_v3&utm_medium=api_v3_business_search&utm_source=oncXGL2aPIKrtJdnWeFSnA", "review_count": 453, "categories": [{"alias": "breakfast_brunch", "title": "Breakfast & Brunch"}, {"alias": "cafes", "title": "Cafes"}], "rating": 3.5, "coordinates": {"latitude": 33.1604011, "longitude": -117.3524211}, "transactions": [], "price": "$$", "location": {"address1": "2780 Carlsbad Blvd", "address2": "", "address3": "", "city": "Carlsbad", "zip_code": "92008", "country": "US", "state": "CA", "display_address": ["2780 Carlsbad Blvd", "Carlsbad, CA 92008"]}, "phone": "+17604347455", "display_phone": "(760) 434-7455", "distance": 3191.573789188841}, {"id": "AYtf2IjgszPhwHmlnMAHgQ", "alias": "the-story-caffe-carlsbad", "name": "The Story Caffe", "image_url": "https://s3-media2.fl.yelpcdn.com/bphoto/MBT_9OXWuFHasK-eVmLXQQ/o.jpg", "is_closed": false, "url": "https://www.yelp.com/biz/the-story-caffe-carlsbad?adjust_creative=oncXGL2aPIKrtJdnWeFSnA&utm_campaign=yelp_api_v3&utm_medium=api_v3_business_search&utm_source=oncXGL2aPIKrtJdnWeFSnA", "review_count": 86, "categories": [{"alias": "cafes", "title": "Cafes"}], "rating": 4.5, "coordinates": {"latitude": 33.1110311787428, "longitude": -117.294607936909}, "transactions": [], "price": "$", "location": {"address1": "1350 Poinsettia Ln", "address2": null, "address3": "", "city": "Carlsbad", "zip_code": "92011", "country": "US", "state": "CA", "display_address": ["1350 Poinsettia Ln", "Carlsbad, CA 92011"]}, "phone": "+17609290029", "display_phone": "(760) 929-0029", "distance": 4993.979648297911}, {"id": "NQ4QOOTbYW9MfseqwRFZcQ", "alias": "2051-cafe-carlsbad", "name": "2051 Cafe", "image_url": "https://s3-media3.fl.yelpcdn.com/bphoto/2FSNyrghNITP3L21VkbrPw/o.jpg", "is_closed": false, "url": "https://www.yelp.com/biz/2051-cafe-carlsbad?adjust_creative=oncXGL2aPIKrtJdnWeFSnA&utm_campaign=yelp_api_v3&utm_medium=api_v3_business_search&utm_source=oncXGL2aPIKrtJdnWeFSnA", "review_count": 82, "categories": [{"alias": "cafes", "title": "Cafes"}, {"alias": "delis", "title": "Delis"}, {"alias": "italian", "title": "Italian"}], "rating": 5.0, "coordinates": {"latitude": 33.1224971661327, "longitude": -117.276416666667}, "transactions": [], "price": "$$", "location": {"address1": "2051 Palomar Airport Rd", "address2": "Ste 175", "address3": null, "city": "Carlsbad", "zip_code": "92011", "country": "US", "state": "CA", "display_address": ["2051 Palomar Airport Rd", "Ste 175", "Carlsbad, CA 92011"]}, "phone": "+17608142831", "display_phone": "(760) 814-2831", "distance": 5132.058837742898}, {"id": "yWydXCmUZfx0WokFvnagBQ", "alias": "french-pastries-cafe-carlsbad-2", "name": "French Pastries Cafe", "image_url": "https://s3-media3.fl.yelpcdn.com/bphoto/OJ1YkpjJRTguCsEqizY8MQ/o.jpg", "is_closed": false, "url": "https://www.yelp.com/biz/french-pastries-cafe-carlsbad-2?adjust_creative=oncXGL2aPIKrtJdnWeFSnA&utm_campaign=yelp_api_v3&utm_medium=api_v3_business_search&utm_source=oncXGL2aPIKrtJdnWeFSnA", "review_count": 204, "categories": [{"alias": "bakeries", "title": "Bakeries"}, {"alias": "cafes", "title": "Cafes"}, {"alias": "french", "title": "French"}], "rating": 3.5, "coordinates": {"latitude": 33.1622227, "longitude": -117.3436989}, "transactions": [], "price": "$", "location": {"address1": "1005 Carlsbad Village Dr", "address2": "Ste B", "address3": "", "city": "Carlsbad", "zip_code": "92008", "country": "US", "state": "CA", "display_address": ["1005 Carlsbad Village Dr", "Ste B", "Carlsbad, CA 92008"]}, "phone": "+17607292241", "display_phone": "(760) 729-2241", "distance": 2476.645624284654}, {"id": "4_hbgvnFZfGxBSKLCvqfhw", "alias": "als-cafe-in-the-village-carlsbad", "name": "Al's Cafe In The Village", "image_url": "https://s3-media2.fl.yelpcdn.com/bphoto/wEcMVCQSVDeksNSnGl8ZDg/o.jpg", "is_closed": false, "url": "https://www.yelp.com/biz/als-cafe-in-the-village-carlsbad?adjust_creative=oncXGL2aPIKrtJdnWeFSnA&utm_campaign=yelp_api_v3&utm_medium=api_v3_business_search&utm_source=oncXGL2aPIKrtJdnWeFSnA", "review_count": 300, "categories": [{"alias": "breakfast_brunch", "title": "Breakfast & Brunch"}, {"alias": "cafes", "title": "Cafes"}], "rating": 3.5, "coordinates": {"latitude": 33.1611529874978, "longitude": -117.345641033371}, "transactions": ["pickup"], "price": "$", "location": {"address1": "795 Carlsbad Village Dr", "address2": null, "address3": "", "city": "Carlsbad", "zip_code": "92008", "country": "US", "state": "CA", "display_address": ["795 Carlsbad Village Dr", "Carlsbad, CA 92008"]}, "phone": "+17607295448", "display_phone": "(760) 729-5448", "distance": 2644.934143102028}, {"id": "OHSQwsNx1MQXZib8tF138w", "alias": "california-bistro-at-park-hyatt-aviara-carlsbad", "name": "California Bistro At Park Hyatt Aviara", "image_url": "https://s3-media3.fl.yelpcdn.com/bphoto/A_RxdNWzYMzjFmloiFKV6A/o.jpg", "is_closed": false, "url": "https://www.yelp.com/biz/california-bistro-at-park-hyatt-aviara-carlsbad?adjust_creative=oncXGL2aPIKrtJdnWeFSnA&utm_campaign=yelp_api_v3&utm_medium=api_v3_business_search&utm_source=oncXGL2aPIKrtJdnWeFSnA", "review_count": 70, "categories": [{"alias": "cafes", "title": "Cafes"}], "rating": 3.5, "coordinates": {"latitude": 33.0991573708083, "longitude": -117.285778130688}, "transactions": [], "price": "$$$", "location": {"address1": "7100 Aviara Resort Dr", "address2": "", "address3": "", "city": "Carlsbad", "zip_code": "92011", "country": "US", "state": "CA", "display_address": ["7100 Aviara Resort Dr", "Carlsbad, CA 92011"]}, "phone": "+17606036868", "display_phone": "(760) 603-6868", "distance": 6547.450367428723}, {"id": "Sv4XZXljR-rMODl3i8duDA", "alias": "carlsbad-coffee-house-carlsbad", "name": "Carlsbad Coffee House", "image_url": "https://s3-media2.fl.yelpcdn.com/bphoto/E3rSuDW7ApuQjDBmkIAz1w/o.jpg", "is_closed": false, "url": "https://www.yelp.com/biz/carlsbad-coffee-house-carlsbad?adjust_creative=oncXGL2aPIKrtJdnWeFSnA&utm_campaign=yelp_api_v3&utm_medium=api_v3_business_search&utm_source=oncXGL2aPIKrtJdnWeFSnA", "review_count": 131, "categories": [{"alias": "coffee", "title": "Coffee & Tea"}, {"alias": "cafes", "title": "Cafes"}], "rating": 3.5, "coordinates": {"latitude": 33.1609779806645, "longitude": -117.353142648697}, "transactions": [], "price": "$", "location": {"address1": "2744 Carlsbad Blvd", "address2": "", "address3": "", "city": "Carlsbad", "zip_code": "92008", "country": "US", "state": "CA", "display_address": ["2744 Carlsbad Blvd", "Carlsbad, CA 92008"]}, "phone": "+17604342216", "display_phone": "(760) 434-2216", "distance": 3276.9796087419704}, {"id": "-ZJVaXutyni9O9dou0sJTA", "alias": "campus-cafe-carlsbad", "name": "Campus Cafe", "image_url": "https://s3-media1.fl.yelpcdn.com/bphoto/cyjsjGYNkARnS83MdlvveA/o.jpg", "is_closed": false, "url": "https://www.yelp.com/biz/campus-cafe-carlsbad?adjust_creative=oncXGL2aPIKrtJdnWeFSnA&utm_campaign=yelp_api_v3&utm_medium=api_v3_business_search&utm_source=oncXGL2aPIKrtJdnWeFSnA", "review_count": 121, "categories": [{"alias": "delis", "title": "Delis"}, {"alias": "cafes", "title": "Cafes"}, {"alias": "sandwiches", "title": "Sandwiches"}], "rating": 4.5, "coordinates": {"latitude": 33.131802, "longitude": -117.270076}, "transactions": [], "price": "$", "location": {"address1": "5966 La Place Ct", "address2": "Ste 150", "address3": "", "city": "Carlsbad", "zip_code": "92008", "country": "US", "state": "CA", "display_address": ["5966 La Place Ct", "Ste 150", "Carlsbad, CA 92008"]}, "phone": "+17604319210", "display_phone": "(760) 431-9210", "distance": 5112.359318352342}, {"id": "MOa-GahoHWbhn5NzHWRSQg", "alias": "ocean-journey-cafe-carlsbad", "name": "Ocean Journey Cafe", "image_url": "https://s3-media1.fl.yelpcdn.com/bphoto/BB0F4bA_UDN-WZDEoigxQw/o.jpg", "is_closed": false, "url": "https://www.yelp.com/biz/ocean-journey-cafe-carlsbad?adjust_creative=oncXGL2aPIKrtJdnWeFSnA&utm_campaign=yelp_api_v3&utm_medium=api_v3_business_search&utm_source=oncXGL2aPIKrtJdnWeFSnA", "review_count": 19, "categories": [{"alias": "cafes", "title": "Cafes"}], "rating": 4.0, "coordinates": {"latitude": 33.1258674741098, "longitude": -117.312374134831}, "transactions": [], "price": "$$", "location": {"address1": "1 Legoland Dr", "address2": "", "address3": "", "city": "Carlsbad", "zip_code": "92008", "country": "US", "state": "CA", "display_address": ["1 Legoland Dr", "Carlsbad, CA 92008"]}, "phone": "+17609185346", "display_phone": "(760) 918-5346", "distance": 2832.9836156349975}, {"id": "DxNhIGu1WuzX9RT4487bsg", "alias": "the-broken-yolk-cafe-carlsbad-2", "name": "The Broken Yolk Cafe", "image_url": "https://s3-media2.fl.yelpcdn.com/bphoto/vsH4Qd66kYAaQrqeDhwRRA/o.jpg", "is_closed": false, "url": "https://www.yelp.com/biz/the-broken-yolk-cafe-carlsbad-2?adjust_creative=oncXGL2aPIKrtJdnWeFSnA&utm_campaign=yelp_api_v3&utm_medium=api_v3_business_search&utm_source=oncXGL2aPIKrtJdnWeFSnA", "review_count": 525, "categories": [{"alias": "breakfast_brunch", "title": "Breakfast & Brunch"}, {"alias": "cafes", "title": "Cafes"}, {"alias": "tradamerican", "title": "American (Traditional)"}], "rating": 3.5, "coordinates": {"latitude": 33.0866318, "longitude": -117.2686025}, "transactions": [], "price": "$$", "location": {"address1": "7670 El Camino Real", "address2": "", "address3": "", "city": "Carlsbad", "zip_code": "92009", "country": "US", "state": "CA", "display_address": ["7670 El Camino Real", "Carlsbad, CA 92009"]}, "phone": "+17609438182", "display_phone": "(760) 943-8182", "distance": 8689.462152687132}, {"id": "gJzoi-QJ9d1LZGoaTpBRFQ", "alias": "board-and-brew-carlsbad-bressi-ranch-carlsbad", "name": "Board & Brew - Carlsbad Bressi Ranch", "image_url": "https://s3-media3.fl.yelpcdn.com/bphoto/mEivmuguEI3u-F7HMDuYBw/o.jpg", "is_closed": false, "url": "https://www.yelp.com/biz/board-and-brew-carlsbad-bressi-ranch-carlsbad?adjust_creative=oncXGL2aPIKrtJdnWeFSnA&utm_campaign=yelp_api_v3&utm_medium=api_v3_business_search&utm_source=oncXGL2aPIKrtJdnWeFSnA", "review_count": 508, "categories": [{"alias": "sandwiches", "title": "Sandwiches"}, {"alias": "beerbar", "title": "Beer Bar"}, {"alias": "cafes", "title": "Cafes"}], "rating": 4.0, "coordinates": {"latitude": 33.1274036, "longitude": -117.2526507}, "transactions": ["pickup"], "price": "$", "location": {"address1": "2681 Gateway Rd", "address2": "Ste 103", "address3": "", "city": "Carlsbad", "zip_code": "92009", "country": "US", "state": "CA", "display_address": ["2681 Gateway Rd", "Ste 103", "Carlsbad, CA 92009"]}, "phone": "+17609292739", "display_phone": "(760) 929-2739", "distance": 6797.013281344117}, {"id": "Ljo8uT-wbvBzrH0PlKHQgA", "alias": "spa-cafe-carlsbad", "name": "Spa Cafe", "image_url": "https://s3-media2.fl.yelpcdn.com/bphoto/fNTK6OE-QUwyLctE_GtNog/o.jpg", "is_closed": false, "url": "https://www.yelp.com/biz/spa-cafe-carlsbad?adjust_creative=oncXGL2aPIKrtJdnWeFSnA&utm_campaign=yelp_api_v3&utm_medium=api_v3_business_search&utm_source=oncXGL2aPIKrtJdnWeFSnA", "review_count": 7, "categories": [{"alias": "cafes", "title": "Cafes"}, {"alias": "salad", "title": "Salad"}], "rating": 4.5, "coordinates": {"latitude": 33.0920044, "longitude": -117.2663418}, "transactions": [], "price": "$$", "location": {"address1": "2100 Costa Del Mar Rd", "address2": "", "address3": "Omni La Costa Resort & Spa", "city": "Carlsbad", "zip_code": "92009", "country": "US", "state": "CA", "display_address": ["2100 Costa Del Mar Rd", "Omni La Costa Resort & Spa", "Carlsbad, CA 92009"]}, "phone": "+17604389111", "display_phone": "(760) 438-9111", "distance": 8214.522576573714}, {"id": "5mOrOqisecnAyjsnj0ASKw", "alias": "cafe-muse-carlsbad", "name": "Cafe Muse", "image_url": "", "is_closed": false, "url": "https://www.yelp.com/biz/cafe-muse-carlsbad?adjust_creative=oncXGL2aPIKrtJdnWeFSnA&utm_campaign=yelp_api_v3&utm_medium=api_v3_business_search&utm_source=oncXGL2aPIKrtJdnWeFSnA", "review_count": 1, "categories": [{"alias": "cafes", "title": "Cafes"}], "rating": 1.0, "coordinates": {"latitude": 33.1062126, "longitude": -117.2697906}, "transactions": [], "location": {"address1": "1775 Dove Ln", "address2": "", "address3": "Plaza Paseo Real", "city": "Carlsbad", "zip_code": "92011", "country": "US", "state": "CA", "display_address": ["1775 Dove Ln", "Plaza Paseo Real", "Carlsbad, CA 92011"]}, "phone": "+17608930280", "display_phone": "(760) 893-0280", "distance": 6863.5057873031665}], "total": 17}