{"businesses": [{"id": "d7BWosg1jl0TSI325fFMAw", "alias": "7-mile-kitchen-carlsbad", "name": "7 Mile Kitchen", "image_url": "https://s3-media2.fl.yelpcdn.com/bphoto/-MrjKPdeIX99iMbyxBIVPw/o.jpg", "is_closed": false, "url": "https://www.yelp.com/biz/7-mile-kitchen-carlsbad?adjust_creative=oncXGL2aPIKrtJdnWeFSnA&utm_campaign=yelp_api_v3&utm_medium=api_v3_business_search&utm_source=oncXGL2aPIKrtJdnWeFSnA", "review_count": 88, "categories": [{"alias": "newamerican", "title": "American (New)"}, {"alias": "pizza", "title": "Pizza"}, {"alias": "burgers", "title": "Burgers"}], "rating": 3.5, "coordinates": {"latitude": 33.1327473, "longitude": -117.3118966}, "transactions": [], "price": "$$", "location": {"address1": "5420 Grand Pacific Dr", "address2": null, "address3": "", "city": "Carlsbad", "zip_code": "92008", "country": "US", "state": "CA", "display_address": ["5420 Grand Pacific Dr", "Carlsbad, CA 92008"]}, "phone": "+17608272514", "display_phone": "(760) 827-2514", "distance": 2119.3137181567326}, {"id": "3HwghixraHhQaG5GAChmsw", "alias": "bites-pints-taphouse-carlsbad", "name": "Bites + Pints Taphouse", "image_url": "https://s3-media2.fl.yelpcdn.com/bphoto/npuXcrqFlA6N8RsDvTzNlw/o.jpg", "is_closed": false, "url": "https://www.yelp.com/biz/bites-pints-taphouse-carlsbad?adjust_creative=oncXGL2aPIKrtJdnWeFSnA&utm_campaign=yelp_api_v3&utm_medium=api_v3_business_search&utm_source=oncXGL2aPIKrtJdnWeFSnA", "review_count": 24, "categories": [{"alias": "pizza", "title": "Pizza"}, {"alias": "tradamerican", "title": "American (Traditional)"}, {"alias": "salad", "title": "Salad"}], "rating": 3.5, "coordinates": {"latitude": 33.17993, "longitude": -117.32715}, "transactions": ["pickup", "delivery"], "location": {"address1": "2501 El Camino Real", "address2": "Ste 210", "address3": null, "city": "Carlsbad", "zip_code": "92008", "country": "US", "state": "CA", "display_address": ["2501 El Camino Real", "Ste 210", "Carlsbad, CA 92008"]}, "phone": "+17607291904", "display_phone": "(760) 729-1904", "distance": 3228.9894071718536}, {"id": "dYOccn1az0n0blBWuory1Q", "alias": "roosevelt-pizzeria-carlsbad-3", "name": "Roosevelt Pizzeria", "image_url": "https://s3-media1.fl.yelpcdn.com/bphoto/hntv0gM16K84bjR0MprHXA/o.jpg", "is_closed": false, "url": "https://www.yelp.com/biz/roosevelt-pizzeria-carlsbad-3?adjust_creative=oncXGL2aPIKrtJdnWeFSnA&utm_campaign=yelp_api_v3&utm_medium=api_v3_business_search&utm_source=oncXGL2aPIKrtJdnWeFSnA", "review_count": 179, "categories": [{"alias": "pizza", "title": "Pizza"}, {"alias": "italian", "title": "Italian"}], "rating": 4.5, "coordinates": {"latitude": 33.15929, "longitude": -117.34738}, "transactions": [], "price": "$$", "location": {"address1": "3067 Roosevelt St", "address2": "", "address3": "", "city": "Carlsbad", "zip_code": "92008", "country": "US", "state": "CA", "display_address": ["3067 Roosevelt St", "Carlsbad, CA 92008"]}, "phone": "+17607309105", "display_phone": "(760) 730-9105", "distance": 2700.7258893778426}, {"id": "iMkiZxT_qnXkM_ihV4apqA", "alias": "knockout-pizza-carlsbad-3", "name": "Knockout Pizza", "image_url": "https://s3-media3.fl.yelpcdn.com/bphoto/2lirLD2vlIcmt9Ccfoyovw/o.jpg", "is_closed": false, "url": "https://www.yelp.com/biz/knockout-pizza-carlsbad-3?adjust_creative=oncXGL2aPIKrtJdnWeFSnA&utm_campaign=yelp_api_v3&utm_medium=api_v3_business_search&utm_source=oncXGL2aPIKrtJdnWeFSnA", "review_count": 426, "categories": [{"alias": "pizza", "title": "Pizza"}], "rating": 4.0, "coordinates": {"latitude": 33.1588609, "longitude": -117.3517835}, "transactions": ["pickup", "delivery"], "price": "$", "location": {"address1": "2937 Carlsbad Blvd", "address2": "", "address3": "", "city": "Carlsbad", "zip_code": "92008", "country": "US", "state": "CA", "display_address": ["2937 Carlsbad Blvd", "Carlsbad, CA 92008"]}, "phone": "+17604344468", "display_phone": "(760) 434-4468", "distance": 3076.905014423317}, {"id": "cto_W4jjMqI6dU7G7JaKTA", "alias": "pizza-port-carlsbad-3", "name": "Pizza Port", "image_url": "https://s3-media2.fl.yelpcdn.com/bphoto/DT_E8CKJE-BlqKzXfiaDbA/o.jpg", "is_closed": false, "url": "https://www.yelp.com/biz/pizza-port-carlsbad-3?adjust_creative=oncXGL2aPIKrtJdnWeFSnA&utm_campaign=yelp_api_v3&utm_medium=api_v3_business_search&utm_source=oncXGL2aPIKrtJdnWeFSnA", "review_count": 1854, "categories": [{"alias": "pizza", "title": "Pizza"}, {"alias": "breweries", "title": "Breweries"}, {"alias": "beerbar", "title": "Beer Bar"}], "rating": 3.5, "coordinates": {"latitude": 33.1598323, "longitude": -117.3478227}, "transactions": ["pickup"], "price": "$$", "location": {"address1": "571 Carlsbad Village Dr", "address2": "", "address3": "", "city": "Carlsbad", "zip_code": "92008", "country": "US", "state": "CA", "display_address": ["571 Carlsbad Village Dr", "Carlsbad, CA 92008"]}, "phone": "+17607207007", "display_phone": "(760) 720-7007", "distance": 2765.382222305471}, {"id": "eTiQGScV5TbUfFeH4etwMQ", "alias": "blaze-fast-fired-pizza-carlsbad", "name": "Blaze Fast-Fire'd Pizza", "image_url": "https://s3-media4.fl.yelpcdn.com/bphoto/RdiWPOGfcK5C4bmnuL0MvA/o.jpg", "is_closed": false, "url": "https://www.yelp.com/biz/blaze-fast-fired-pizza-carlsbad?adjust_creative=oncXGL2aPIKrtJdnWeFSnA&utm_campaign=yelp_api_v3&utm_medium=api_v3_business_search&utm_source=oncXGL2aPIKrtJdnWeFSnA", "review_count": 686, "categories": [{"alias": "pizza", "title": "Pizza"}, {"alias": "salad", "title": "Salad"}, {"alias": "hotdogs", "title": "Fast Food"}], "rating": 4.5, "coordinates": {"latitude": 33.1250977336068, "longitude": -117.320182059245}, "transactions": [], "price": "$", "location": {"address1": "5620 Paseo Del Norte", "address2": "", "address3": "", "city": "Carlsbad", "zip_code": "92008", "country": "US", "state": "CA", "display_address": ["5620 Paseo Del Norte", "Carlsbad, CA 92008"]}, "phone": "+17608945029", "display_phone": "(760) 894-5029", "distance": 2821.990535203155}, {"id": "PSR6JnOP5r87fuwjyiY4gA", "alias": "criscito-pizza-carlsbad", "name": "Criscito Pizza", "image_url": "https://s3-media2.fl.yelpcdn.com/bphoto/C_ZZ08EGtYZJUyqX3DZzdA/o.jpg", "is_closed": false, "url": "https://www.yelp.com/biz/criscito-pizza-carlsbad?adjust_creative=oncXGL2aPIKrtJdnWeFSnA&utm_campaign=yelp_api_v3&utm_medium=api_v3_business_search&utm_source=oncXGL2aPIKrtJdnWeFSnA", "review_count": 81, "categories": [{"alias": "pizza", "title": "Pizza"}, {"alias": "foodtrucks", "title": "Food Trucks"}], "rating": 4.5, "coordinates": {"latitude": 33.148057, "longitude": -117.305483}, "transactions": [], "price": "$$", "location": {"address1": "", "address2": "", "address3": "", "city": "Carlsbad", "zip_code": "92008", "country": "US", "state": "CA", "display_address": ["Carlsbad, CA 92008"]}, "phone": "+17603319638", "display_phone": "(760) 331-9638", "distance": 1030.4021744620327}, {"id": "Pk1RB_ymVaY1ZK4XcskvYQ", "alias": "bjs-restaurant-and-brewhouse-carlsbad-2", "name": "BJ's Restaurant & Brewhouse", "image_url": "https://s3-media2.fl.yelpcdn.com/bphoto/bpLbi_sIatXNr6NLy87DLg/o.jpg", "is_closed": false, "url": "https://www.yelp.com/biz/bjs-restaurant-and-brewhouse-carlsbad-2?adjust_creative=oncXGL2aPIKrtJdnWeFSnA&utm_campaign=yelp_api_v3&utm_medium=api_v3_business_search&utm_source=oncXGL2aPIKrtJdnWeFSnA", "review_count": 847, "categories": [{"alias": "breweries", "title": "Breweries"}, {"alias": "newamerican", "title": "American (New)"}, {"alias": "pizza", "title": "Pizza"}], "rating": 3.0, "coordinates": {"latitude": 33.127135, "longitude": -117.324024}, "transactions": ["delivery"], "price": "$$", "location": {"address1": "5613 Paseo Del Norte", "address2": "", "address3": "", "city": "Carlsbad", "zip_code": "92008", "country": "US", "state": "CA", "display_address": ["5613 Paseo Del Norte", "Carlsbad, CA 92008"]}, "phone": "+17605794440", "display_phone": "(760) 579-4440", "distance": 2619.1105598442578}, {"id": "qiLilEBLLvmoPK9aSvS5aQ", "alias": "leucadia-pizza-and-italian-restaurant-carlsbad", "name": "Leucadia Pizza& Italian Restaurant", "image_url": "https://s3-media3.fl.yelpcdn.com/bphoto/zcFS0EwuPopV9Xul3hY5kQ/o.jpg", "is_closed": false, "url": "https://www.yelp.com/biz/leucadia-pizza-and-italian-restaurant-carlsbad?adjust_creative=oncXGL2aPIKrtJdnWeFSnA&utm_campaign=yelp_api_v3&utm_medium=api_v3_business_search&utm_source=oncXGL2aPIKrtJdnWeFSnA", "review_count": 74, "categories": [{"alias": "italian", "title": "Italian"}, {"alias": "pizza", "title": "Pizza"}, {"alias": "sandwiches", "title": "Sandwiches"}], "rating": 4.0, "coordinates": {"latitude": 33.15213, "longitude": -117.33445}, "transactions": [], "price": "$$", "location": {"address1": "959 Tamarack Ave", "address2": null, "address3": "", "city": "Carlsbad", "zip_code": "92008", "country": "US", "state": "CA", "display_address": ["959 Tamarack Ave", "Carlsbad, CA 92008"]}, "phone": "+17604342222", "display_phone": "(760) 434-2222", "distance": 1353.6969244940624}, {"id": "ePu_rvcv32Q-l-qVaq8P7w", "alias": "that-pizza-place-carlsbad", "name": "That Pizza Place", "image_url": "https://s3-media3.fl.yelpcdn.com/bphoto/hl1QriCBBF5nczNqz-IwSw/o.jpg", "is_closed": false, "url": "https://www.yelp.com/biz/that-pizza-place-carlsbad?adjust_creative=oncXGL2aPIKrtJdnWeFSnA&utm_campaign=yelp_api_v3&utm_medium=api_v3_business_search&utm_source=oncXGL2aPIKrtJdnWeFSnA", "review_count": 244, "categories": [{"alias": "pizza", "title": "Pizza"}], "rating": 3.5, "coordinates": {"latitude": 33.1759356261055, "longitude": -117.324742063477}, "transactions": [], "price": "$$", "location": {"address1": "2622 El Camino Real", "address2": "Ste B", "address3": "", "city": "Carlsbad", "zip_code": "92008", "country": "US", "state": "CA", "display_address": ["2622 El Camino Real", "Ste B", "Carlsbad, CA 92008"]}, "phone": "+17604343171", "display_phone": "(760) 434-3171", "distance": 2861.619506851482}, {"id": "yCnN34-6vks7zBZ7DnFEwQ", "alias": "paradise-pizza-carlsbad", "name": "Paradise Pizza", "image_url": "https://s3-media1.fl.yelpcdn.com/bphoto/SDgUbrb30BBZnwbsZlA99g/o.jpg", "is_closed": false, "url": "https://www.yelp.com/biz/paradise-pizza-carlsbad?adjust_creative=oncXGL2aPIKrtJdnWeFSnA&utm_campaign=yelp_api_v3&utm_medium=api_v3_business_search&utm_source=oncXGL2aPIKrtJdnWeFSnA", "review_count": 332, "categories": [{"alias": "pizza", "title": "Pizza"}, {"alias": "salad", "title": "Salad"}, {"alias": "sandwiches", "title": "Sandwiches"}], "rating": 4.0, "coordinates": {"latitude": 33.16457, "longitude": -117.35204}, "transactions": [], "price": "$$", "location": {"address1": "2564 State St", "address2": "Ste F", "address3": "", "city": "Carlsbad", "zip_code": "92008", "country": "US", "state": "CA", "display_address": ["2564 State St", "Ste F", "Carlsbad, CA 92008"]}, "phone": "+17607297492", "display_phone": "(760) 729-7492", "distance": 3348.3177348178997}, {"id": "t93BSZqSbW7e6MpPXVhz2g", "alias": "primo-pizza-and-pasta-carlsbad-2", "name": "Primo Pizza & Pasta", "image_url": "https://s3-media2.fl.yelpcdn.com/bphoto/E7_2a5JKHkvutKdrriCcew/o.jpg", "is_closed": false, "url": "https://www.yelp.com/biz/primo-pizza-and-pasta-carlsbad-2?adjust_creative=oncXGL2aPIKrtJdnWeFSnA&utm_campaign=yelp_api_v3&utm_medium=api_v3_business_search&utm_source=oncXGL2aPIKrtJdnWeFSnA", "review_count": 316, "categories": [{"alias": "pizza", "title": "Pizza"}, {"alias": "italian", "title": "Italian"}, {"alias": "salad", "title": "Salad"}], "rating": 4.0, "coordinates": {"latitude": 33.10132, "longitude": -117.31131}, "transactions": ["pickup", "delivery"], "price": "$", "location": {"address1": "7110 Avenida Encinas", "address2": "Ste 103", "address3": "", "city": "Carlsbad", "zip_code": "92011", "country": "US", "state": "CA", "display_address": ["7110 Avenida Encinas", "Ste 103", "Carlsbad, CA 92011"]}, "phone": "+17604317155", "display_phone": "(760) 431-7155", "distance": 5488.24328191946}, {"id": "B2opzGJ5QPVo4Sx3W5giWw", "alias": "carlsbad-pizza-by-the-slice-carlsbad-2", "name": "Carlsbad Pizza by the Slice", "image_url": "https://s3-media1.fl.yelpcdn.com/bphoto/G5yKlnEPLn5IP8shqPFZ6g/o.jpg", "is_closed": false, "url": "https://www.yelp.com/biz/carlsbad-pizza-by-the-slice-carlsbad-2?adjust_creative=oncXGL2aPIKrtJdnWeFSnA&utm_campaign=yelp_api_v3&utm_medium=api_v3_business_search&utm_source=oncXGL2aPIKrtJdnWeFSnA", "review_count": 84, "categories": [{"alias": "pizza", "title": "Pizza"}, {"alias": "chicken_wings", "title": "Chicken Wings"}], "rating": 4.0, "coordinates": {"latitude": 33.1358124, "longitude": -117.2878189}, "transactions": ["pickup", "delivery"], "price": "$", "location": {"address1": "5812 Van Allen Way", "address2": "Ste 130", "address3": "", "city": "Carlsbad", "zip_code": "92008", "country": "US", "state": "CA", "display_address": ["5812 Van Allen Way", "Ste 130", "Carlsbad, CA 92008"]}, "phone": "+17604318704", "display_phone": "(760) 431-8704", "distance": 3431.732380388058}, {"id": "OlnDFu4Qe7yuhbGnIFNJWA", "alias": "dominos-pizza-carlsbad-5", "name": "Domino's Pizza", "image_url": "https://s3-media2.fl.yelpcdn.com/bphoto/l0UWBroP_CuIgpAccUWaSw/o.jpg", "is_closed": false, "url": "https://www.yelp.com/biz/dominos-pizza-carlsbad-5?adjust_creative=oncXGL2aPIKrtJdnWeFSnA&utm_campaign=yelp_api_v3&utm_medium=api_v3_business_search&utm_source=oncXGL2aPIKrtJdnWeFSnA", "review_count": 45, "categories": [{"alias": "pizza", "title": "Pizza"}, {"alias": "chicken_wings", "title": "Chicken Wings"}, {"alias": "sandwiches", "title": "Sandwiches"}], "rating": 2.5, "coordinates": {"latitude": 33.1766161322594, "longitude": -117.338841184974}, "transactions": [], "price": "$", "location": {"address1": "1854 Marron Rd", "address2": "Ste M2", "address3": "", "city": "Carlsbad", "zip_code": "92008", "country": "US", "state": "CA", "display_address": ["1854 Marron Rd", "Ste M2", "Carlsbad, CA 92008"]}, "phone": "+17607291556", "display_phone": "(760) 729-1556", "distance": 3414.246923584093}, {"id": "uP5eA_e6Ts0TMj5Iqvlhhw", "alias": "jays-gourmet-carlsbad", "name": "Jay's Gourmet", "image_url": "https://s3-media2.fl.yelpcdn.com/bphoto/GnzKGRsRdCqYgCoJNnmfVg/o.jpg", "is_closed": false, "url": "https://www.yelp.com/biz/jays-gourmet-carlsbad?adjust_creative=oncXGL2aPIKrtJdnWeFSnA&utm_campaign=yelp_api_v3&utm_medium=api_v3_business_search&utm_source=oncXGL2aPIKrtJdnWeFSnA", "review_count": 318, "categories": [{"alias": "pizza", "title": "Pizza"}, {"alias": "italian", "title": "Italian"}, {"alias": "seafood", "title": "Seafood"}], "rating": 3.5, "coordinates": {"latitude": 33.1583, "longitude": -117.35146}, "transactions": [], "price": "$$", "location": {"address1": "2975 Carlsbad Blvd", "address2": "", "address3": "", "city": "Carlsbad", "zip_code": "92008", "country": "US", "state": "CA", "display_address": ["2975 Carlsbad Blvd", "Carlsbad, CA 92008"]}, "phone": "+17607209688", "display_phone": "(760) 720-9688", "distance": 3034.845367259411}, {"id": "uEwvJBVCrU3YXS1lv4v0Ng", "alias": "caldo-pomodoro-carlsbad", "name": "Caldo Pomodoro", "image_url": "https://s3-media2.fl.yelpcdn.com/bphoto/RRv4A0zgZ-p2xR8PXSE39Q/o.jpg", "is_closed": false, "url": "https://www.yelp.com/biz/caldo-pomodoro-carlsbad?adjust_creative=oncXGL2aPIKrtJdnWeFSnA&utm_campaign=yelp_api_v3&utm_medium=api_v3_business_search&utm_source=oncXGL2aPIKrtJdnWeFSnA", "review_count": 329, "categories": [{"alias": "italian", "title": "Italian"}, {"alias": "seafood", "title": "Seafood"}, {"alias": "pizza", "title": "Pizza"}], "rating": 3.5, "coordinates": {"latitude": 33.16038, "longitude": -117.34967}, "transactions": ["pickup", "delivery"], "price": "$$", "location": {"address1": "2907 State St", "address2": "", "address3": "", "city": "Carlsbad", "zip_code": "92008", "country": "US", "state": "CA", "display_address": ["2907 State St", "Carlsbad, CA 92008"]}, "phone": "+17607209998", "display_phone": "(760) 720-9998", "distance": 2952.3173801886087}, {"id": "d1WKFhg5l_LCgnMHs140hQ", "alias": "pieology-pizzeria-carlsbad", "name": "Pieology Pizzeria", "image_url": "https://s3-media2.fl.yelpcdn.com/bphoto/EqC44ep-lYF3vLMwIQNM3Q/o.jpg", "is_closed": false, "url": "https://www.yelp.com/biz/pieology-pizzeria-carlsbad?adjust_creative=oncXGL2aPIKrtJdnWeFSnA&utm_campaign=yelp_api_v3&utm_medium=api_v3_business_search&utm_source=oncXGL2aPIKrtJdnWeFSnA", "review_count": 200, "categories": [{"alias": "pizza", "title": "Pizza"}], "rating": 4.0, "coordinates": {"latitude": 33.1272292, "longitude": -117.253689}, "transactions": [], "price": "$", "location": {"address1": "2647 Gateway Rd", "address2": "Ste 101", "address3": null, "city": "Carlsbad", "zip_code": "92009", "country": "US", "state": "CA", "display_address": ["2647 Gateway Rd", "Ste 101", "Carlsbad, CA 92009"]}, "phone": "+17609308988", "display_phone": "(760) 930-8988", "distance": 6733.210651222055}, {"id": "eWIgR7DeS7BnKbFtIp-m4w", "alias": "pizza-port-bressi-ranch-carlsbad", "name": "Pizza Port Bressi Ranch", "image_url": "https://s3-media2.fl.yelpcdn.com/bphoto/I4DZ4hgRvvei0oqrTyvsXQ/o.jpg", "is_closed": false, "url": "https://www.yelp.com/biz/pizza-port-bressi-ranch-carlsbad?adjust_creative=oncXGL2aPIKrtJdnWeFSnA&utm_campaign=yelp_api_v3&utm_medium=api_v3_business_search&utm_source=oncXGL2aPIKrtJdnWeFSnA", "review_count": 518, "categories": [{"alias": "pizza", "title": "Pizza"}, {"alias": "pubs", "title": "Pubs"}], "rating": 3.5, "coordinates": {"latitude": 33.1283833252746, "longitude": -117.25021150388}, "transactions": ["pickup"], "price": "$$", "location": {"address1": "2730 Gateway Rd", "address2": null, "address3": "", "city": "Carlsbad", "zip_code": "92009", "country": "US", "state": "CA", "display_address": ["2730 Gateway Rd", "Carlsbad, CA 92009"]}, "phone": "+17607071655", "display_phone": "(760) 707-1655", "distance": 6968.668045651536}, {"id": "FRQ6rb-uvF5CGO_KhNXt0A", "alias": "flippin-pizza-la-costa", "name": "Flippin' Pizza", "image_url": "https://s3-media2.fl.yelpcdn.com/bphoto/4l7W4UG2XcxuxhA8WUy1DQ/o.jpg", "is_closed": false, "url": "https://www.yelp.com/biz/flippin-pizza-la-costa?adjust_creative=oncXGL2aPIKrtJdnWeFSnA&utm_campaign=yelp_api_v3&utm_medium=api_v3_business_search&utm_source=oncXGL2aPIKrtJdnWeFSnA", "review_count": 179, "categories": [{"alias": "pizza", "title": "Pizza"}], "rating": 3.5, "coordinates": {"latitude": 33.0858811396586, "longitude": -117.266553096787}, "transactions": ["delivery"], "price": "$", "location": {"address1": "7662 El Camino Real", "address2": "", "address3": "", "city": "La Costa", "zip_code": "92009", "country": "US", "state": "CA", "display_address": ["7662 El Camino Real", "La Costa, CA 92009"]}, "phone": "+17604367499", "display_phone": "(760) 436-7499", "distance": 8752.161406116553}, {"id": "c4JMxplh7LSKotJWZTXMEg", "alias": "allens-new-york-pizza-carlsbad", "name": "Allen's New York Pizza", "image_url": "https://s3-media2.fl.yelpcdn.com/bphoto/J3Y5R-ljCiB6QTo_b6_MBg/o.jpg", "is_closed": false, "url": "https://www.yelp.com/biz/allens-new-york-pizza-carlsbad?adjust_creative=oncXGL2aPIKrtJdnWeFSnA&utm_campaign=yelp_api_v3&utm_medium=api_v3_business_search&utm_source=oncXGL2aPIKrtJdnWeFSnA", "review_count": 229, "categories": [{"alias": "pizza", "title": "Pizza"}, {"alias": "italian", "title": "Italian"}], "rating": 3.5, "coordinates": {"latitude": 33.1042566703733, "longitude": -117.268763358981}, "transactions": ["delivery", "pickup"], "price": "$", "location": {"address1": "6943 El Camino Real", "address2": "", "address3": "", "city": "Carlsbad", "zip_code": "92009", "country": "US", "state": "CA", "display_address": ["6943 El Camino Real", "Carlsbad, CA 92009"]}, "phone": "+17609189999", "display_phone": "(760) 918-9999", "distance": 7028.643922982737}, {"id": "iDqjGpLfBOUNBD0bZUPHTA", "alias": "pizza-hut-carlsbad-4", "name": "Pizza Hut", "image_url": "https://s3-media2.fl.yelpcdn.com/bphoto/rMVZqWULh1ri3noZ5FjIAw/o.jpg", "is_closed": false, "url": "https://www.yelp.com/biz/pizza-hut-carlsbad-4?adjust_creative=oncXGL2aPIKrtJdnWeFSnA&utm_campaign=yelp_api_v3&utm_medium=api_v3_business_search&utm_source=oncXGL2aPIKrtJdnWeFSnA", "review_count": 34, "categories": [{"alias": "pizza", "title": "Pizza"}, {"alias": "italian", "title": "Italian"}, {"alias": "chicken_wings", "title": "Chicken Wings"}], "rating": 4.0, "coordinates": {"latitude": 33.0825253, "longitude": -117.266711}, "transactions": [], "price": "$", "location": {"address1": "7750 El Camino Real", "address2": "Ste E", "address3": "", "city": "Carlsbad", "zip_code": "92009", "country": "US", "state": "CA", "display_address": ["7750 El Camino Real", "Ste E", "Carlsbad, CA 92009"]}, "phone": "+17609444222", "display_phone": "(760) 944-4222", "distance": 9052.850533364277}, {"id": "cVVxcRO-m-ObsuYD3thxLQ", "alias": "crust-pizzeria-carlsbad", "name": "Crust Pizzeria", "image_url": "https://s3-media3.fl.yelpcdn.com/bphoto/CVNKSesTTLGh52dCBMR7iQ/o.jpg", "is_closed": false, "url": "https://www.yelp.com/biz/crust-pizzeria-carlsbad?adjust_creative=oncXGL2aPIKrtJdnWeFSnA&utm_campaign=yelp_api_v3&utm_medium=api_v3_business_search&utm_source=oncXGL2aPIKrtJdnWeFSnA", "review_count": 359, "categories": [{"alias": "pizza", "title": "Pizza"}, {"alias": "wine_bars", "title": "Wine Bars"}, {"alias": "italian", "title": "Italian"}], "rating": 4.0, "coordinates": {"latitude": 33.0757914, "longitude": -117.2378596}, "transactions": ["delivery"], "price": "$$", "location": {"address1": "3263 Camino De Los Coches", "address2": "Ste 105", "address3": "", "city": "Carlsbad", "zip_code": "92009", "country": "US", "state": "CA", "display_address": ["3263 Camino De Los Coches", "Ste 105", "Carlsbad, CA 92009"]}, "phone": "+17609441111", "display_phone": "(760) 944-1111", "distance": 11322.06459252591}, {"id": "RfPLMtsNjSt4766lMWmDlQ", "alias": "marketplace-carlsbad-3", "name": "Marketplace", "image_url": "https://s3-media3.fl.yelpcdn.com/bphoto/vZSzC2QGOT5XUUqtmd2hZA/o.jpg", "is_closed": false, "url": "https://www.yelp.com/biz/marketplace-carlsbad-3?adjust_creative=oncXGL2aPIKrtJdnWeFSnA&utm_campaign=yelp_api_v3&utm_medium=api_v3_business_search&utm_source=oncXGL2aPIKrtJdnWeFSnA", "review_count": 6, "categories": [{"alias": "sandwiches", "title": "Sandwiches"}, {"alias": "icecream", "title": "Ice Cream & Frozen Yogurt"}, {"alias": "pizza", "title": "Pizza"}], "rating": 3.0, "coordinates": {"latitude": 33.091748, "longitude": -117.268002}, "transactions": [], "price": "$$$", "location": {"address1": "2100 Costa Del Mar Rd", "address2": "", "address3": "Omni La Costa Resort & Spa", "city": "Carlsbad", "zip_code": "92009", "country": "US", "state": "CA", "display_address": ["2100 Costa Del Mar Rd", "Omni La Costa Resort & Spa", "Carlsbad, CA 92009"]}, "phone": "+17604389111", "display_phone": "(760) 438-9111", "distance": 8143.799652743194}, {"id": "QkeyoOXj1V7I7_gkWsOhOg", "alias": "red-oven-artisanal-pizza-carlsbad-4", "name": "Red Oven Artisanal Pizza", "image_url": "https://s3-media2.fl.yelpcdn.com/bphoto/NObu10C3JQoIrM8wvJ13xw/o.jpg", "is_closed": false, "url": "https://www.yelp.com/biz/red-oven-artisanal-pizza-carlsbad-4?adjust_creative=oncXGL2aPIKrtJdnWeFSnA&utm_campaign=yelp_api_v3&utm_medium=api_v3_business_search&utm_source=oncXGL2aPIKrtJdnWeFSnA", "review_count": 165, "categories": [{"alias": "pizza", "title": "Pizza"}, {"alias": "catering", "title": "Caterers"}, {"alias": "foodtrucks", "title": "Food Trucks"}], "rating": 4.5, "coordinates": {"latitude": 33.0892333984375, "longitude": -117.254249572754}, "transactions": [], "price": "$$", "location": {"address1": "", "address2": "", "address3": "", "city": "Carlsbad", "zip_code": "92009", "country": "US", "state": "CA", "display_address": ["Carlsbad, CA 92009"]}, "phone": "+17608141688", "display_phone": "(760) 814-1688", "distance": 8959.908806832957}, {"id": "E3HZhCH3w_zEOmcaHmlvBg", "alias": "dominos-pizza-carlsbad-4", "name": "Domino's Pizza", "image_url": "https://s3-media2.fl.yelpcdn.com/bphoto/Q5mLrFV3X9J2y7ly2jwu_A/o.jpg", "is_closed": false, "url": "https://www.yelp.com/biz/dominos-pizza-carlsbad-4?adjust_creative=oncXGL2aPIKrtJdnWeFSnA&utm_campaign=yelp_api_v3&utm_medium=api_v3_business_search&utm_source=oncXGL2aPIKrtJdnWeFSnA", "review_count": 61, "categories": [{"alias": "pizza", "title": "Pizza"}], "rating": 3.0, "coordinates": {"latitude": 33.10401, "longitude": -117.26627}, "transactions": [], "price": "$", "location": {"address1": "6986 El Camino Real", "address2": "Ste A", "address3": "", "city": "Carlsbad", "zip_code": "92009", "country": "US", "state": "CA", "display_address": ["6986 El Camino Real", "Ste A", "Carlsbad, CA 92009"]}, "phone": "+17604383033", "display_phone": "(760) 438-3033", "distance": 7168.159350070367}, {"id": "iA11mSljVxipWc8qvOkP0g", "alias": "pizza-mania-carlsbad", "name": "Pizza Mania", "image_url": "https://s3-media3.fl.yelpcdn.com/bphoto/VYOz7Km30EuKlmOqsE-WuA/o.jpg", "is_closed": false, "url": "https://www.yelp.com/biz/pizza-mania-carlsbad?adjust_creative=oncXGL2aPIKrtJdnWeFSnA&utm_campaign=yelp_api_v3&utm_medium=api_v3_business_search&utm_source=oncXGL2aPIKrtJdnWeFSnA", "review_count": 9, "categories": [{"alias": "pizza", "title": "Pizza"}], "rating": 3.0, "coordinates": {"latitude": 33.1262054, "longitude": -117.3116059}, "transactions": [], "price": "$", "location": {"address1": "1 Legoland Dr", "address2": "", "address3": "", "city": "Carlsbad", "zip_code": "92008", "country": "US", "state": "CA", "display_address": ["1 Legoland Dr", "Carlsbad, CA 92008"]}, "phone": "+17609185346", "display_phone": "(760) 918-5346", "distance": 2816.310860075349}, {"id": "IWKsOD-3taJbpfIejtHCXA", "alias": "dominos-pizza-carlsbad-6", "name": "Domino's Pizza", "image_url": "https://s3-media4.fl.yelpcdn.com/bphoto/2q84yFt0U6gNp_YWgJcbUg/o.jpg", "is_closed": false, "url": "https://www.yelp.com/biz/dominos-pizza-carlsbad-6?adjust_creative=oncXGL2aPIKrtJdnWeFSnA&utm_campaign=yelp_api_v3&utm_medium=api_v3_business_search&utm_source=oncXGL2aPIKrtJdnWeFSnA", "review_count": 25, "categories": [{"alias": "chicken_wings", "title": "Chicken Wings"}, {"alias": "pizza", "title": "Pizza"}, {"alias": "sandwiches", "title": "Sandwiches"}], "rating": 3.0, "coordinates": {"latitude": 33.0816831, "longitude": -117.2321656}, "transactions": [], "price": "$", "location": {"address1": "3451 Via Montebello", "address2": "Ste 186", "address3": "", "city": "Carlsbad", "zip_code": "92009", "country": "US", "state": "CA", "display_address": ["3451 Via Montebello", "Ste 186", "Carlsbad, CA 92009"]}, "phone": "+17607040050", "display_phone": "(760) 704-0050", "distance": 11232.55388086255}], "total": 27}